$GPGLL,0557.7285,S,03508.9041,W,203345,A*2b
$GPGSV,3,1,12,8,3.0,217.0,0.0,10,35.0,191.0,19.0,14,84.0,9.0,37.0,16,21.0,286.0,27.0*48
$GPGLL,0557.7291,S,03508.9038,W,203346,A*23
$GPGSV,3,1,12,8,3.0,217.0,0.0,10,35.0,191.0,21.0,14,84.0,9.0,37.0,16,21.0,286.0,25.0*41
$GPGSV,3,1,12,8,3.0,217.0,0.0,10,35.0,191.0,31.0,14,84.0,9.0,37.0,16,21.0,286.0,24.0*41
$GPGLL,0557.7305,S,03508.9029,W,203348,A*21
$GPGSV,3,1,12,8,3.0,217.0,0.0,10,35.0,191.0,32.0,14,84.0,9.0,38.0,16,21.0,286.0,24.0*4d
$GPGLL,0557.7313,S,03508.9023,W,203349,A*2d
$GPRMC,203349,A,0557.7313,S,03508.9023,W,3.4498618651097597,142.81,060216,,*1d
$GPGSA,A,3,,10,14,16,18,21,22,,26,27,29,31,,,,*31
$GPGSV,3,1,12,8,3.0,217.0,0.0,10,35.0,191.0,33.0,14,84.0,9.0,38.0,16,21.0,286.0,24.0*4c
$GPGSV,3,1,12,8,3.0,217.0,0.0,10,35.0,191.0,34.0,14,84.0,9.0,37.0,16,21.0,286.0,23.0*43
$GPGGA,203351,0557.7324,S,03508.9011,W,1,10,2.6,13.8,M,,,,*25
$GPGLL,0557.7324,S,03508.9011,W,203351,A*21
$GPGLL,0557.7328,S,03508.9006,W,203352,A*28
$GPGSV,3,2,12,18,21.0,153.0,29.0,21,39.0,114.0,28.0,22,28.0,248.0,23.0,24,4.0,113.0,14.0*4b
$GPGSV,3,3,12,26,24.0,317.0,21.0,27,31.0,221.0,19.0,29,20.0,31.0,20.0,31,19.0,358.0,24.0*4b
$GPGGA,203354,0557.7328,S,03508.8999,W,1,10,2.6,13.4,M,,,,*28
$GPGLL,0557.7328,S,03508.8999,W,203354,A*20
$GPGSV,3,2,12,18,21.0,153.0,29.0,21,39.0,114.0,28.0,22,28.0,248.0,24.0,24,4.0,113.0,13.0*4b
$GPGSV,3,3,12,26,24.0,317.0,22.0,27,31.0,221.0,18.0,29,20.0,31.0,19.0,31,19.0,358.0,25.0*42
$GPGSV,3,1,12,8,3.0,217.0,0.0,10,35.0,191.0,32.0,14,84.0,9.0,36.0,16,21.0,286.0,23.0*44
$GPGLL,0557.7328,S,03508.8999,W,203356,A*22
$GPRMC,203356,A,0557.7328,S,03508.8999,W,0.0,57.2,060216,,*26
$GPGSA,A,3,,10,14,16,18,21,22,,26,27,,31,,,,*3a
$GPGSV,3,1,12,8,3.0,217.0,0.0,10,35.0,191.0,33.0,14,84.0,9.0,36.0,16,21.0,286.0,23.0*45
$GPGLL,0557.7328,S,03508.8999,W,203357,A*23
$GPRMC,203357,A,0557.7328,S,03508.8999,W,0.0,57.2,060216,,*27
$GPGLL,0557.7468,S,03508.8885,W,203513,A*2a
$GPGSV,3,2,12,18,21.0,153.0,30.0,21,39.0,114.0,35.0,22,28.0,248.0,31.0,24,4.0,113.0,0.0*79
$GPGSV,3,3,12,26,24.0,317.0,25.0,27,31.0,221.0,39.0,29,20.0,31.0,13.0,31,19.0,358.0,16.0*4c
$GPGGA,203515,0557.7468,S,03508.8885,W,1,10,1.8,13.3,M,,,,*2e
$GPGLL,0557.7468,S,03508.8885,W,203515,A*2c
$GPGSV,3,2,12,18,21.0,153.0,30.0,21,39.0,114.0,35.0,22,28.0,248.0,30.0,24,4.0,113.0,0.0*78
$GPGSV,3,2,12,18,21.0,153.0,30.0,21,39.0,114.0,34.0,22,28.0,248.0,31.0,24,4.0,113.0,0.0*78
$GPGGA,203517,0557.7468,S,03508.8885,W,1,10,1.8,13.3,M,,,,*2c
$GPGLL,0557.7468,S,03508.8885,W,203517,A*2e
$GPRMC,203517,A,0557.7468,S,03508.8885,W,0.0,139.25,060216,,*26
$GPGSA,A,3,,10,14,16,18,21,22,,26,27,29,31,,,,*31
$GPGSV,3,1,12,8,3.0,217.0,0.0,10,35.0,191.0,34.0,14,84.0,9.0,38.0,16,21.0,286.0,26.0*49
$GPGSV,3,1,12,8,3.0,217.0,0.0,10,35.0,191.0,34.0,14,84.0,9.0,38.0,16,21.0,286.0,26.0*49
$GPGSV,3,2,12,18,21.0,153.0,29.0,21,39.0,114.0,35.0,22,28.0,248.0,30.0,24,4.0,113.0,0.0*70
$GPGLL,0557.7468,S,03508.8885,W,203554,A*29
$GPGSV,3,1,12,8,3.0,217.0,0.0,10,34.0,190.0,37.0,14,85.0,11.0,38.0,16,21.0,287.0,26.0*73
$GPGSV,3,2,12,18,21.0,153.0,28.0,21,39.0,113.0,36.0,22,28.0,247.0,32.0,24,4.0,114.0,0.0*7f
$GPGSV,3,3,12,26,24.0,318.0,22.0,27,32.0,221.0,38.0,29,19.0,31.0,18.0,31,20.0,359.0,21.0*48
$GPGGA,203555,0557.7468,S,03508.8885,W,1,10,2.2,13.3,M,,,,*23
$GPGLL,0557.7468,S,03508.8885,W,203555,A*28
$GPGSV,3,2,12,18,21.0,153.0,28.0,21,39.0,113.0,35.0,22,28.0,247.0,31.0,24,4.0,114.0,0.0*7f
$GPGSV,3,2,12,18,21.0,153.0,29.0,21,39.0,113.0,33.0,22,28.0,247.0,31.0,24,4.0,114.0,0.0*78
$GPGLL,0557.7485,S,03508.8880,W,203557,A*2c
$GPRMC,203557,A,0557.7485,S,03508.8880,W,1.915033510040611,135.21,060216,,*26
$GPGSA,A,3,,10,14,16,18,21,22,,26,27,29,31,,,,*31
$GPGSV,3,1,12,8,3.0,217.0,0.0,10,34.0,190.0,36.0,14,85.0,11.0,35.0,16,21.0,287.0,24.0*7d
$GPGSV,3,2,12,18,21.0,153.0,29.0,21,39.0,113.0,32.0,22,28.0,247.0,30.0,24,4.0,114.0,0.0*78
$GPGSV,3,3,12,26,24.0,318.0,20.0,27,32.0,221.0,40.0,29,19.0,31.0,16.0,31,20.0,359.0,20.0*4a
$GPGSV,3,1,12,8,3.0,217.0,0.0,10,34.0,190.0,37.0,14,85.0,11.0,36.0,16,21.0,287.0,25.0*7e
$GPGLL,0557.7491,S,03508.8872,W,203559,A*2a
$GPRMC,203559,A,0557.7491,S,03508.8872,W,1.5348282392069883,129.04,060216,,*17
$GPGGA,203600,0557.7491,S,03508.8872,W,1,10,3.1,12.3,M,,,,*2d
$GPGLL,0557.7491,S,03508.8872,W,203600,A*25
$GPGSV,3,2,12,18,21.0,153.0,30.0,21,39.0,113.0,33.0,22,28.0,247.0,29.0,24,4.0,114.0,0.0*79
$GPGSV,3,2,12,18,21.0,153.0,31.0,21,39.0,113.0,34.0,22,28.0,247.0,29.0,24,4.0,114.0,0.0*7f
$GPGLL,0557.7492,S,03508.8872,W,203602,A*24
$GPGSV,3,2,12,18,21.0,153.0,30.0,21,39.0,113.0,35.0,22,28.0,247.0,30.0,24,4.0,114.0,0.0*77
$GPGSV,3,3,12,26,24.0,318.0,25.0,27,32.0,221.0,38.0,29,19.0,31.0,12.0,31,20.0,359.0,16.0*41
$GPGSA,A,3,,10,14,16,18,21,22,,26,27,29,31,,,,*31
$GPGSV,3,1,12,8,3.0,217.0,0.0,10,34.0,190.0,38.0,14,85.0,11.0,36.0,16,21.0,287.0,16.0*71
$GPGLL,0557.7496,S,03508.8871,W,203604,A*25
$GPRMC,203604,A,0557.7496,S,03508.8871,W,0.0,120.56,060216,,*21
$GPGSV,3,2,12,18,21.0,153.0,30.0,21,39.0,113.0,33.0,22,28.0,247.0,36.0,24,4.0,114.0,0.0*77
$GPGSV,3,3,12,26,24.0,318.0,18.0,27,32.0,221.0,37.0,29,19.0,31.0,19.0,31,20.0,359.0,18.0*45
$GPGSA,A,3,,10,14,16,18,21,22,,26,27,29,31,,,,*31
$GPGSV,3,1,12,8,3.0,217.0,0.0,10,34.0,190.0,35.0,14,85.0,11.0,36.0,16,21.0,287.0,22.0*7b
$GPGLL,0557.7540,S,03508.8836,W,203642,A*2e
$GPGSV,3,2,12,18,21.0,153.0,29.0,21,39.0,113.0,33.0,22,28.0,247.0,36.0,24,4.0,114.0,0.0*7f
$GPGSV,3,3,12,26,24.0,318.0,16.0,27,32.0,221.0,37.0,29,19.0,31.0,19.0,31,20.0,359.0,20.0*40
$GPGLL,0557.7540,S,03508.8836,W,203644,A*28
$GPGSV,3,2,12,18,21.0,153.0,30.0,21,39.0,113.0,34.0,22,28.0,247.0,35.0,24,4.0,114.0,0.0*73
$GPGSV,3,3,12,26,24.0,318.0,15.0,27,32.0,221.0,36.0,29,19.0,31.0,19.0,31,20.0,359.0,20.0*42
$GPGSA,A,3,,10,14,16,18,21,22,,26,27,29,31,,,,*31
$GPGSV,3,1,12,8,3.0,217.0,0.0,10,34.0,190.0,37.0,14,85.0,11.0,35.0,16,21.0,287.0,24.0*7c
$GPGLL,0557.7540,S,03508.8836,W,203646,A*2a
$GPRMC,203646,A,0557.7540,S,03508.8836,W,0.0,141.83,060216,,*21
$GPGLL,0557.7874,S,03508.8576,W,203847,A*26
$GPGSV,3,1,12,8,4.0,217.0,16.0,10,34.0,189.0,34.0,14,86.0,15.0,32.0,16,20.0,288.0,31.0*4d
$GPGSV,3,1,12,8,4.0,217.0,14.0,10,34.0,189.0,26.0,14,86.0,15.0,25.0,16,20.0,288.0,29.0*43
$GPGSV,3,2,12,18,21.0,152.0,28.0,21,39.0,112.0,37.0,22,28.0,246.0,36.0,24,4.0,115.0,17.0*4c
$GPGSV,3,3,12,26,24.0,319.0,28.0,27,33.0,222.0,37.0,29,19.0,31.0,41.0,31,20.0,359.0,20.0*43
$GPGGA,203849,0557.7876,S,03508.8573,W,1,10,1.6,13.7,M,,,,*27
$GPGSV,3,1,12,8,4.0,217.0,14.0,10,34.0,189.0,25.0,14,86.0,15.0,25.0,16,20.0,288.0,28.0*41
$GPGSV,3,1,12,8,4.0,217.0,14.0,10,34.0,189.0,24.0,14,86.0,15.0,25.0,16,20.0,288.0,28.0*40
$GPGGA,203851,0557.7876,S,03508.8573,W,1,10,1.6,13.7,M,,,,*2e
$GPGLL,0557.7876,S,03508.8573,W,203851,A*26
$GPRMC,203851,A,0557.7876,S,03508.8573,W,0.0,140.12,060216,,*24
$GPGSA,A,3,,10,14,16,18,21,22,,26,27,29,31,,,,*31
$GPGSV,3,1,12,8,4.0,217.0,14.0,10,34.0,189.0,22.0,14,86.0,15.0,25.0,16,20.0,288.0,29.0*47
$GPGLL,0557.7876,S,03508.8573,W,203852,A*25
$GPGSV,3,2,12,18,21.0,152.0,29.0,21,39.0,112.0,37.0,22,28.0,246.0,36.0,24,4.0,115.0,14.0*4e
$GPGSV,3,3,12,26,24.0,319.0,29.0,27,33.0,222.0,36.0,29,19.0,31.0,42.0,31,20.0,359.0,17.0*44
$GPGGA,203854,0557.7876,S,03508.8573,W,1,10,1.6,13.7,M,,,,*2b
$GPGLL,0557.7876,S,03508.8573,W,203854,A*23
$GPGSV,3,2,12,18,21.0,152.0,30.0,21,39.0,112.0,37.0,22,28.0,246.0,36.0,24,4.0,115.0,12.0*40
$GPGSV,3,2,12,18,21.0,152.0,29.0,21,39.0,112.0,37.0,22,28.0,246.0,36.0,24,4.0,115.0,12.0*48
$GPGSV,3,3,12,26,24.0,319.0,29.0,27,33.0,222.0,36.0,29,19.0,31.0,41.0,31,20.0,359.0,18.0*48
$GPGSV,3,2,12,18,21.0,152.0,29.0,21,39.0,112.0,37.0,22,28.0,246.0,36.0,24,4.0,115.0,15.0*4f
$GPGSV,3,3,12,26,24.0,319.0,28.0,27,33.0,222.0,37.0,29,19.0,31.0,41.0,31,20.0,359.0,17.0*47
$GPGGA,203856,0557.7876,S,03508.8573,W,1,10,1.7,13.7,M,,,,*28
$GPGLL,0557.7876,S,03508.8573,W,203856,A*21
$GPRMC,203856,A,0557.7876,S,03508.8573,W,0.0,140.12,060216,,*23
$GPGSA,A,3,,10,14,16,18,21,22,,26,27,29,31,,,,*31
$GPGSV,3,1,12,8,4.0,217.0,14.0,10,34.0,189.0,35.0,14,86.0,15.0,30.0,16,20.0,288.0,30.0*4d
$GPGSV,3,2,12,18,20.0,151.0,36.0,21,39.0,111.0,34.0,22,28.0,245.0,35.0,24,4.0,116.0,16.0*43
$GPGSV,3,3,12,26,23.0,320.0,25.0,27,33.0,223.0,38.0,29,18.0,30.0,19.0,31,21.0,0.0,26.0*48
$GPGSA,A,3,,10,14,16,18,21,22,,26,27,29,31,,,,*31
$GPGSV,3,1,12,8,5.0,217.0,14.0,10,34.0,188.0,38.0,14,87.0,22.0,35.0,16,20.0,289.0,32.0*43
$GPGLL,0557.7958,S,03508.8461,W,204010,A*23
$GPGSV,3,1,12,8,5.0,217.0,14.0,10,34.0,188.0,38.0,14,87.0,22.0,35.0,16,20.0,289.0,33.0*42
$GPGSV,3,2,12,18,20.0,151.0,36.0,21,39.0,111.0,35.0,22,28.0,245.0,35.0,24,4.0,116.0,16.0*42
$GPGLL,0557.7958,S,03508.8462,W,204012,A*22
$GPGSV,3,2,12,18,20.0,151.0,35.0,21,39.0,111.0,36.0,22,28.0,245.0,35.0,24,4.0,116.0,16.0*42
$GPGSV,3,3,12,26,23.0,320.0,27.0,27,33.0,223.0,38.0,29,18.0,30.0,18.0,31,21.0,0.0,27.0*4a
$GPGGA,204014,0557.7958,S,03508.8462,W,1,10,1.8,13.2,M,,,,*27
$GPGLL,0557.7958,S,03508.8462,W,204014,A*24
$GPGSV,3,2,12,18,20.0,151.0,26.0,21,39.0,111.0,36.0,22,28.0,245.0,35.0,24,4.0,116.0,16.0*40
$GPGSV,3,2,12,18,20.0,151.0,34.0,21,39.0,111.0,34.0,22,28.0,245.0,35.0,24,4.0,116.0,16.0*41
