$GPGSV,3,2,12,18,22.0,154.0,32.0,21,39.0,116.0,31.0,22,28.0,249.0,34.0,24,5.0,113.0,13.0*4e
$GPGLL,0557.7191,S,03508.9116,W,203336,A*2a
$GPGSV,3,1,12,8,3.0,217.0,0.0,10,35.0,191.0,39.0,14,83.0,7.0,36.0,16,21.0,285.0,24.0*42
$GPGSV,3,1,12,8,3.0,217.0,0.0,10,35.0,191.0,30.0,14,84.0,9.0,37.0,16,21.0,285.0,23.0*44
$GPGSV,3,2,12,18,22.0,154.0,31.0,21,39.0,116.0,29.0,22,28.0,249.0,34.0,24,5.0,113.0,15.0*42
$GPGSV,3,3,12,26,24.0,317.0,22.0,27,31.0,220.0,36.0,29,21.0,31.0,32.0,31,19.0,358.0,28.0*4a
$GPGGA,203338,0557.7220,S,03508.9097,W,1,11,2.7,15.1,M,,,,*2e
$GPGSV,3,1,12,8,3.0,217.0,0.0,10,35.0,191.0,31.0,14,84.0,9.0,38.0,16,21.0,285.0,22.0*4b
$GPGLL,0557.7233,S,03508.9087,W,203339,A*27
$GPRMC,203339,A,0557.7233,S,03508.9087,W,5.884175674268008,140.73,060216,,*21
$GPGSA,A,3,,10,14,16,18,21,22,24,26,27,29,31,,,,*37
$GPGSV,3,1,12,8,3.0,217.0,0.0,10,35.0,191.0,31.0,14,84.0,9.0,38.0,16,21.0,286.0,23.0*49
$GPGLL,0557.7247,S,03508.9076,W,203340,A*24
$GPGSV,3,2,12,18,22.0,154.0,31.0,21,39.0,116.0,29.0,22,28.0,249.0,20.0,24,5.0,113.0,15.0*47
$GPGSV,3,2,12,18,21.0,153.0,27.0,21,39.0,114.0,29.0,22,28.0,248.0,27.0,24,4.0,113.0,13.0*47
$GPGSV,3,1,12,8,3.0,217.0,0.0,10,35.0,191.0,38.0,14,84.0,9.0,36.0,16,21.0,286.0,21.0*4c
$GPGSV,3,2,12,18,21.0,153.0,28.0,21,39.0,114.0,30.0,22,28.0,248.0,28.0,24,4.0,113.0,13.0*4f
$GPGLL,0557.7328,S,03508.8999,W,203402,A*24
$GPGSV,3,2,12,18,21.0,153.0,26.0,21,39.0,114.0,29.0,22,28.0,248.0,28.0,24,4.0,113.0,12.0*48
$GPGSV,3,3,12,26,24.0,317.0,20.0,27,31.0,221.0,31.0,29,20.0,31.0,19.0,31,19.0,358.0,27.0*49
$GPGSA,A,3,,10,14,16,18,21,22,,26,27,29,31,,,,*31
$GPGLL,0557.7328,S,03508.8999,W,203404,A*22
$GPRMC,203404,A,0557.7328,S,03508.8999,W,0.0,57.2,060216,,*26
$GPGSA,A,3,,10,14,16,18,21,22,,26,27,29,31,,,,*31
$GPGSV,3,1,12,8,3.0,217.0,0.0,10,35.0,191.0,37.0,14,84.0,9.0,35.0,16,21.0,286.0,21.0*40
$GPGSV,3,3,12,26,24.0,317.0,19.0,27,31.0,221.0,31.0,29,20.0,31.0,20.0,31,19.0,358.0,26.0*48
$GPGSV,3,1,12,8,3.0,217.0,0.0,10,35.0,191.0,38.0,14,84.0,9.0,35.0,16,21.0,286.0,21.0*4f
$GPGSV,3,2,12,18,21.0,153.0,32.0,21,39.0,114.0,22.0,22,28.0,248.0,29.0,24,4.0,113.0,13.0*46
$GPGSV,3,2,12,18,21.0,153.0,31.0,21,39.0,114.0,35.0,22,28.0,248.0,30.0,24,4.0,113.0,0.0*79
$GPGSV,3,3,12,26,24.0,317.0,20.0,27,31.0,221.0,38.0,29,20.0,31.0,16.0,31,19.0,358.0,22.0*4a
$GPGSA,A,3,,10,14,16,18,21,22,,26,27,,31,,,,*3a
$GPGSV,3,1,12,8,3.0,217.0,0.0,10,35.0,191.0,34.0,14,84.0,9.0,40.0,16,21.0,286.0,24.0*44
$GPGSV,3,1,12,8,3.0,217.0,0.0,10,35.0,191.0,34.0,14,84.0,9.0,40.0,16,21.0,286.0,26.0*46
$GPGSV,3,2,12,18,21.0,153.0,29.0,21,39.0,114.0,35.0,22,28.0,248.0,30.0,24,4.0,113.0,0.0*70
$GPGSV,3,3,12,26,24.0,317.0,21.0,27,31.0,221.0,38.0,29,20.0,31.0,15.0,31,19.0,358.0,22.0*48
$GPGSV,3,1,12,8,3.0,217.0,0.0,10,34.0,190.0,34.0,14,84.0,9.0,40.0,16,21.0,286.0,26.0*46
$GPGLL,0557.7468,S,03508.8885,W,203528,A*22
$GPRMC,203528,A,0557.7468,S,03508.8885,W,0.0,139.25,060216,,*2a
$GPGSA,A,3,,10,14,16,18,21,22,,26,27,29,31,,,,*31
$GPGSV,3,1,12,8,3.0,217.0,0.0,10,34.0,190.0,34.0,14,84.0,9.0,40.0,16,21.0,286.0,26.0*46
$GPGLL,0557.7468,S,03508.8885,W,203529,A*23
$GPGSV,3,2,12,18,21.0,153.0,29.0,21,39.0,114.0,36.0,22,28.0,248.0,32.0,24,4.0,113.0,0.0*71
$GPGSV,3,1,12,8,4.0,217.0,0.0,10,34.0,189.0,37.0,14,86.0,15.0,35.0,16,20.0,288.0,25.0*7b
$GPGLL,0557.7682,S,03508.8728,W,203752,A*23
$GPRMC,203752,A,0557.7682,S,03508.8728,W,0.0,137.03,060216,,*21
$GPGSA,A,3,,10,14,16,18,21,22,,26,27,29,31,,,,*31
$GPGSV,3,1,12,8,4.0,217.0,0.0,10,34.0,189.0,37.0,14,86.0,15.0,35.0,16,20.0,288.0,27.0*79
$GPGLL,0557.7682,S,03508.8728,W,203753,A*22
$GPRMC,203753,A,0557.7682,S,03508.8728,W,0.0,137.03,060216,,*20
$GPGSV,3,1,12,8,4.0,217.0,0.0,10,34.0,189.0,37.0,14,86.0,15.0,35.0,16,20.0,288.0,28.0*76
$GPGLL,0557.7682,S,03508.8728,W,203755,A*24
$GPGSV,3,1,12,8,4.0,217.0,0.0,10,34.0,189.0,37.0,14,86.0,15.0,35.0,16,20.0,288.0,29.0*77
$GPGLL,0557.7682,S,03508.8728,W,203756,A*27
$GPRMC,203756,A,0557.7682,S,03508.8728,W,0.0,137.03,060216,,*25
$GPGSA,A,3,,10,14,16,18,21,22,,26,27,29,31,,,,*31
$GPGSV,3,1,12,8,4.0,217.0,0.0,10,34.0,189.0,37.0,14,86.0,15.0,35.0,16,20.0,288.0,29.0*77
$GPGLL,0557.7686,S,03508.8724,W,203802,A*21
$GPGSV,3,2,12,18,21.0,152.0,31.0,21,39.0,112.0,37.0,22,28.0,246.0,36.0,24,4.0,115.0,16.0*45
$GPGSV,3,3,12,26,24.0,319.0,26.0,27,33.0,222.0,33.0,29,19.0,31.0,17.0,31,20.0,359.0,21.0*4b
$GPGSA,A,3,,10,14,16,18,21,22,,26,27,29,31,,,,*31
$GPGSV,3,1,12,8,4.0,217.0,0.0,10,34.0,189.0,37.0,14,86.0,15.0,34.0,16,20.0,288.0,29.0*76
$GPGLL,0557.7702,S,03508.8712,W,203804,A*2f
$GPGSV,3,1,12,8,4.0,217.0,0.0,10,34.0,189.0,37.0,14,86.0,15.0,35.0,16,20.0,288.0,29.0*77
$GPGSV,3,2,12,18,21.0,152.0,30.0,21,39.0,112.0,37.0,22,28.0,246.0,36.0,24,4.0,115.0,16.0*44
$GPGLL,0557.7718,S,03508.8699,W,203806,A*24
$GPGSV,3,2,12,18,21.0,152.0,31.0,21,39.0,112.0,37.0,22,28.0,246.0,36.0,24,4.0,115.0,19.0*4a
$GPGSV,3,3,12,26,24.0,319.0,27.0,27,33.0,222.0,36.0,29,19.0,31.0,12.0,31,20.0,359.0,19.0*41
$GPGGA,203808,0557.7731,S,03508.8689,W,1,10,1.9,14.4,M,,,,*23
$GPGLL,0557.7731,S,03508.8689,W,203808,A*20
$GPRMC,203808,A,0557.7731,S,03508.8689,W,2.5773908323220494,139.75,060216,,*13
