$GPGLL,0548.7806,S,03512.2618,W,094339,A*29
$GPRMC,094339,A,0548.7806,S,03512.2618,W,9.982387126475906,291.15,030216,,*2c
$GPGSA,A,3,,2,5,6,7,9,13,,17,19,28,30,,,,*0a
$GPGSV,3,1,12,1,1.0,128.0,0.0,2,15.0,342.0,17.0,5,14.0,308.0,17.0,6,39.0,22.0,36.0*42
$GPGLL,0548.7795,S,03512.2644,W,094340,A*2b
$GPGSV,3,2,12,7,28.0,76.0,25.0,9,9.0,27.0,15.0,13,47.0,234.0,31.0,15,8.0,226.0,22.0*7d
$GPGSV,3,3,12,17,63.0,170.0,32.0,19,76.0,185.0,31.0,28,22.0,163.0,28.0,30,46.0,110.0,34.0*7b
$GPGLL,0548.7785,S,03512.2668,W,094342,A*26
$GPGSV,3,2,12,7,28.0,76.0,27.0,9,9.0,27.0,17.0,13,47.0,234.0,28.0,15,8.0,226.0,23.0*74
$GPGSV,3,3,12,17,63.0,170.0,30.0,19,76.0,185.0,31.0,28,22.0,163.0,27.0,30,46.0,110.0,35.0*77
$GPGSA,A,3,,2,5,6,7,9,13,,17,19,28,30,,,,*0a
$GPGSV,3,1,12,1,1.0,128.0,0.0,2,15.0,342.0,17.0,5,14.0,308.0,16.0,6,39.0,22.0,30.0*45
$GPGLL,0548.7782,S,03512.2667,W,094344,A*28
$GPGSV,3,1,12,1,1.0,128.0,0.0,2,15.0,342.0,17.0,5,14.0,308.0,16.0,6,39.0,22.0,29.0*4d
$GPGLL,0548.7007,S,03512.4684,W,094550,A*2a
$GPGSV,3,2,12,7,28.0,75.0,15.0,9,8.0,28.0,0.0,13,47.0,235.0,36.0,15,9.0,226.0,27.0*45
$GPGSV,3,1,12,1,1.0,129.0,0.0,2,16.0,342.0,0.0,5,13.0,309.0,25.0,6,39.0,22.0,33.0*74
$GPGLL,0548.6989,S,03512.4753,W,094552,A*2d
$GPRMC,094552,A,0548.6989,S,03512.4753,W,10.162484195382447,295.5,030216,,*28
$GPGSA,A,3,,,5,6,7,9,13,,17,19,28,30,,,,*38
$GPGSV,3,1,12,1,1.0,129.0,0.0,2,16.0,342.0,0.0,5,13.0,309.0,25.0,6,39.0,22.0,28.0*7e
$GPGSV,3,1,12,1,1.0,129.0,0.0,2,16.0,342.0,25.0,5,13.0,309.0,25.0,6,39.0,22.0,29.0*48
$GPGSV,3,2,12,7,28.0,75.0,17.0,9,8.0,28.0,20.0,13,47.0,235.0,35.0,15,9.0,226.0,21.0*70
$GPGSV,3,3,12,17,62.0,170.0,38.0,19,75.0,185.0,39.0,28,22.0,162.0,26.0,30,46.0,109.0,33.0*7b
$GPGGA,094554,0548.6966,S,03512.4780,W,1,9,3.3,55.0,M,,,,*16
$GPGSV,3,1,12,1,1.0,129.0,0.0,2,16.0,342.0,35.0,5,13.0,309.0,24.0,6,39.0,22.0,30.0*40
$GPGSV,3,2,12,7,28.0,75.0,16.0,9,8.0,28.0,16.0,13,47.0,235.0,36.0,15,9.0,226.0,22.0*74
$GPGSV,3,3,12,17,62.0,170.0,38.0,19,75.0,185.0,39.0,28,22.0,162.0,27.0,30,46.0,109.0,34.0*7d
$GPGLL,0548.6919,S,03512.4773,W,094556,A*22
$GPRMC,094556,A,0548.6919,S,03512.4773,W,8.287472024485636,17.8,030216,,*25
$GPGSA,A,3,,2,5,6,7,9,13,,17,19,28,30,,,,*0a
$GPGSV,3,1,12,1,1.0,129.0,0.0,2,16.0,342.0,31.0,5,13.0,309.0,27.0,6,39.0,22.0,31.0*46
$GPGLL,0548.6865,S,03512.4746,W,094558,A*20
$GPRMC,094558,A,0548.6865,S,03512.4746,W,13.091064358417116,22.77,030216,,*23
$GPGSA,A,3,,2,5,6,7,9,13,,17,19,28,30,,,,*0a
$GPGSV,3,1,12,1,1.0,129.0,0.0,2,16.0,342.0,26.0,5,13.0,309.0,36.0,6,39.0,22.0,32.0*43
$GPGLL,0548.6832,S,03512.4726,W,094559,A*25
$GPGLL,0548.6796,S,03512.4712,W,094600,A*2c
$GPRMC,094600,A,0548.6796,S,03512.4712,W,13.325191196823717,21.17,030216,,*21
$GPGSA,A,3,,2,5,6,7,9,13,,17,19,28,30,,,,*0a
$GPGSV,3,1,12,1,1.0,129.0,0.0,2,16.0,342.0,25.0,5,13.0,309.0,27.0,6,39.0,22.0,32.0*40
$GPGSV,3,1,12,1,1.0,129.0,0.0,2,16.0,342.0,25.0,5,13.0,309.0,25.0,6,39.0,22.0,31.0*41
$GPGSV,3,1,11,2,16.0,343.0,19.0,5,13.0,310.0,23.0,6,40.0,23.0,34.0,7,28.0,74.0,28.0*76
$GPGLL,0548.6158,S,03512.2639,W,094737,A*23
$GPRMC,094737,A,0548.6158,S,03512.2639,W,0.0,107.54,030216,,*25
$GPGSA,A,3,2,5,6,7,9,13,,17,19,28,30,,,,,*0a
$GPGSV,3,1,11,2,16.0,343.0,19.0,5,13.0,310.0,23.0,6,40.0,23.0,34.0,7,28.0,74.0,28.0*76
$GPGLL,0548.6158,S,03512.2639,W,094738,A*2c
$GPGSV,3,1,11,2,16.0,343.0,19.0,5,13.0,310.0,23.0,6,40.0,23.0,34.0,7,28.0,74.0,29.0*77
$GPGSV,3,1,11,2,16.0,343.0,18.0,5,13.0,310.0,23.0,6,40.0,23.0,35.0,7,28.0,74.0,30.0*7f
$GPGLL,0548.6158,S,03512.2639,W,094743,A*20
$GPRMC,094743,A,0548.6158,S,03512.2639,W,0.0,107.54,030216,,*26
$GPGSA,A,3,2,5,6,7,9,13,,17,19,28,30,,,,,*0a
$GPGSV,3,1,11,2,16.0,343.0,18.0,5,13.0,310.0,23.0,6,40.0,23.0,35.0,7,28.0,74.0,31.0*7e
$GPGLL,0548.6158,S,03512.2639,W,094744,A*27
$GPGSV,3,2,11,9,7.0,28.0,17.0,13,48.0,236.0,27.0,15,9.0,227.0,16.0,17,61.0,170.0,24.0*7a
$GPGLL,0548.6158,S,03512.2639,W,094750,A*22
$GPGSV,3,2,11,9,7.0,28.0,17.0,13,48.0,236.0,29.0,15,9.0,227.0,16.0,17,61.0,170.0,24.0*74
$GPGSV,3,3,11,19,74.0,184.0,34.0,28,22.0,161.0,11.0,30,46.0,107.0,29.0*56
$GPGSA,A,3,2,5,6,7,9,13,,17,19,28,30,,,,,*0a
$GPGSV,3,1,11,2,16.0,343.0,16.0,5,13.0,310.0,20.0,6,40.0,23.0,34.0,7,28.0,74.0,31.0*72
$GPGLL,0548.6158,S,03512.2639,W,094752,A*20
$GPGSV,3,2,11,9,7.0,28.0,17.0,13,48.0,236.0,29.0,15,9.0,227.0,16.0,17,61.0,170.0,23.0*73
$GPGLL,0548.6158,S,03512.2639,W,094754,A*26
$GPRMC,094754,A,0548.6158,S,03512.2639,W,0.0,107.54,030216,,*20
$GPGSA,A,3,2,5,6,7,9,13,,17,19,28,30,,,,,*0a
$GPGSV,3,1,11,2,16.0,343.0,17.0,5,13.0,310.0,21.0,6,40.0,23.0,34.0,7,28.0,74.0,31.0*72
$GPGSV,3,1,11,2,16.0,343.0,14.0,5,13.0,310.0,22.0,6,40.0,23.0,34.0,7,28.0,74.0,31.0*72
$GPGLL,0548.6158,S,03512.2639,W,094756,A*24
$GPRMC,094756,A,0548.6158,S,03512.2639,W,0.0,107.54,030216,,*22
$GPGLL,0548.6158,S,03512.2639,W,094801,A*29
$GPGSV,3,2,11,9,7.0,28.0,16.0,13,48.0,236.0,32.0,15,9.0,227.0,16.0,17,61.0,170.0,30.0*7a
$GPGSV,3,1,11,2,16.0,343.0,15.0,5,13.0,310.0,22.0,6,40.0,23.0,33.0,7,28.0,74.0,23.0*77
$GPGLL,0548.6158,S,03512.2639,W,094803,A*2b
$GPGSV,3,2,11,9,7.0,28.0,16.0,13,48.0,236.0,33.0,15,9.0,227.0,16.0,17,61.0,170.0,31.0*7a
$GPGSV,3,3,11,19,74.0,184.0,32.0,28,22.0,161.0,17.0,30,46.0,107.0,25.0*5a
$GPGSA,A,3,2,5,6,7,9,13,,17,19,28,30,,,,,*0a
$GPGLL,0548.6169,S,03512.2626,W,094805,A*21
$GPRMC,094805,A,0548.6169,S,03512.2626,W,5.580011550290838,114.5,030216,,*11
$GPGSA,A,3,2,5,6,7,9,13,,17,19,28,30,,,,,*0a
$GPGSV,3,1,11,2,16.0,343.0,17.0,5,13.0,310.0,30.0,6,40.0,23.0,35.0,7,28.0,74.0,27.0*74
$GPGSV,3,1,11,2,16.0,343.0,15.0,5,13.0,310.0,32.0,6,40.0,23.0,35.0,7,28.0,74.0,29.0*7a
$GPGSV,3,2,11,9,7.0,28.0,17.0,13,48.0,236.0,34.0,15,9.0,227.0,16.0,17,61.0,170.0,21.0*7d
$GPGLL,0548.6185,S,03512.2598,W,094807,A*27
$GPRMC,094807,A,0548.6185,S,03512.2598,W,6.829685517751668,140.25,030216,,*22
$GPGSA,A,3,2,5,6,7,9,13,,17,19,28,30,,,,,*0a
$GPGSV,3,1,11,2,16.0,343.0,16.0,5,13.0,310.0,32.0,6,40.0,23.0,33.0,7,28.0,74.0,29.0*7f
$GPGLL,0548.6219,S,03512.2585,W,094809,A*23
$GPGSV,3,2,11,9,7.0,28.0,17.0,13,48.0,236.0,40.0,15,9.0,227.0,16.0,17,61.0,170.0,23.0*7c
$GPGSV,3,2,11,9,7.0,28.0,16.0,13,48.0,236.0,38.0,15,9.0,227.0,16.0,17,61.0,170.0,25.0*74
$GPGSV,3,3,11,19,74.0,184.0,35.0,28,22.0,161.0,24.0,30,46.0,107.0,25.0*5d
$GPGSV,3,2,11,9,7.0,28.0,16.0,13,48.0,236.0,37.0,15,9.0,227.0,16.0,17,61.0,170.0,25.0*7b
$GPGSV,3,2,11,9,7.0,28.0,16.0,13,48.0,236.0,37.0,15,9.0,227.0,17.0,17,61.0,170.0,26.0*79
$GPGSV,3,3,11,19,74.0,184.0,27.0,28,22.0,161.0,22.0,30,46.0,107.0,31.0*5d
$GPGSA,A,3,2,5,6,7,9,13,,17,19,28,30,,,,,*0a
$GPGSV,3,1,11,2,16.0,343.0,20.0,5,13.0,310.0,29.0,6,40.0,23.0,22.0,7,28.0,74.0,28.0*71
$GPGLL,0548.6348,S,03512.2627,W,094813,A*26
$GPGSV,3,2,11,9,7.0,28.0,19.0,13,48.0,236.0,37.0,15,9.0,227.0,16.0,17,61.0,170.0,25.0*74
$GPGLL,0548.6422,S,03512.2656,W,094815,A*2d
$GPGSV,3,2,11,9,7.0,28.0,18.0,13,48.0,236.0,35.0,15,9.0,227.0,16.0,17,61.0,170.0,26.0*74
$GPGSV,3,3,11,19,74.0,184.0,29.0,28,22.0,161.0,22.0,30,46.0,107.0,30.0*52
$GPGSA,A,3,2,5,6,7,9,13,,17,19,28,30,,,,,*0a
$GPGSV,3,1,11,2,17.0,343.0,32.0,5,13.0,310.0,20.0,6,40.0,23.0,23.0,7,28.0,74.0,32.0*70
$GPGLL,0548.6506,S,03512.2692,W,094817,A*20
$GPGSV,3,2,11,9,7.0,28.0,17.0,13,48.0,236.0,36.0,15,9.0,227.0,15.0,17,61.0,170.0,29.0*74
$GPGLL,0548.6612,S,03512.2738,W,094819,A*29
$GPGSV,3,2,11,9,7.0,28.0,13.0,13,48.0,236.0,36.0,15,9.0,227.0,16.0,17,61.0,170.0,28.0*72
$GPGSA,A,3,2,5,6,7,9,13,,17,19,28,30,,,,,*0a
$GPGSV,3,1,11,2,17.0,343.0,25.0,5,13.0,311.0,19.0,6,40.0,24.0,24.0,7,28.0,74.0,28.0*76
$GPGLL,0548.6721,S,03512.2778,W,094821,A*27
$GPRMC,094821,A,0548.6721,S,03512.2778,W,20.633135784105615,200.31,030216,,*18
$GPGSA,A,3,2,5,6,7,9,13,,17,19,28,30,,,,,*0a
$GPGSV,3,1,11,2,17.0,343.0,16.0,5,13.0,311.0,14.0,6,40.0,24.0,32.0,7,27.0,73.0,36.0*7b
$GPGLL,0548.7125,S,03512.2934,W,094837,A*25
$GPRMC,094837,A,0548.7125,S,03512.2934,W,0.0,180.33,030216,,*2d
$GPGSA,A,3,2,5,6,7,9,13,,17,19,28,30,,,,,*0a
$GPGSV,3,1,11,2,17.0,343.0,16.0,5,13.0,311.0,13.0,6,40.0,24.0,32.0,7,27.0,73.0,36.0*7c
$GPGLL,0548.7125,S,03512.2934,W,094838,A*2a
$GPGSV,3,2,11,9,7.0,28.0,19.0,13,48.0,237.0,25.0,15,10.0,227.0,0.0,17,60.0,169.0,30.0*74
$GPGLL,0548.7125,S,03512.2934,W,094840,A*25
$GPGSV,3,2,11,9,7.0,28.0,19.0,13,48.0,237.0,24.0,15,10.0,227.0,0.0,17,60.0,169.0,30.0*75
$GPGSV,3,3,11,19,73.0,183.0,32.0,28,22.0,161.0,30.0,30,46.0,107.0,33.0*58
$GPGSA,A,3,2,5,6,7,9,13,,17,19,28,30,,,,,*0a
$GPGSV,3,1,11,2,17.0,343.0,17.0,5,13.0,311.0,13.0,6,40.0,24.0,31.0,7,27.0,73.0,36.0*7e
$GPGLL,0548.7125,S,03512.2934,W,094842,A*27
$GPGSV,3,2,11,9,7.0,28.0,19.0,13,48.0,237.0,24.0,15,10.0,227.0,0.0,17,60.0,169.0,30.0*75
$GPGLL,0548.7125,S,03512.2934,W,094844,A*21
$GPGSV,3,2,11,9,7.0,28.0,18.0,13,48.0,237.0,25.0,15,10.0,227.0,0.0,17,60.0,169.0,29.0*7d
$GPGSV,3,3,11,19,73.0,183.0,32.0,28,22.0,160.0,26.0,30,46.0,106.0,34.0*58
$GPGSA,A,3,2,,6,7,9,13,,17,19,28,30,,,,,*3f
$GPGSV,3,1,11,2,17.0,343.0,17.0,5,13.0,311.0,0.0,6,40.0,24.0,31.0,7,27.0,73.0,36.0*4c
$GPGLL,0548.7125,S,03512.2934,W,094846,A*23
$GPGSV,3,2,11,9,7.0,28.0,17.0,13,48.0,237.0,26.0,15,10.0,227.0,0.0,17,60.0,169.0,28.0*70
$GPGLL,0548.7125,S,03512.2934,W,094848,A*2d
$GPGSV,3,2,11,9,7.0,28.0,18.0,13,48.0,237.0,32.0,15,10.0,227.0,0.0,17,60.0,169.0,27.0*75
$GPGSV,3,3,11,19,73.0,183.0,31.0,28,22.0,160.0,27.0,30,46.0,106.0,32.0*5c
$GPGSA,A,3,2,,6,7,9,13,,17,19,28,30,,,,,*3f
$GPGSV,3,1,11,2,17.0,343.0,16.0,5,13.0,311.0,0.0,6,40.0,24.0,29.0,7,27.0,73.0,37.0*45
$GPGLL,0548.7155,S,03512.2988,W,094850,A*24
$GPRMC,094850,A,0548.7155,S,03512.2988,W,6.882714238186519,211.38,030216,,*21
$GPGSV,3,2,11,9,7.0,28.0,20.0,13,48.0,237.0,35.0,15,10.0,227.0,0.0,17,60.0,169.0,28.0*76
$GPGSV,3,3,11,19,73.0,183.0,33.0,28,22.0,160.0,28.0,30,46.0,106.0,32.0*51
$GPGLL,0548.7192,S,03512.3008,W,094852,A*2d
$GPRMC,094852,A,0548.7192,S,03512.3008,W,10.2155129158173,207.95,030216,,*14
$GPGSA,A,3,2,,6,7,9,13,,17,19,28,30,,,,,*3f
$GPGSV,3,1,11,2,17.0,343.0,14.0,5,13.0,311.0,0.0,6,40.0,24.0,21.0,7,27.0,73.0,36.0*4e
$GPGLL,0548.7258,S,03512.3038,W,094854,A*2d
$GPRMC,094854,A,0548.7258,S,03512.3038,W,12.406695311192804,204.05,030216,,*11
$GPGSA,A,3,2,,6,7,9,13,,17,19,28,30,,,,,*3f
$GPGSV,3,1,11,2,17.0,343.0,15.0,5,13.0,311.0,0.0,6,40.0,24.0,22.0,7,27.0,73.0,36.0*4c
$GPGSV,3,2,11,9,7.0,28.0,18.0,13,48.0,237.0,34.0,15,10.0,227.0,0.0,17,60.0,169.0,26.0*72
$GPGSV,3,1,11,2,17.0,343.0,12.0,5,13.0,311.0,0.0,6,40.0,24.0,35.0,7,27.0,73.0,35.0*4e
$GPGSV,3,2,11,9,7.0,28.0,18.0,13,48.0,237.0,34.0,15,10.0,227.0,0.0,17,60.0,169.0,24.0*70
$GPGSV,3,3,11,19,73.0,183.0,22.0,28,22.0,160.0,26.0,30,46.0,106.0,28.0*54
