$GPGSV,3,2,11,21,39.0,124.0,29.0,22,27.0,256.0,39.0,24,6.0,107.0,16.0,26,26.0,310.0,33.0*40
$GPGSV,3,1,11,10,38.0,198.0,34.0,14,76.0,1.0,32.0,16,22.0,278.0,18.0,18,25.0,159.0,20.0*70
$GPGSV,3,1,11,10,38.0,198.0,34.0,14,76.0,1.0,31.0,16,22.0,278.0,19.0,18,25.0,159.0,22.0*70
$GPGLL,0557.5671,S,03509.0497,W,201910,A*29
$GPGSV,3,1,11,10,38.0,198.0,34.0,14,76.0,1.0,31.0,16,22.0,278.0,20.0,18,25.0,159.0,23.0*7b
$GPGLL,0557.5671,S,03509.0497,W,201911,A*28
$GPGSV,3,1,11,10,38.0,198.0,35.0,14,76.0,1.0,32.0,16,22.0,278.0,21.0,18,25.0,159.0,23.0*78
$GPGSV,3,1,11,10,38.0,198.0,36.0,14,76.0,1.0,33.0,16,22.0,278.0,21.0,18,25.0,159.0,23.0*7a
$GPGLL,0557.5671,S,03509.0497,W,201913,A*2a
$GPRMC,201913,A,0557.5671,S,03509.0497,W,0.0,134.42,060216,,*2e
$GPGSA,A,3,10,14,16,18,21,22,24,26,27,29,31,,,,,*37
$GPGSV,3,1,11,10,38.0,198.0,35.0,14,76.0,1.0,34.0,16,22.0,278.0,29.0,18,25.0,159.0,24.0*71
$GPGLL,0557.5671,S,03509.0497,W,201914,A*2d
$GPGSV,3,2,11,21,39.0,124.0,30.0,22,27.0,256.0,34.0,24,6.0,107.0,22.0,26,26.0,310.0,23.0*43
$GPGLL,0557.5927,S,03509.0234,W,202119,A*28
$GPGSV,3,1,11,10,37.0,197.0,26.0,14,77.0,1.0,25.0,16,22.0,279.0,22.0,18,24.0,158.0,24.0*78
$GPGLL,0557.5928,S,03509.0233,W,202120,A*2a
$GPGSV,3,2,11,21,39.0,123.0,24.0,22,27.0,255.0,26.0,24,5.0,108.0,10.0,26,26.0,311.0,20.0*4e
$GPGSV,3,3,11,27,26.0,218.0,37.0,29,26.0,33.0,21.0,31,16.0,354.0,15.0*66
$GPGSA,A,3,10,14,16,18,21,22,24,26,27,29,31,,,,,*37
$GPGSV,3,1,11,10,37.0,197.0,24.0,14,77.0,1.0,24.0,16,22.0,279.0,22.0,18,24.0,158.0,26.0*79
$GPGLL,0557.5929,S,03509.0227,W,202122,A*2c
$GPGSV,3,2,11,21,39.0,123.0,24.0,22,27.0,255.0,25.0,24,5.0,108.0,14.0,26,26.0,311.0,20.0*49
$GPGSV,3,1,11,10,37.0,197.0,26.0,14,77.0,1.0,25.0,16,22.0,279.0,23.0,18,24.0,158.0,26.0*7b
$GPGLL,0557.5931,S,03509.0225,W,202124,A*21
$GPGSV,3,2,11,21,39.0,123.0,26.0,22,27.0,255.0,28.0,24,5.0,108.0,14.0,26,26.0,311.0,28.0*4e
$GPGSV,3,3,11,27,26.0,218.0,38.0,29,26.0,33.0,21.0,31,16.0,354.0,23.0*6c
$GPGSA,A,3,10,14,16,18,21,22,24,26,27,29,31,,,,,*37
$GPGLL,0557.5931,S,03509.0225,W,202126,A*23
$GPGSV,3,2,11,21,39.0,123.0,28.0,22,27.0,255.0,30.0,24,5.0,108.0,15.0,26,26.0,311.0,28.0*48
$GPGSV,3,3,11,27,26.0,218.0,37.0,29,26.0,33.0,22.0,31,16.0,354.0,23.0*60
$GPGSA,A,3,10,14,16,18,21,22,24,26,27,29,31,,,,,*37
$GPGSV,3,1,11,10,37.0,197.0,26.0,14,77.0,1.0,28.0,16,22.0,279.0,23.0,18,24.0,158.0,26.0*76
$GPGLL,0557.5931,S,03509.0225,W,202128,A*2d
$GPGSV,3,2,11,21,39.0,123.0,27.0,22,27.0,255.0,30.0,24,5.0,108.0,15.0,26,26.0,311.0,26.0*49
$GPGLL,0557.5931,S,03509.0225,W,202130,A*24
$GPGSV,3,2,11,21,39.0,123.0,29.0,22,27.0,255.0,31.0,24,5.0,108.0,14.0,26,26.0,311.0,25.0*44
$GPGSV,3,3,11,27,26.0,218.0,37.0,29,26.0,33.0,21.0,31,16.0,354.0,23.0*63
$GPGSA,A,3,10,14,16,18,21,22,24,26,27,29,31,,,,,*37
$GPGSV,3,1,11,10,37.0,197.0,24.0,14,77.0,1.0,30.0,16,22.0,279.0,19.0,18,24.0,158.0,29.0*7b
$GPGLL,0557.5931,S,03509.0225,W,202132,A*26
$GPGSV,3,2,11,21,39.0,123.0,30.0,22,27.0,255.0,33.0,24,5.0,108.0,15.0,26,26.0,311.0,23.0*49
$GPGLL,0557.5976,S,03509.0187,W,202149,A*22
$GPRMC,202149,A,0557.5976,S,03509.0187,W,0.0,168.88,060216,,*29
$GPGSA,A,3,10,14,16,18,21,22,24,26,27,29,31,,,,,*37
$GPGSV,3,1,11,10,37.0,197.0,33.0,14,77.0,1.0,28.0,16,22.0,279.0,20.0,18,24.0,158.0,35.0*73
$GPGSV,3,1,11,10,37.0,197.0,33.0,14,77.0,1.0,28.0,16,22.0,279.0,20.0,18,24.0,158.0,35.0*73
$GPGLL,0557.5976,S,03509.0187,W,202151,A*2b
$GPRMC,202151,A,0557.5976,S,03509.0187,W,0.0,168.88,060216,,*20
$GPGLL,0557.5976,S,03509.0187,W,202152,A*28
$GPRMC,202152,A,0557.5976,S,03509.0187,W,0.0,168.88,060216,,*23
$GPGSA,A,3,10,14,16,18,21,22,24,26,27,29,31,,,,,*37
$GPGSV,3,1,11,10,37.0,197.0,34.0,14,77.0,1.0,29.0,16,22.0,279.0,21.0,18,24.0,158.0,33.0*72
$GPGSV,3,1,11,10,37.0,197.0,34.0,14,77.0,1.0,28.0,16,22.0,279.0,21.0,18,24.0,158.0,32.0*72
$GPGSV,3,2,11,21,39.0,123.0,36.0,22,27.0,255.0,31.0,24,5.0,108.0,25.0,26,26.0,311.0,21.0*4c
$GPGSV,3,3,11,27,26.0,218.0,35.0,29,26.0,33.0,30.0,31,16.0,354.0,18.0*69
$GPGLL,0557.5976,S,03509.0187,W,202155,A*2f
$GPGSV,3,2,11,21,39.0,123.0,36.0,22,27.0,255.0,31.0,24,5.0,108.0,25.0,26,26.0,311.0,20.0*4d
$GPGLL,0557.5976,S,03509.0187,W,202157,A*2d
$GPGSV,3,2,11,21,39.0,123.0,35.0,22,27.0,255.0,32.0,24,5.0,108.0,24.0,26,26.0,311.0,19.0*46
$GPGSV,3,3,11,27,26.0,218.0,34.0,29,26.0,33.0,30.0,31,16.0,354.0,17.0*67
$GPGSA,A,3,10,14,16,18,21,22,24,26,27,29,31,,,,,*37
$GPGSV,3,1,11,10,37.0,197.0,34.0,14,77.0,1.0,27.0,16,22.0,279.0,22.0,18,24.0,158.0,27.0*7a
$GPGSV,3,1,11,10,37.0,197.0,34.0,14,77.0,1.0,27.0,16,22.0,279.0,22.0,18,24.0,158.0,28.0*75
$GPGLL,0557.5976,S,03509.0187,W,202159,A*23
$GPRMC,202159,A,0557.5976,S,03509.0187,W,0.0,168.88,060216,,*28
$GPGSA,A,3,10,14,16,18,21,22,24,26,27,29,31,,,,,*37
$GPGSV,3,1,11,10,37.0,197.0,34.0,14,77.0,1.0,28.0,16,22.0,279.0,22.0,18,24.0,158.0,29.0*7b
$GPGLL,0557.5976,S,03509.0187,W,202200,A*2c
$GPGSV,3,2,11,21,39.0,123.0,35.0,22,27.0,255.0,32.0,24,5.0,108.0,23.0,26,26.0,311.0,19.0*41
$GPGSV,3,2,11,21,39.0,123.0,30.0,22,27.0,255.0,33.0,24,5.0,108.0,23.0,26,26.0,311.0,20.0*4f
$GPGSV,3,3,11,27,26.0,218.0,38.0,29,26.0,33.0,29.0,31,16.0,354.0,21.0*66
$GPGSA,A,3,10,14,16,18,21,22,24,26,27,29,31,,,,,*37
$GPGSV,3,1,11,10,37.0,196.0,36.0,14,78.0,2.0,20.0,16,22.0,280.0,24.0,18,24.0,158.0,30.0*74
$GPGLL,0557.6011,S,03509.0129,W,202220,A*21
$GPGSV,3,2,11,21,39.0,122.0,30.0,22,27.0,255.0,34.0,24,5.0,108.0,23.0,26,26.0,311.0,19.0*43
$GPGSV,3,3,11,27,26.0,218.0,36.0,29,26.0,33.0,30.0,31,16.0,354.0,20.0*61
$GPGLL,0557.6010,S,03509.0127,W,202222,A*2c
$GPGSV,3,2,11,21,39.0,122.0,30.0,22,27.0,254.0,33.0,24,5.0,108.0,25.0,26,26.0,311.0,18.0*42
$GPGSV,3,3,11,27,26.0,218.0,36.0,29,26.0,33.0,31.0,31,16.0,354.0,21.0*61
$GPGSA,A,3,10,14,16,18,21,22,24,26,27,29,31,,,,,*37
$GPGSV,3,1,11,10,37.0,196.0,28.0,14,78.0,2.0,18.0,16,22.0,280.0,18.0,18,24.0,158.0,34.0*7b
$GPGLL,0557.6008,S,03509.0125,W,202224,A*21
$GPGSV,3,2,11,21,39.0,122.0,32.0,22,27.0,254.0,32.0,24,5.0,109.0,26.0,26,26.0,311.0,29.0*41
$GPGLL,0557.6008,S,03509.0125,W,202226,A*23
$GPGSV,3,2,11,21,39.0,122.0,32.0,22,27.0,254.0,33.0,24,5.0,109.0,25.0,26,26.0,312.0,18.0*42
$GPGSV,3,3,11,27,27.0,218.0,35.0,29,26.0,33.0,32.0,31,16.0,354.0,27.0*66
$GPGSA,A,3,10,14,16,18,21,22,24,26,27,29,31,,,,,*37
$GPGSV,3,1,11,10,37.0,196.0,30.0,14,78.0,2.0,27.0,16,22.0,280.0,27.0,18,24.0,158.0,25.0*72
$GPGLL,0557.6008,S,03509.0125,W,202228,A*2d
$GPGSV,3,2,11,21,39.0,122.0,26.0,22,27.0,254.0,33.0,24,5.0,109.0,24.0,26,26.0,312.0,19.0*47
$GPGLL,0557.6008,S,03509.0125,W,202230,A*24
$GPGSV,3,2,11,21,39.0,122.0,27.0,22,27.0,254.0,32.0,24,5.0,109.0,24.0,26,26.0,312.0,22.0*4f
$GPGSV,3,3,11,27,27.0,218.0,35.0,29,25.0,32.0,34.0,31,17.0,354.0,27.0*63
$GPGSA,A,3,10,14,16,18,21,22,24,26,27,29,31,,,,,*37
$GPGSV,3,1,11,10,37.0,196.0,29.0,14,78.0,2.0,28.0,16,22.0,280.0,26.0,18,24.0,158.0,26.0*77
$GPGLL,0557.6008,S,03509.0125,W,202232,A*26
$GPGSV,3,2,11,21,39.0,122.0,29.0,22,27.0,254.0,29.0,24,5.0,109.0,22.0,26,26.0,312.0,25.0*4a
$GPGSV,3,2,11,21,39.0,122.0,29.0,22,27.0,254.0,26.0,24,5.0,109.0,16.0,26,26.0,312.0,25.0*42
$GPGSV,3,3,11,27,27.0,218.0,35.0,29,25.0,32.0,30.0,31,17.0,354.0,27.0*67
$GPGGA,202249,0557.6008,S,03509.0125,W,1,11,2.2,26.1,M,,,,*24
$GPGLL,0557.6008,S,03509.0125,W,202249,A*2a
$GPRMC,202249,A,0557.6008,S,03509.0125,W,0.0,138.69,060216,,*2b
$GPGSA,A,3,10,14,16,18,21,22,24,26,27,29,31,,,,,*37
$GPGSV,3,1,11,10,37.0,196.0,26.0,14,78.0,2.0,23.0,16,22.0,280.0,27.0,18,24.0,158.0,32.0*77
$GPGSV,3,1,11,10,37.0,196.0,34.0,14,78.0,2.0,24.0,16,22.0,280.0,27.0,18,24.0,158.0,31.0*70
$GPGGA,202251,0557.6008,S,03509.0125,W,1,11,2.2,26.1,M,,,,*2d
$GPGLL,0557.6008,S,03509.0125,W,202251,A*23
$GPRMC,202251,A,0557.6008,S,03509.0125,W,0.0,138.69,060216,,*22
$GPGGA,202252,0557.6008,S,03509.0125,W,1,11,2.2,26.1,M,,,,*2e
$GPGLL,0557.6008,S,03509.0125,W,202252,A*20
$GPGSV,3,2,11,21,39.0,122.0,28.0,22,27.0,254.0,27.0,24,5.0,109.0,16.0,26,26.0,312.0,24.0*43
$GPGSV,3,1,11,10,36.0,196.0,39.0,14,79.0,3.0,27.0,16,21.0,281.0,15.0,18,24.0,157.0,25.0*76
$GPGGA,202416,0557.6155,S,03508.9969,W,1,11,2.7,23.4,M,,,,*2c
$GPGSV,3,1,11,10,36.0,196.0,39.0,14,79.0,3.0,28.0,16,21.0,281.0,16.0,18,24.0,157.0,25.0*7a
$GPGLL,0557.6155,S,03508.9969,W,202417,A*26
$GPRMC,202417,A,0557.6155,S,03508.9969,W,0.0,125.42,060216,,*22
$GPGSA,A,3,10,14,16,18,21,22,24,26,27,29,31,,,,,*37
$GPGSV,3,1,11,10,36.0,196.0,39.0,14,79.0,3.0,28.0,16,21.0,281.0,16.0,18,24.0,157.0,25.0*7a
$GPGGA,202418,0557.6155,S,03508.9969,W,1,11,2.6,23.4,M,,,,*23
$GPGSV,3,1,11,10,36.0,196.0,39.0,14,79.0,3.0,27.0,16,21.0,281.0,17.0,18,24.0,157.0,25.0*74
$GPGSV,3,2,11,21,39.0,120.0,34.0,22,27.0,253.0,33.0,24,5.0,109.0,13.0,26,26.0,312.0,21.0*4e
$GPGSV,3,1,11,10,36.0,196.0,38.0,14,79.0,3.0,27.0,16,21.0,281.0,17.0,18,24.0,157.0,24.0*74
$GPGLL,0557.6155,S,03508.9969,W,202420,A*22
$GPRMC,202420,A,0557.6155,S,03508.9969,W,0.0,125.42,060216,,*26
$GPGGA,202421,0557.6155,S,03508.9969,W,1,11,2.5,23.4,M,,,,*2a
$GPGSV,3,2,11,21,39.0,120.0,38.0,22,27.0,253.0,19.0,24,5.0,109.0,19.0,26,26.0,313.0,27.0*47
$GPGGA,202508,0557.6248,S,03508.9897,W,1,11,2.4,23.0,M,,,,*2a
$GPGLL,0557.6248,S,03508.9897,W,202508,A*26
$GPGSV,3,2,11,21,39.0,120.0,38.0,22,27.0,253.0,18.0,24,5.0,109.0,17.0,26,26.0,313.0,27.0*48
$GPGSV,3,3,11,27,28.0,219.0,16.0,29,24.0,32.0,32.0,31,17.0,355.0,20.0*6d
$GPGSA,A,3,10,14,16,18,21,22,24,26,27,29,31,,,,,*37
$GPGSV,3,1,11,10,36.0,196.0,32.0,14,79.0,3.0,25.0,16,21.0,281.0,23.0,18,24.0,157.0,32.0*7c
$GPGSV,3,2,11,21,39.0,120.0,38.0,22,27.0,253.0,17.0,24,5.0,109.0,17.0,26,26.0,313.0,27.0*47
$GPGSV,3,3,11,27,28.0,219.0,14.0,29,24.0,32.0,33.0,31,17.0,355.0,19.0*64
$GPGGA,202510,0557.6248,S,03508.9897,W,1,11,2.4,23.0,M,,,,*23
$GPGLL,0557.6248,S,03508.9897,W,202510,A*2f
$GPRMC,202510,A,0557.6248,S,03508.9897,W,0.0,139.82,060216,,*2a
$GPGSA,A,3,10,14,16,18,21,22,24,26,27,29,31,,,,,*37
$GPGSV,3,1,11,10,36.0,196.0,32.0,14,79.0,3.0,24.0,16,21.0,281.0,24.0,18,24.0,157.0,31.0*79
$GPGSV,3,2,11,21,39.0,119.0,32.0,22,27.0,252.0,22.0,24,5.0,110.0,14.0,26,25.0,314.0,30.0*49
$GPGSV,3,3,11,27,28.0,219.0,34.0,29,23.0,32.0,21.0,31,17.0,356.0,16.0*6e
$GPGSA,A,3,10,14,16,18,21,22,24,26,27,29,31,,,,,*37
$GPGSV,3,1,11,10,36.0,195.0,40.0,14,80.0,3.0,35.0,16,21.0,282.0,25.0,18,23.0,156.0,30.0*7c
$GPGLL,0557.6394,S,03508.9784,W,202710,A*20
$GPGSV,3,2,11,21,39.0,119.0,33.0,22,27.0,252.0,20.0,24,5.0,110.0,14.0,26,25.0,314.0,29.0*42
$GPGSV,3,3,11,27,28.0,219.0,34.0,29,23.0,32.0,22.0,31,17.0,356.0,19.0*62
$GPGLL,0557.6394,S,03508.9784,W,202712,A*22
$GPGSV,3,1,11,10,36.0,195.0,40.0,14,80.0,3.0,35.0,16,21.0,282.0,26.0,18,23.0,156.0,30.0*7f
$GPGSV,3,2,11,21,39.0,119.0,34.0,22,27.0,252.0,18.0,24,5.0,110.0,14.0,26,25.0,314.0,28.0*4f
$GPGSV,3,3,11,27,28.0,219.0,34.0,29,23.0,32.0,23.0,31,17.0,356.0,21.0*68
$GPGSA,A,3,10,14,16,18,21,22,24,26,27,29,31,,,,,*37
$GPGSV,3,1,11,10,36.0,195.0,40.0,14,80.0,3.0,35.0,16,21.0,282.0,26.0,18,23.0,156.0,30.0*7f
$GPGLL,0557.6394,S,03508.9784,W,202714,A*24
$GPGSV,3,2,11,21,39.0,119.0,34.0,22,27.0,252.0,16.0,24,5.0,110.0,13.0,26,25.0,314.0,28.0*46
$GPGSV,3,3,11,27,28.0,219.0,34.0,29,23.0,32.0,23.0,31,17.0,356.0,23.0*6a
$GPGGA,202716,0557.6394,S,03508.9784,W,1,11,2.2,22.9,M,,,,*24
$GPGLL,0557.6394,S,03508.9784,W,202716,A*26
$GPGSV,3,2,11,21,39.0,119.0,35.0,22,27.0,252.0,16.0,24,5.0,110.0,13.0,26,25.0,314.0,29.0*46
$GPGSV,3,2,11,21,39.0,119.0,35.0,22,27.0,252.0,24.0,24,5.0,110.0,13.0,26,25.0,314.0,29.0*47
$GPGSV,3,1,11,10,36.0,195.0,40.0,14,80.0,3.0,36.0,16,21.0,282.0,19.0,18,23.0,156.0,28.0*79
$GPGSV,3,2,11,21,39.0,119.0,35.0,22,27.0,252.0,24.0,24,5.0,110.0,13.0,26,25.0,314.0,28.0*46
$GPGSV,3,3,11,27,28.0,219.0,31.0,29,23.0,32.0,23.0,31,17.0,356.0,24.0*68
$GPGGA,202718,0557.6394,S,03508.9784,W,1,11,2.2,22.9,M,,,,*2a
$GPRMC,202718,A,0557.6394,S,03508.9784,W,0.0,136.04,060216,,*2c
$GPGSV,3,2,11,21,39.0,119.0,35.0,22,27.0,252.0,26.0,24,5.0,110.0,15.0,26,25.0,314.0,28.0*42
$GPGSV,3,3,11,27,28.0,219.0,31.0,29,23.0,32.0,22.0,31,17.0,356.0,24.0*69
$GPGSA,A,3,10,14,16,18,21,22,24,26,27,29,31,,,,,*37
$GPGSV,3,1,12,8,1.0,216.0,0.0,10,35.0,193.0,38.0,14,82.0,5.0,34.0,16,21.0,284.0,25.0*43
$GPGGA,203110,0557.6929,S,03508.9342,W,1,11,2.2,18.3,M,,,,*24
$GPGLL,0557.6929,S,03508.9342,W,203110,A*25
$GPRMC,203110,A,0557.6929,S,03508.9342,W,0.0,131.54,060216,,*23
$GPGGA,203111,0557.6929,S,03508.9342,W,1,11,2.1,18.3,M,,,,*26
$GPGLL,0557.6929,S,03508.9342,W,203111,A*24
$GPGSV,3,2,12,18,22.0,155.0,30.0,21,39.0,117.0,35.0,22,27.0,250.0,26.0,24,5.0,112.0,19.0*47
$GPGSV,3,3,12,26,25.0,316.0,32.0,27,30.0,220.0,20.0,29,22.0,31.0,29.0,31,18.0,357.0,27.0*45
$GPGSA,A,3,,10,14,16,18,21,22,24,26,27,29,31,,,,*37
$GPGSV,3,1,12,8,1.0,216.0,0.0,10,35.0,193.0,39.0,14,82.0,5.0,33.0,16,21.0,284.0,27.0*47
$GPGLL,0557.6929,S,03508.9342,W,203113,A*26
$GPGSV,3,2,12,18,22.0,155.0,30.0,21,39.0,117.0,36.0,22,27.0,250.0,27.0,24,5.0,112.0,19.0*45
$GPGSV,3,3,12,26,25.0,316.0,32.0,27,30.0,220.0,18.0,29,22.0,31.0,29.0,31,18.0,357.0,27.0*4e
$GPGSA,A,3,,10,14,16,18,21,22,24,26,27,29,31,,,,*37
$GPGSV,3,2,12,18,22.0,155.0,30.0,21,39.0,117.0,36.0,22,27.0,250.0,27.0,24,5.0,112.0,19.0*45
$GPGLL,0557.6929,S,03508.9342,W,203115,A*20
$GPRMC,203115,A,0557.6929,S,03508.9342,W,0.0,131.54,060216,,*26
$GPGSA,A,3,,10,14,16,18,21,22,24,26,27,29,31,,,,*37
$GPGSV,3,1,12,8,1.0,216.0,0.0,10,35.0,193.0,40.0,14,82.0,5.0,32.0,16,21.0,284.0,27.0*48
$GPGSV,3,2,12,18,22.0,155.0,31.0,21,39.0,117.0,37.0,22,27.0,250.0,28.0,24,5.0,112.0,19.0*4a
$GPGSV,3,3,12,26,25.0,316.0,31.0,27,30.0,220.0,14.0,29,22.0,31.0,29.0,31,18.0,357.0,27.0*41
$GPGSV,3,2,12,18,22.0,155.0,31.0,21,39.0,117.0,37.0,22,27.0,250.0,28.0,24,5.0,112.0,18.0*4b
$GPGLL,0557.6929,S,03508.9342,W,203116,A*23
$GPGSV,3,2,12,18,22.0,155.0,31.0,21,39.0,117.0,37.0,22,27.0,250.0,28.0,24,5.0,112.0,18.0*4b
$GPGSV,3,3,12,26,25.0,316.0,31.0,27,30.0,220.0,16.0,29,22.0,31.0,29.0,31,18.0,357.0,28.0*4c
$GPGGA,203118,0557.6929,S,03508.9342,W,1,11,2.1,18.3,M,,,,*2f
$GPGLL,0557.6929,S,03508.9342,W,203118,A*2d
$GPGSV,3,2,12,18,22.0,155.0,32.0,21,39.0,117.0,37.0,22,27.0,250.0,27.0,24,5.0,112.0,18.0*47
$GPGSV,3,1,12,8,3.0,217.0,0.0,10,35.0,191.0,38.0,14,84.0,9.0,36.0,16,21.0,286.0,20.0*4d
$GPGLL,0557.7328,S,03508.8999,W,203407,A*21
$GPRMC,203407,A,0557.7328,S,03508.8999,W,0.0,57.2,060216,,*25
$GPGSA,A,3,,10,14,16,18,21,22,,26,27,29,31,,,,*31
$GPGSV,3,1,12,8,3.0,217.0,0.0,10,35.0,191.0,37.0,14,84.0,9.0,36.0,16,21.0,286.0,19.0*48
$GPGLL,0557.7328,S,03508.8999,W,203408,A*2e
$GPGSV,3,2,12,18,21.0,153.0,31.0,21,39.0,114.0,27.0,22,28.0,248.0,32.0,24,4.0,113.0,13.0*4a
$GPGLL,0557.7328,S,03508.8999,W,203410,A*27
$GPRMC,203410,A,0557.7328,S,03508.8999,W,0.0,57.2,060216,,*23
$GPGSA,A,3,,10,14,16,18,21,22,,26,27,29,31,,,,*31
$GPGSV,3,1,12,8,3.0,217.0,0.0,10,35.0,191.0,34.0,14,84.0,9.0,36.0,16,21.0,286.0,17.0*45
$GPGSV,3,1,12,8,3.0,217.0,0.0,10,35.0,191.0,34.0,14,84.0,9.0,36.0,16,21.0,286.0,17.0*45
$GPGLL,0557.7328,S,03508.8999,W,203412,A*25
$GPRMC,203412,A,0557.7328,S,03508.8999,W,0.0,57.2,060216,,*21
$GPGLL,0557.7328,S,03508.8999,W,203416,A*21
$GPRMC,203416,A,0557.7328,S,03508.8999,W,0.0,57.2,060216,,*25
$GPGSA,A,3,,10,14,16,18,21,22,,26,27,29,31,,,,*31
$GPGSV,3,1,12,8,3.0,217.0,0.0,10,35.0,191.0,34.0,14,84.0,9.0,37.0,16,21.0,286.0,17.0*44
$GPGSV,3,1,12,8,3.0,217.0,0.0,10,35.0,191.0,27.0,14,84.0,9.0,37.0,16,21.0,286.0,17.0*46
$GPGSV,3,2,12,18,21.0,153.0,30.0,21,39.0,114.0,28.0,22,28.0,248.0,30.0,24,4.0,113.0,0.0*74
$GPGSV,3,3,12,26,24.0,317.0,24.0,27,31.0,221.0,27.0,29,20.0,31.0,23.0,31,19.0,358.0,12.0*45
$GPGLL,0557.7328,S,03508.8999,W,203423,A*27
$GPRMC,203423,A,0557.7328,S,03508.8999,W,0.0,57.2,060216,,*23
$GPGSA,A,3,,10,14,16,18,21,22,,26,27,29,31,,,,*31
$GPGSV,3,1,12,8,3.0,217.0,0.0,10,35.0,191.0,31.0,14,84.0,9.0,37.0,16,21.0,286.0,21.0*44
$GPGSV,3,1,12,8,3.0,217.0,0.0,10,35.0,191.0,32.0,14,84.0,9.0,37.0,16,21.0,286.0,22.0*44
$GPGLL,0557.7328,S,03508.8999,W,203425,A*21
$GPRMC,203425,A,0557.7328,S,03508.8999,W,0.0,57.2,060216,,*25
$GPGLL,0557.7328,S,03508.8999,W,203426,A*22
$GPGSV,3,2,12,18,21.0,153.0,28.0,21,39.0,114.0,29.0,22,28.0,248.0,32.0,24,4.0,113.0,0.0*7e
$GPGSV,3,1,12,8,3.0,217.0,0.0,10,35.0,191.0,32.0,14,84.0,9.0,37.0,16,21.0,286.0,22.0*44
$GPGLL,0557.7328,S,03508.8999,W,203428,A*2c
$GPGSV,3,2,12,18,21.0,153.0,28.0,21,39.0,114.0,29.0,22,28.0,248.0,32.0,24,4.0,113.0,0.0*7e
$GPGSV,3,3,12,26,24.0,317.0,24.0,27,31.0,221.0,28.0,29,20.0,31.0,23.0,31,19.0,358.0,15.0*4d
$GPGSA,A,3,,10,14,16,18,21,22,,26,27,29,31,,,,*31
$GPGLL,0557.7328,S,03508.8999,W,203430,A*25
$GPRMC,203430,A,0557.7328,S,03508.8999,W,0.0,57.2,060216,,*21
$GPGSA,A,3,,10,14,16,18,21,22,,26,27,29,31,,,,*31
$GPGSV,3,1,12,8,3.0,217.0,0.0,10,35.0,191.0,30.0,14,84.0,9.0,37.0,16,21.0,286.0,23.0*47
$GPGSV,3,1,12,8,3.0,217.0,0.0,10,35.0,191.0,32.0,14,84.0,9.0,37.0,16,21.0,286.0,23.0*45
$GPGLL,0557.7328,S,03508.8999,W,203432,A*27
$GPRMC,203432,A,0557.7328,S,03508.8999,W,0.0,57.2,060216,,*23
$GPGSV,3,1,12,8,3.0,217.0,0.0,10,34.0,190.0,36.0,14,85.0,11.0,37.0,16,21.0,287.0,29.0*72
$GPGLL,0557.7496,S,03508.8871,W,203619,A*29
$GPRMC,203619,A,0557.7496,S,03508.8871,W,0.0,120.56,060216,,*2d
$GPGSA,A,3,,10,14,16,18,21,22,,26,27,29,31,,,,*31
$GPGSV,3,1,12,8,3.0,217.0,0.0,10,34.0,190.0,36.0,14,85.0,11.0,37.0,16,21.0,287.0,28.0*73
$GPGLL,0557.7496,S,03508.8871,W,203620,A*23
$GPGSV,3,2,12,18,21.0,153.0,31.0,21,39.0,113.0,36.0,22,28.0,247.0,33.0,24,4.0,114.0,0.0*76
$GPGLL,0557.7496,S,03508.8871,W,203622,A*21
$GPGSV,3,2,12,18,21.0,153.0,31.0,21,39.0,113.0,36.0,22,28.0,247.0,33.0,24,4.0,114.0,0.0*76
$GPGSV,3,3,12,26,24.0,318.0,22.0,27,32.0,221.0,40.0,29,19.0,31.0,14.0,31,20.0,359.0,12.0*4b
$GPGSA,A,3,,10,14,16,18,21,22,,26,27,29,31,,,,*31
$GPGSV,3,1,12,8,3.0,217.0,0.0,10,34.0,190.0,35.0,14,85.0,11.0,37.0,16,21.0,287.0,24.0*7c
$GPGLL,0557.7496,S,03508.8871,W,203624,A*27
$GPGSV,3,2,12,18,21.0,153.0,33.0,21,39.0,113.0,36.0,22,28.0,247.0,33.0,24,4.0,114.0,0.0*74
$GPGLL,0557.7496,S,03508.8871,W,203626,A*25
$GPRMC,203626,A,0557.7496,S,03508.8871,W,0.0,120.56,060216,,*21
$GPGSA,A,3,,10,14,16,18,21,22,,26,27,29,31,,,,*31
$GPGSV,3,1,12,8,3.0,217.0,0.0,10,34.0,190.0,36.0,14,85.0,11.0,36.0,16,21.0,287.0,24.0*7e
$GPGSV,3,2,12,18,21.0,153.0,31.0,21,39.0,113.0,36.0,22,28.0,247.0,34.0,24,4.0,114.0,0.0*71
$GPGSV,3,3,12,26,24.0,318.0,21.0,27,32.0,221.0,40.0,29,19.0,31.0,16.0,31,20.0,359.0,13.0*4b
$GPGSA,A,3,,10,14,16,18,21,22,,26,27,29,31,,,,*31
$GPGLL,0557.7496,S,03508.8871,W,203628,A*2b
$GPGSV,3,2,12,18,21.0,153.0,31.0,21,39.0,113.0,36.0,22,28.0,247.0,34.0,24,4.0,114.0,0.0*71
$GPGSV,3,3,12,26,24.0,318.0,23.0,27,32.0,221.0,40.0,29,19.0,31.0,15.0,31,20.0,359.0,0.0*78
$GPGGA,203630,0557.7496,S,03508.8871,W,1,9,2.0,12.3,M,,,,*12
$GPGLL,0557.7496,S,03508.8871,W,203630,A*22
$GPRMC,203630,A,0557.7496,S,03508.8871,W,0.0,120.56,060216,,*26
$GPGSV,3,1,12,8,3.0,217.0,0.0,10,34.0,190.0,37.0,14,85.0,11.0,36.0,16,21.0,287.0,27.0*7c
$GPGSV,3,2,12,18,21.0,153.0,31.0,21,39.0,113.0,36.0,22,28.0,247.0,34.0,24,4.0,114.0,0.0*71
$GPGSV,3,3,12,26,24.0,318.0,24.0,27,32.0,221.0,40.0,29,19.0,31.0,16.0,31,20.0,359.0,0.0*7c
$GPGSA,A,3,,10,14,16,18,21,22,,26,27,29,,,,,*33
$GPGSV,3,1,12,8,3.0,217.0,0.0,10,34.0,190.0,37.0,14,85.0,11.0,36.0,16,21.0,287.0,27.0*7c
$GPGLL,0557.7496,S,03508.8871,W,203632,A*20
$GPGSV,3,2,12,18,21.0,153.0,31.0,21,39.0,113.0,36.0,22,28.0,247.0,34.0,24,4.0,114.0,0.0*71
$GPGSV,3,3,12,26,24.0,318.0,23.0,27,32.0,221.0,41.0,29,19.0,31.0,16.0,31,20.0,359.0,0.0*7a
$GPGLL,0557.7496,S,03508.8871,W,203634,A*26
$GPRMC,203634,A,0557.7496,S,03508.8871,W,0.0,120.56,060216,,*22
$GPGSA,A,3,,10,14,16,18,21,22,,26,27,29,31,,,,*31
$GPGSV,3,1,12,8,3.0,217.0,0.0,10,34.0,190.0,37.0,14,85.0,11.0,34.0,16,21.0,287.0,19.0*73
$GPGSV,3,1,12,8,3.0,217.0,0.0,10,34.0,190.0,37.0,14,85.0,11.0,35.0,16,21.0,287.0,20.0*78
$GPGSV,3,2,12,18,21.0,153.0,34.0,21,39.0,113.0,35.0,22,28.0,247.0,34.0,24,4.0,114.0,0.0*77
$GPGSV,3,3,12,26,24.0,318.0,19.0,27,32.0,221.0,40.0,29,19.0,31.0,17.0,31,20.0,359.0,17.0*45
$GPGSV,3,1,12,8,5.0,217.0,0.0,10,34.0,188.0,30.0,14,86.0,15.0,26.0,16,20.0,288.0,32.0*78
$GPGSV,3,2,12,18,21.0,152.0,28.0,21,39.0,112.0,28.0,22,28.0,246.0,32.0,24,4.0,115.0,0.0*70
$GPGSV,3,3,12,26,24.0,319.0,30.0,27,33.0,222.0,33.0,29,19.0,31.0,38.0,31,20.0,359.0,26.0*46
$GPGGA,203918,0557.7935,S,03508.8511,W,1,10,1.9,13.7,M,,,,*2f
$GPGLL,0557.7935,S,03508.8511,W,203918,A*28
$GPRMC,203918,A,0557.7935,S,03508.8511,W,0.0,109.17,060216,,*22
$GPGSA,A,3,,10,14,16,18,21,22,,26,27,29,31,,,,*31
$GPGLL,0557.7935,S,03508.8511,W,203919,A*29
$GPRMC,203919,A,0557.7935,S,03508.8511,W,0.0,109.17,060216,,*23
$GPGSA,A,3,,10,14,16,18,21,22,,26,27,29,31,,,,*31
$GPGSV,3,1,12,8,5.0,217.0,0.0,10,34.0,188.0,30.0,14,87.0,22.0,27.0,16,20.0,288.0,32.0*7c
$GPGSV,3,2,12,18,21.0,152.0,28.0,21,39.0,112.0,19.0,22,28.0,246.0,32.0,24,4.0,115.0,0.0*72
$GPGSV,3,3,12,26,24.0,319.0,29.0,27,33.0,222.0,33.0,29,19.0,31.0,38.0,31,20.0,359.0,27.0*4f
$GPGLL,0557.7935,S,03508.8511,W,203921,A*22
$GPGSV,3,2,12,18,20.0,150.0,34.0,21,39.0,110.0,19.0,22,28.0,244.0,31.0,24,4.0,116.0,0.0*7c
$GPGSV,3,3,12,26,23.0,321.0,31.0,27,34.0,223.0,39.0,29,17.0,30.0,32.0,31,21.0,1.0,30.0*4a
$GPGGA,204221,0557.7938,S,03508.8262,W,1,10,2.0,15.5,M,,,,*29
$GPGLL,0557.7938,S,03508.8262,W,204221,A*20
$GPGSV,3,2,12,18,20.0,150.0,34.0,21,39.0,110.0,21.0,22,28.0,244.0,32.0,24,4.0,116.0,0.0*74
$GPGSV,3,3,12,26,23.0,321.0,31.0,27,34.0,223.0,39.0,29,17.0,30.0,32.0,31,21.0,1.0,30.0*4a
$GPGSA,A,3,,10,14,16,18,21,22,,26,27,29,31,,,,*31
$GPGSV,3,1,12,8,5.0,218.0,27.0,10,33.0,187.0,31.0,14,88.0,33.0,33.0,16,20.0,290.0,27.0*48
$GPGLL,0557.7938,S,03508.8262,W,204223,A*22
$GPRMC,204223,A,0557.7938,S,03508.8262,W,0.0,95.07,060216,,*1d
$GPGSA,A,3,,10,14,16,18,21,22,,26,27,29,31,,,,*31
$GPGSV,3,1,12,8,5.0,218.0,27.0,10,33.0,187.0,31.0,14,88.0,33.0,33.0,16,20.0,290.0,26.0*49
$GPGLL,0557.7938,S,03508.8262,W,204224,A*25
$GPGSV,3,2,12,18,20.0,150.0,35.0,21,39.0,110.0,21.0,22,28.0,244.0,29.0,24,4.0,116.0,16.0*48
$GPGLL,0557.7938,S,03508.8262,W,204226,A*27
$GPGSV,3,2,12,18,20.0,150.0,35.0,21,39.0,110.0,20.0,22,28.0,244.0,29.0,24,4.0,116.0,16.0*49
$GPGSV,3,3,12,26,23.0,321.0,31.0,27,34.0,223.0,38.0,29,17.0,30.0,33.0,31,21.0,1.0,26.0*4d
$GPGSA,A,3,,10,14,16,18,21,22,,26,27,29,31,,,,*31
$GPGSV,3,1,12,8,5.0,218.0,29.0,10,33.0,187.0,31.0,14,88.0,33.0,33.0,16,20.0,290.0,28.0*49
$GPGLL,0557.7938,S,03508.8262,W,204228,A*29
$GPRMC,204228,A,0557.7938,S,03508.8262,W,0.0,95.07,060216,,*16
$GPGSV,3,1,12,8,5.0,218.0,29.0,10,33.0,187.0,29.0,14,88.0,33.0,34.0,16,20.0,290.0,29.0*46
$GPGSV,3,2,12,18,20.0,150.0,33.0,21,39.0,110.0,18.0,22,28.0,244.0,31.0,24,4.0,116.0,11.0*4a
$GPGSV,3,3,12,26,23.0,321.0,30.0,27,34.0,223.0,38.0,29,17.0,30.0,32.0,31,21.0,1.0,24.0*4f
$GPGGA,204230,0557.7938,S,03508.8262,W,1,10,2.0,15.5,M,,,,*29
$GPGLL,0557.7938,S,03508.8262,W,204230,A*20
$GPRMC,204230,A,0557.7938,S,03508.8262,W,0.0,95.07,060216,,*1f
$GPGSA,A,3,,10,14,16,18,21,22,,26,27,29,31,,,,*31
$GPGLL,0557.7912,S,03508.8084,W,204436,A*22
$GPRMC,204436,A,0557.7912,S,03508.8084,W,0.0,76.85,060216,,*1a
$GPGSA,A,3,,10,14,16,18,21,22,,26,27,29,31,,,,*31
$GPGSV,3,1,12,8,6.0,218.0,16.0,10,33.0,186.0,36.0,14,88.0,54.0,35.0,16,20.0,291.0,30.0*4f
$GPGGA,204437,0557.7919,S,03508.8053,W,1,10,2.1,14.6,M,,,,*28
$GPGLL,0557.7919,S,03508.8053,W,204437,A*22
$GPRMC,204437,A,0557.7919,S,03508.8053,W,2.306244643345671,95.71,060216,,*1a
$GPGSV,3,1,12,8,6.0,218.0,16.0,10,33.0,186.0,38.0,14,88.0,54.0,35.0,16,20.0,291.0,31.0*40
$GPGLL,0557.7919,S,03508.8045,W,204439,A*2b
$GPRMC,204439,A,0557.7919,S,03508.8045,W,0.0,103.23,060216,,*2c
$GPGGA,204440,0557.7919,S,03508.8046,W,1,10,2.1,14.5,M,,,,*2f
$GPGLL,0557.7919,S,03508.8046,W,204440,A*26
$GPGSV,3,2,12,18,20.0,150.0,31.0,21,40.0,109.0,29.0,22,28.0,243.0,36.0,24,3.0,117.0,24.0*4c
$GPGSV,3,2,12,18,20.0,150.0,30.0,21,40.0,109.0,29.0,22,28.0,243.0,36.0,24,3.0,117.0,24.0*4d
$GPGLL,0557.7919,S,03508.8046,W,204442,A*24
$GPGSV,3,1,12,8,6.0,218.0,16.0,10,33.0,186.0,39.0,14,88.0,54.0,35.0,16,20.0,291.0,33.0*43
$GPGSV,3,1,12,8,6.0,218.0,16.0,10,33.0,186.0,38.0,14,88.0,54.0,34.0,16,20.0,291.0,33.0*43
$GPGLL,0557.7921,S,03508.8037,W,204444,A*2f
$GPRMC,204444,A,0557.7921,S,03508.8037,W,1.628879000264367,100.54,060216,,*22
$GPGSA,A,3,,10,14,16,18,21,22,,26,27,29,31,,,,*31
$GPGSV,3,1,12,8,6.0,218.0,16.0,10,33.0,186.0,38.0,14,88.0,54.0,35.0,16,20.0,291.0,33.0*42
$GPGLL,0557.7922,S,03508.8031,W,204445,A*2b
$GPGSV,3,2,12,18,20.0,150.0,30.0,21,40.0,109.0,28.0,22,28.0,243.0,37.0,24,3.0,117.0,20.0*49
$GPGSV,3,3,12,26,23.0,322.0,23.0,27,35.0,224.0,34.0,29,16.0,30.0,26.0,31,22.0,1.0,33.0*45
$GPGSA,A,3,,10,14,16,18,21,22,,26,27,29,31,,,,*31
$GPGSV,3,1,12,8,6.0,218.0,16.0,10,33.0,186.0,40.0,14,88.0,54.0,34.0,16,20.0,291.0,30.0*4f
$GPGLL,0557.7926,S,03508.8024,W,204447,A*29
$GPGSV,3,2,12,18,20.0,150.0,28.0,21,40.0,109.0,34.0,22,28.0,243.0,37.0,24,3.0,117.0,19.0*47
