$GPRMC,094144,A,0549.0236,S,03512.2125,W,14.279706310856481,18.21,030216,,*20
$GPGSA,A,3,,2,5,6,7,9,13,,17,19,28,30,,,,*0a
$GPGSV,3,1,12,1,2.0,127.0,0.0,2,14.0,341.0,25.0,5,14.0,308.0,14.0,6,38.0,21.0,31.0*4b
$GPGSV,3,2,12,7,28.0,76.0,22.0,9,9.0,27.0,18.0,13,46.0,233.0,24.0,15,8.0,225.0,28.0*7c
$GPGSV,3,3,12,17,64.0,170.0,32.0,19,77.0,186.0,32.0,28,23.0,164.0,29.0,30,45.0,111.0,33.0*7f
$GPGSA,A,3,,2,5,6,7,9,13,,17,19,28,30,,,,*0a
$GPGSV,3,1,12,1,2.0,127.0,0.0,2,14.0,341.0,17.0,5,14.0,308.0,14.0,6,38.0,21.0,31.0*4a
$GPGGA,094146,0549.0157,S,03512.2104,W,1,10,2.7,44.3,M,,,,*2e
$GPGLL,0549.0157,S,03512.2104,W,094146,A*22
$GPRMC,094146,A,0549.0157,S,03512.2104,W,14.594876413167247,19.65,030216,,*2b
$GPGSA,A,3,,2,5,6,7,9,13,,17,19,28,30,,,,*0a
$GPGSV,3,1,12,1,2.0,127.0,0.0,2,14.0,341.0,18.0,5,14.0,308.0,12.0,6,38.0,21.0,32.0*40
$GPGSV,3,2,12,7,28.0,76.0,20.0,9,9.0,27.0,17.0,13,46.0,233.0,22.0,15,8.0,225.0,27.0*78
$GPGLL,0549.0116,S,03512.2088,W,094147,A*23
$GPGSV,3,2,12,7,28.0,76.0,26.0,9,9.0,27.0,18.0,13,46.0,233.0,22.0,15,8.0,225.0,26.0*70
$GPGSV,3,3,12,17,64.0,170.0,23.0,19,77.0,186.0,25.0,28,23.0,164.0,28.0,30,45.0,111.0,34.0*7f
$GPGGA,094148,0549.0071,S,03512.2073,W,1,10,2.8,43.8,M,,,,*27
$GPGLL,0549.0071,S,03512.2073,W,094148,A*28
$GPGSV,3,2,12,7,28.0,76.0,28.0,9,9.0,27.0,19.0,13,46.0,233.0,23.0,15,8.0,225.0,27.0*7f
$GPGSV,3,3,12,17,64.0,170.0,24.0,19,77.0,186.0,26.0,28,23.0,164.0,29.0,30,45.0,111.0,20.0*7f
$GPGSA,A,3,,2,5,6,7,9,13,,17,19,28,30,,,,*0a
$GPGSV,3,2,12,7,28.0,76.0,29.0,9,9.0,27.0,19.0,13,46.0,233.0,21.0,15,8.0,225.0,28.0*73
$GPGSV,3,1,12,1,2.0,127.0,0.0,2,14.0,341.0,22.0,5,14.0,308.0,20.0,6,38.0,21.0,29.0*42
$GPGLL,0548.9971,S,03512.2042,W,094150,A*22
$GPGSV,3,1,12,1,2.0,127.0,0.0,2,14.0,341.0,23.0,5,14.0,308.0,21.0,6,38.0,21.0,30.0*4a
$GPGLL,0548.9918,S,03512.2022,W,094151,A*2a
$GPGSV,3,1,12,1,2.0,127.0,0.0,2,14.0,341.0,23.0,5,14.0,308.0,34.0,6,38.0,21.0,30.0*4e
$GPGSV,3,1,12,1,2.0,127.0,0.0,2,14.0,341.0,22.0,5,14.0,308.0,27.0,6,38.0,21.0,30.0*4d
$GPGLL,0548.9811,S,03512.1981,W,094153,A*23
$GPRMC,094153,A,0548.9811,S,03512.1981,W,20.454038837367,18.86,030216,,*17
$GPGSA,A,3,,2,5,6,7,9,13,,17,19,28,30,,,,*0a
$GPGSV,3,1,12,1,2.0,127.0,0.0,2,14.0,341.0,21.0,5,14.0,308.0,26.0,6,38.0,21.0,23.0*4d
$GPGLL,0548.9760,S,03512.1959,W,094154,A*28
$GPRMC,094154,A,0548.9760,S,03512.1959,W,19.554553615002224,20.52,030216,,*27
$GPGSA,A,3,,2,5,6,7,9,13,,17,19,28,30,,,,*0a
$GPGLL,0548.9661,S,03512.1918,W,094156,A*2f
$GPRMC,094156,A,0548.9661,S,03512.1918,W,18.547008853637323,21.61,030216,,*23
$GPGSA,A,3,,2,5,6,7,9,13,,17,19,28,30,,,,*0a
$GPGSV,3,1,12,1,2.0,127.0,0.0,2,14.0,341.0,21.0,5,14.0,308.0,31.0,6,38.0,21.0,32.0*4b
$GPGLL,0548.9561,S,03512.1881,W,094158,A*23
$GPGSV,3,2,12,7,28.0,76.0,23.0,9,9.0,27.0,22.0,13,46.0,233.0,31.0,15,8.0,225.0,13.0*78
$GPGSV,3,3,12,17,64.0,170.0,30.0,19,77.0,186.0,24.0,28,23.0,164.0,28.0,30,45.0,111.0,39.0*71
$GPGLL,0557.7940,S,03508.8344,W,204109,A*23
$GPRMC,204109,A,0557.7940,S,03508.8344,W,0.0,80.6,060216,,*29
$GPGSA,A,3,,10,14,16,18,21,22,,26,27,29,31,,,,*31
$GPGSV,3,1,12,8,5.0,218.0,16.0,10,33.0,187.0,39.0,14,87.0,22.0,35.0,16,20.0,289.0,23.0*47
$GPGLL,0557.7940,S,03508.8344,W,204111,A*2a
$GPGSV,3,2,12,18,20.0,151.0,26.0,21,39.0,111.0,29.0,22,28.0,245.0,29.0,24,4.0,116.0,12.0*47
$GPGSV,3,3,12,26,23.0,320.0,29.0,27,33.0,223.0,34.0,29,18.0,30.0,28.0,31,21.0,0.0,29.0*45
$GPGLL,0557.7939,S,03508.8325,W,204112,A*20
$GPRMC,204112,A,0557.7939,S,03508.8325,W,1.1216052650968946,69.39,060216,,*2c
$GPGSA,A,3,,10,14,16,18,21,22,,26,27,29,31,,,,*31
$GPGSV,3,1,12,8,5.0,218.0,17.0,10,33.0,187.0,36.0,14,87.0,22.0,33.0,16,20.0,289.0,23.0*4f
$GPGSV,3,1,12,8,5.0,218.0,17.0,10,33.0,187.0,36.0,14,88.0,33.0,33.0,16,20.0,289.0,25.0*46
$GPGSV,3,2,12,18,20.0,151.0,23.0,21,39.0,111.0,30.0,22,28.0,245.0,31.0,24,4.0,116.0,13.0*42
$GPGSV,3,3,12,26,23.0,320.0,31.0,27,33.0,223.0,34.0,29,18.0,30.0,19.0,31,21.0,0.0,30.0*46
$GPGSV,3,1,12,8,5.0,218.0,17.0,10,33.0,187.0,36.0,14,88.0,33.0,34.0,16,20.0,289.0,26.0*42
$GPGLL,0557.7939,S,03508.8321,W,204115,A*23
$GPRMC,204115,A,0557.7939,S,03508.8321,W,0.0,85.35,060216,,*1c
$GPGSA,A,3,,10,14,16,18,21,22,,26,27,29,31,,,,*31
$GPGSV,3,1,12,8,5.0,218.0,17.0,10,33.0,187.0,36.0,14,88.0,33.0,34.0,16,20.0,290.0,26.0*4a
$GPGLL,0557.7938,S,03508.8321,W,204116,A*21
$GPGSV,3,2,12,18,20.0,151.0,30.0,21,39.0,111.0,29.0,22,28.0,245.0,30.0,24,4.0,116.0,12.0*48
$GPGLL,0557.7938,S,03508.8321,W,204118,A*2f
$GPRMC,204118,A,0557.7938,S,03508.8321,W,0.0,85.35,060216,,*10
$GPGSA,A,3,,10,14,16,18,21,22,,26,27,29,31,,,,*31
$GPGSV,3,1,12,8,5.0,218.0,15.0,10,33.0,187.0,38.0,14,88.0,33.0,33.0,16,20.0,290.0,25.0*42
$GPGSV,3,1,12,8,5.0,218.0,14.0,10,33.0,187.0,38.0,14,88.0,33.0,33.0,16,20.0,290.0,25.0*43
$GPGSV,3,2,12,18,20.0,150.0,29.0,21,39.0,111.0,29.0,22,28.0,245.0,30.0,24,4.0,116.0,0.0*72
$GPGSV,3,3,12,26,23.0,320.0,34.0,27,33.0,223.0,35.0,29,18.0,30.0,22.0,31,21.0,0.0,20.0*4b
$GPGSV,3,1,12,8,5.0,218.0,27.0,10,33.0,187.0,24.0,14,88.0,33.0,35.0,16,20.0,290.0,26.0*4b
$GPGLL,0557.7938,S,03508.8262,W,204204,A*27
$GPRMC,204204,A,0557.7938,S,03508.8262,W,0.0,95.07,060216,,*18
$GPGSA,A,3,,10,14,16,18,21,22,,26,27,29,31,,,,*31
$GPGSV,3,1,12,8,5.0,218.0,27.0,10,33.0,187.0,23.0,14,88.0,33.0,35.0,16,20.0,290.0,25.0*4f
$GPGSV,3,3,12,26,23.0,321.0,29.0,27,34.0,223.0,35.0,29,17.0,30.0,33.0,31,21.0,1.0,25.0*4a
$GPGLL,0557.7936,S,03508.8262,W,204205,A*28
$GPGSA,A,3,,10,14,16,18,21,22,,26,27,29,31,,,,*31
$GPGSV,3,1,12,8,5.0,218.0,27.0,10,33.0,187.0,25.0,14,88.0,33.0,34.0,16,20.0,290.0,24.0*49
$GPGGA,204207,0557.7938,S,03508.8262,W,1,10,2.1,15.5,M,,,,*2c
$GPGSV,3,1,12,8,5.0,218.0,27.0,10,33.0,187.0,26.0,14,88.0,33.0,34.0,16,20.0,290.0,23.0*4d
$GPGGA,204208,0557.7938,S,03508.8262,W,1,10,2.1,15.5,M,,,,*23
$GPGSV,3,1,12,8,5.0,218.0,28.0,10,33.0,187.0,27.0,14,88.0,33.0,34.0,16,20.0,290.0,22.0*42
$GPGLL,0557.7938,S,03508.8262,W,204209,A*2a
$GPRMC,204209,A,0557.7938,S,03508.8262,W,0.0,95.07,060216,,*15
$GPGSA,A,3,,10,14,16,18,21,22,,26,27,29,31,,,,*31
$GPGSV,3,1,12,8,5.0,218.0,29.0,10,33.0,187.0,26.0,14,88.0,33.0,35.0,16,20.0,290.0,21.0*40
$GPGSV,3,2,12,18,20.0,150.0,33.0,21,39.0,110.0,25.0,22,28.0,244.0,34.0,24,4.0,116.0,0.0*71
$GPGSV,3,3,12,26,23.0,321.0,33.0,27,34.0,223.0,37.0,29,17.0,30.0,30.0,31,21.0,1.0,26.0*43
$GPGGA,204211,0557.7938,S,03508.8262,W,1,10,2.1,15.5,M,,,,*2b
$GPGLL,0557.7938,S,03508.8262,W,204211,A*23
$GPGSV,3,2,12,18,20.0,150.0,34.0,21,39.0,110.0,24.0,22,28.0,244.0,34.0,24,4.0,116.0,0.0*77
$GPGSV,3,1,12,8,5.0,218.0,28.0,10,33.0,187.0,28.0,14,88.0,33.0,35.0,16,20.0,290.0,29.0*47
$GPGLL,0557.7938,S,03508.8262,W,204213,A*21
$GPGSV,3,2,12,18,20.0,150.0,33.0,21,39.0,110.0,24.0,22,28.0,244.0,33.0,24,4.0,116.0,0.0*77
$GPGSV,3,3,12,26,23.0,321.0,30.0,27,34.0,223.0,37.0,29,17.0,30.0,31.0,31,21.0,1.0,25.0*42
$GPGSA,A,3,,10,14,16,18,21,22,,26,27,29,31,,,,*31
$GPGSV,3,1,12,8,5.0,218.0,28.0,10,33.0,187.0,28.0,14,88.0,33.0,35.0,16,20.0,290.0,17.0*4a
$GPGLL,0557.7926,S,03508.8225,W,204308,A*26
$GPRMC,204308,A,0557.7926,S,03508.8225,W,0.0,82.28,060216,,*12
$GPGSA,A,3,,10,14,16,18,21,22,,26,27,29,31,,,,*31
$GPGSV,3,1,12,8,6.0,218.0,17.0,10,33.0,186.0,39.0,14,88.0,54.0,36.0,16,20.0,290.0,29.0*4b
$GPGSV,3,1,12,8,6.0,218.0,16.0,10,33.0,186.0,39.0,14,88.0,54.0,36.0,16,20.0,291.0,30.0*43
$GPGLL,0557.7926,S,03508.8225,W,204310,A*2f
$GPRMC,204310,A,0557.7926,S,03508.8225,W,0.0,82.28,060216,,*1b
$GPGLL,0557.7926,S,03508.8225,W,204311,A*2e
$GPRMC,204311,A,0557.7926,S,03508.8225,W,0.0,82.28,060216,,*1a
$GPGSA,A,3,,10,14,16,18,21,22,,26,27,29,31,,,,*31
$GPGSV,3,1,12,8,6.0,218.0,15.0,10,33.0,186.0,39.0,14,88.0,54.0,36.0,16,20.0,291.0,30.0*40
$GPGSV,3,1,12,8,6.0,218.0,16.0,10,33.0,186.0,39.0,14,88.0,54.0,35.0,16,20.0,291.0,30.0*40
$GPGLL,0557.7926,S,03508.8225,W,204313,A*2c
$GPRMC,204313,A,0557.7926,S,03508.8225,W,0.0,82.28,060216,,*18
$GPGSV,3,2,12,18,20.0,150.0,28.0,21,40.0,109.0,31.0,22,28.0,243.0,31.0,24,3.0,117.0,15.0*48
$GPGSV,3,3,12,26,23.0,322.0,17.0,27,35.0,224.0,34.0,29,16.0,30.0,21.0,31,22.0,1.0,24.0*43
$GPGSA,A,3,,10,14,16,18,21,22,,26,27,29,31,,,,*31
$GPGSV,3,1,12,8,6.0,218.0,18.0,10,33.0,186.0,40.0,14,88.0,54.0,34.0,16,20.0,291.0,23.0*43
$GPGLL,0557.7926,S,03508.8225,W,204330,A*2d
$GPRMC,204330,A,0557.7926,S,03508.8225,W,0.0,82.28,060216,,*19
$GPGSA,A,3,,10,14,16,18,21,22,,26,27,29,31,,,,*31
$GPGSV,3,1,12,8,6.0,218.0,18.0,10,33.0,186.0,40.0,14,88.0,54.0,35.0,16,20.0,291.0,23.0*42
$GPGSV,3,2,12,18,20.0,150.0,28.0,21,40.0,109.0,31.0,22,28.0,243.0,30.0,24,3.0,117.0,13.0*4f
$GPGSV,3,3,12,26,23.0,322.0,18.0,27,35.0,224.0,34.0,29,16.0,30.0,20.0,31,22.0,1.0,24.0*4d
$GPGGA,204332,0557.7926,S,03508.8225,W,1,10,2.2,15.7,M,,,,*26
$GPRMC,204332,A,0557.7926,S,03508.8225,W,0.0,82.28,060216,,*1b
$GPGSV,3,1,12,8,6.0,218.0,18.0,10,33.0,186.0,40.0,14,88.0,54.0,35.0,16,20.0,291.0,22.0*43
$GPGSV,3,2,12,18,20.0,150.0,27.0,21,40.0,109.0,31.0,22,28.0,243.0,30.0,24,3.0,117.0,13.0*40
$GPGSV,3,1,12,8,6.0,218.0,18.0,10,33.0,186.0,40.0,14,88.0,54.0,35.0,16,20.0,291.0,23.0*42
$GPGLL,0557.7926,S,03508.8225,W,204334,A*29
$GPRMC,204334,A,0557.7926,S,03508.8225,W,0.0,82.28,060216,,*1d
$GPGSA,A,3,,10,14,16,18,21,22,,26,27,29,31,,,,*31
$GPGSV,3,1,12,8,6.0,218.0,18.0,10,33.0,186.0,40.0,14,88.0,54.0,35.0,16,20.0,291.0,24.0*45
$GPGGA,204335,0557.7926,S,03508.8225,W,1,10,2.3,15.7,M,,,,*20
$GPGLL,0557.7926,S,03508.8225,W,204335,A*28
$GPRMC,204335,A,0557.7926,S,03508.8225,W,0.0,82.28,060216,,*1c
$GPGSA,A,3,,10,14,16,18,21,22,,26,27,29,31,,,,*31
$GPGSV,3,1,12,8,6.0,218.0,18.0,10,33.0,186.0,40.0,14,88.0,54.0,35.0,16,20.0,291.0,24.0*45
$GPGSV,3,2,12,18,20.0,150.0,27.0,21,40.0,109.0,31.0,22,28.0,243.0,30.0,24,3.0,117.0,12.0*41
$GPGSV,3,3,12,26,23.0,322.0,18.0,27,35.0,224.0,33.0,29,16.0,30.0,21.0,31,22.0,1.0,24.0*4b
$GPGSA,A,3,,10,14,16,18,21,22,,26,27,29,31,,,,*31
$GPGSV,3,1,12,8,6.0,218.0,18.0,10,33.0,186.0,40.0,14,88.0,54.0,35.0,16,20.0,291.0,24.0*45
