$GPGSV,3,1,11,10,38.0,199.0,35.0,14,74.0,0.0,30.0,16,22.0,277.0,38.0,18,25.0,160.0,27.0*71
$GPGLL,0557.5587,S,03509.0614,W,201730,A*26
$GPRMC,201730,A,0557.5587,S,03509.0614,W,0.0,134.42,060216,,*22
$GPGGA,201731,0557.5587,S,03509.0614,W,1,11,1.9,27.2,M,,,,*23
$GPGLL,0557.5587,S,03509.0614,W,201731,A*27
$GPGSV,3,2,11,21,39.0,125.0,34.0,22,27.0,257.0,28.0,24,6.0,106.0,32.0,26,27.0,309.0,27.0*47
$GPGSV,3,3,11,27,25.0,217.0,33.0,29,27.0,33.0,35.0,31,15.0,352.0,23.0*6a
$GPGSV,3,2,11,21,39.0,125.0,34.0,22,27.0,257.0,28.0,24,6.0,106.0,32.0,26,27.0,309.0,26.0*46
$GPGSV,3,3,11,27,25.0,217.0,33.0,29,27.0,33.0,35.0,31,15.0,352.0,23.0*6a
$GPGSA,A,3,10,14,16,18,21,22,24,26,27,29,31,,,,,*37
$GPGSV,3,1,11,10,38.0,199.0,36.0,14,74.0,0.0,29.0,16,22.0,277.0,39.0,18,25.0,160.0,28.0*74
$GPGSV,3,2,11,21,39.0,125.0,34.0,22,27.0,257.0,28.0,24,6.0,106.0,32.0,26,27.0,309.0,25.0*45
$GPGSV,3,3,11,27,25.0,217.0,33.0,29,27.0,33.0,35.0,31,15.0,352.0,22.0*6b
$GPGGA,201733,0557.5587,S,03509.0614,W,1,11,1.9,27.2,M,,,,*21
$GPGSV,3,1,11,10,38.0,199.0,36.0,14,74.0,0.0,28.0,16,22.0,277.0,39.0,18,25.0,160.0,28.0*75
$GPGSV,3,2,11,21,39.0,125.0,34.0,22,27.0,257.0,27.0,24,6.0,106.0,32.0,26,27.0,309.0,24.0*4b
$GPGSV,3,3,11,27,25.0,217.0,33.0,29,27.0,33.0,35.0,31,15.0,352.0,21.0*68
$GPGGA,201734,0557.5587,S,03509.0614,W,1,11,1.9,27.2,M,,,,*26
$GPGLL,0557.5587,S,03509.0614,W,201735,A*23
$GPGSV,3,2,11,21,39.0,125.0,35.0,22,27.0,257.0,28.0,24,6.0,106.0,32.0,26,27.0,309.0,23.0*42
$GPGSV,3,3,11,27,25.0,217.0,33.0,29,27.0,33.0,35.0,31,15.0,352.0,21.0*68
$GPGLL,0557.5587,S,03509.0614,W,201736,A*20
$GPRMC,201736,A,0557.5587,S,03509.0614,W,0.0,134.42,060216,,*24
$GPGSA,A,3,10,14,16,18,21,22,24,26,27,29,31,,,,,*37
$GPGSV,3,1,11,10,38.0,199.0,37.0,14,74.0,0.0,28.0,16,22.0,277.0,39.0,18,25.0,160.0,28.0*74
$GPGSV,3,1,11,10,38.0,199.0,37.0,14,74.0,0.0,28.0,16,22.0,277.0,39.0,18,25.0,160.0,28.0*74
$GPGSV,3,2,11,21,39.0,125.0,35.0,22,27.0,257.0,29.0,24,6.0,106.0,32.0,26,27.0,309.0,23.0*43
$GPGSV,3,3,11,27,25.0,217.0,32.0,29,27.0,33.0,34.0,31,15.0,352.0,21.0*68
$GPGSV,3,2,11,21,39.0,124.0,34.0,22,27.0,256.0,31.0,24,6.0,107.0,24.0,26,26.0,310.0,26.0*41
$GPGSV,3,1,11,10,38.0,198.0,29.0,14,76.0,1.0,33.0,16,22.0,278.0,21.0,18,25.0,159.0,30.0*76
$GPGLL,0557.5646,S,03509.0541,W,201850,A*22
$GPRMC,201850,A,0557.5646,S,03509.0541,W,0.0,134.42,060216,,*26
$GPGSA,A,3,10,14,16,18,21,22,24,26,27,29,31,,,,,*37
$GPGSV,3,1,11,10,38.0,198.0,31.0,14,76.0,1.0,32.0,16,22.0,278.0,20.0,18,25.0,159.0,23.0*7d
$GPGSV,3,1,11,10,38.0,198.0,31.0,14,76.0,1.0,30.0,16,22.0,278.0,22.0,18,25.0,159.0,25.0*7b
$GPGLL,0557.5646,S,03509.0541,W,201852,A*20
$GPGSV,3,1,11,10,38.0,198.0,29.0,14,76.0,1.0,22.0,16,22.0,278.0,22.0,18,25.0,159.0,26.0*72
$GPGLL,0557.5646,S,03509.0541,W,201853,A*21
$GPGSV,3,2,11,21,39.0,124.0,30.0,22,27.0,256.0,30.0,24,6.0,107.0,21.0,26,26.0,310.0,29.0*4e
$GPGSV,3,3,11,27,25.0,217.0,32.0,29,26.0,33.0,21.0,31,16.0,353.0,32.0*6d
$GPGSA,A,3,10,14,16,18,21,22,24,26,27,29,31,,,,,*37
$GPGSV,3,1,11,10,38.0,198.0,30.0,14,76.0,1.0,22.0,16,22.0,278.0,29.0,18,25.0,159.0,25.0*72
$GPGLL,0557.5646,S,03509.0541,W,201855,A*27
$GPGSV,3,2,11,21,39.0,124.0,24.0,22,27.0,256.0,32.0,24,6.0,107.0,22.0,26,26.0,310.0,25.0*46
$GPGSV,3,1,11,10,38.0,198.0,32.0,14,76.0,1.0,23.0,16,22.0,278.0,20.0,18,25.0,159.0,33.0*7f
$GPGLL,0557.5646,S,03509.0541,W,201857,A*25
$GPGSV,3,2,11,21,39.0,124.0,24.0,22,27.0,256.0,33.0,24,6.0,107.0,22.0,26,26.0,310.0,25.0*47
$GPGSV,3,1,11,10,38.0,198.0,33.0,14,76.0,1.0,24.0,16,22.0,278.0,21.0,18,25.0,159.0,32.0*79
$GPGLL,0557.5646,S,03509.0541,W,201859,A*2b
$GPGSV,3,1,11,10,38.0,198.0,34.0,14,76.0,1.0,23.0,16,22.0,278.0,20.0,18,25.0,159.0,32.0*78
$GPGSV,3,2,11,21,39.0,124.0,33.0,22,27.0,256.0,22.0,24,6.0,107.0,20.0,26,26.0,310.0,25.0*43
$GPGSV,3,3,11,27,25.0,217.0,21.0,29,26.0,33.0,34.0,31,16.0,353.0,32.0*6b
$GPGGA,201901,0557.5646,S,03509.0541,W,1,11,2.0,30.2,M,,,,*2f
$GPGSV,3,1,11,10,38.0,198.0,34.0,14,76.0,1.0,23.0,16,22.0,278.0,20.0,18,25.0,159.0,31.0*7b
$GPGLL,0557.5659,S,03509.0517,W,201902,A*29
$GPGSV,3,1,11,10,38.0,198.0,33.0,14,76.0,1.0,23.0,16,22.0,278.0,33.0,18,25.0,159.0,29.0*77
$GPGSV,3,1,12,8,1.0,216.0,0.0,10,35.0,193.0,40.0,14,82.0,5.0,29.0,16,21.0,284.0,17.0*41
$GPGLL,0557.6823,S,03508.9439,W,203007,A*22
$GPRMC,203007,A,0557.6823,S,03508.9439,W,0.0,163.82,060216,,*28
$GPGSA,A,3,,10,14,16,18,21,22,24,26,27,29,31,,,,*37
$GPGSV,3,1,12,8,1.0,216.0,0.0,10,35.0,193.0,40.0,14,82.0,5.0,29.0,16,21.0,284.0,18.0*4e
$GPGLL,0557.6823,S,03508.9439,W,203008,A*2d
$GPGSV,3,2,12,18,22.0,155.0,21.0,21,39.0,117.0,33.0,22,27.0,250.0,22.0,24,5.0,112.0,28.0*47
$GPGLL,0557.6834,S,03508.9414,W,203010,A*2d
$GPGSV,3,2,12,18,22.0,155.0,22.0,21,39.0,117.0,33.0,22,27.0,250.0,22.0,24,5.0,112.0,24.0*48
$GPGSV,3,3,12,26,25.0,316.0,31.0,27,30.0,220.0,30.0,29,22.0,31.0,27.0,31,18.0,357.0,25.0*4b
$GPGSA,A,3,,10,14,16,18,21,22,24,26,27,29,31,,,,*37
$GPGSV,3,1,12,8,1.0,216.0,0.0,10,35.0,193.0,38.0,14,82.0,5.0,30.0,16,21.0,284.0,20.0*42
$GPGLL,0557.6844,S,03508.9406,W,203012,A*2b
$GPRMC,203012,A,0557.6844,S,03508.9406,W,2.2292030267348113,146.91,060216,,*11
$GPGSV,3,1,12,8,1.0,216.0,0.0,10,35.0,193.0,38.0,14,82.0,5.0,29.0,16,21.0,284.0,20.0*4a
$GPGSV,3,2,12,18,22.0,155.0,20.0,21,39.0,117.0,31.0,22,27.0,250.0,22.0,24,5.0,112.0,20.0*4c
$GPGSV,3,3,12,26,25.0,316.0,29.0,27,30.0,220.0,29.0,29,22.0,31.0,34.0,31,18.0,357.0,26.0*4b
$GPGGA,203014,0557.6857,S,03508.9394,W,1,11,3.2,19.5,M,,,,*24
$GPGSV,3,1,12,8,1.0,216.0,0.0,10,35.0,193.0,38.0,14,82.0,5.0,29.0,16,21.0,284.0,20.0*4a
$GPGLL,0557.6865,S,03508.9388,W,203015,A*2e
$GPGSV,3,1,12,8,1.0,216.0,0.0,10,35.0,193.0,39.0,14,82.0,5.0,30.0,16,21.0,284.0,20.0*43
$GPGLL,0557.6874,S,03508.9380,W,203016,A*25
$GPGSV,3,1,12,8,1.0,216.0,0.0,10,35.0,193.0,39.0,14,82.0,5.0,31.0,16,21.0,284.0,21.0*43
$GPGSV,3,1,12,8,1.0,216.0,0.0,10,35.0,193.0,39.0,14,82.0,5.0,32.0,16,21.0,284.0,22.0*43
$GPGSV,3,2,12,18,22.0,155.0,19.0,21,39.0,117.0,30.0,22,27.0,250.0,33.0,24,5.0,112.0,19.0*4d
$GPGSV,3,3,12,26,25.0,316.0,35.0,27,30.0,220.0,32.0,29,22.0,31.0,24.0,31,18.0,357.0,28.0*43
$GPGGA,203018,0557.6897,S,03508.9363,W,1,11,2.7,19.4,M,,,,*29
$GPGLL,0557.6897,S,03508.9363,W,203018,A*2b
$GPGSV,3,2,12,18,22.0,154.0,35.0,21,39.0,116.0,33.0,22,28.0,249.0,32.0,24,5.0,113.0,24.0*49
$GPGSV,3,3,12,26,24.0,317.0,20.0,27,31.0,220.0,29.0,29,21.0,31.0,26.0,31,19.0,358.0,38.0*42
$GPGSA,A,3,,10,14,16,18,21,22,24,26,27,29,31,,,,*37
$GPGSV,3,1,12,8,2.0,217.0,0.0,10,35.0,192.0,39.0,14,83.0,7.0,38.0,16,21.0,285.0,32.0*49
$GPGLL,0557.7169,S,03508.9137,W,203323,A*2a
$GPGSV,3,1,12,8,2.0,217.0,0.0,10,35.0,192.0,38.0,14,83.0,7.0,38.0,16,21.0,285.0,32.0*48
$GPGSV,3,1,12,8,2.0,217.0,0.0,10,35.0,192.0,38.0,14,83.0,7.0,38.0,16,21.0,285.0,32.0*48
$GPGSV,3,1,12,8,2.0,217.0,0.0,10,35.0,192.0,37.0,14,83.0,7.0,38.0,16,21.0,285.0,31.0*44
$GPGSV,3,2,12,18,22.0,154.0,35.0,21,39.0,116.0,36.0,22,28.0,249.0,32.0,24,5.0,113.0,23.0*4b
$GPGSV,3,3,12,26,24.0,317.0,25.0,27,31.0,220.0,29.0,29,21.0,31.0,27.0,31,19.0,358.0,37.0*49
$GPGGA,203326,0557.7169,S,03508.9137,W,1,11,1.8,15.9,M,,,,*20
$GPGSV,3,1,12,8,2.0,217.0,0.0,10,35.0,192.0,38.0,14,83.0,7.0,29.0,16,21.0,285.0,30.0*4a
$GPGLL,0557.7169,S,03508.9137,W,203327,A*2e
$GPGSV,3,1,12,8,2.0,217.0,0.0,10,35.0,192.0,38.0,14,83.0,7.0,29.0,16,21.0,285.0,29.0*42
$GPGLL,0557.7169,S,03508.9137,W,203328,A*21
$GPGSV,3,2,12,18,22.0,154.0,36.0,21,39.0,116.0,34.0,22,28.0,249.0,36.0,24,5.0,113.0,21.0*4c
$GPGSV,3,3,12,26,24.0,317.0,35.0,27,31.0,220.0,32.0,29,21.0,31.0,29.0,31,19.0,358.0,28.0*42
$GPGSA,A,3,,10,14,16,18,21,22,,26,27,29,31,,,,*31
$GPGSV,3,1,12,8,2.0,217.0,0.0,10,35.0,192.0,38.0,14,83.0,7.0,29.0,16,21.0,285.0,37.0*4d
$GPGSV,3,3,12,26,24.0,317.0,33.0,27,31.0,220.0,33.0,29,21.0,31.0,27.0,31,19.0,358.0,27.0*44
$GPGLL,0557.7169,S,03508.9137,W,203330,A*28
$GPGSV,3,2,12,18,22.0,154.0,37.0,21,39.0,116.0,34.0,22,28.0,249.0,39.0,24,5.0,113.0,19.0*49
$GPGSV,3,3,12,26,24.0,317.0,32.0,27,31.0,220.0,33.0,29,21.0,31.0,28.0,31,19.0,358.0,28.0*45
$GPGSA,A,3,,10,14,16,18,21,22,24,26,27,29,31,,,,*37
$GPGSV,3,1,12,8,3.0,217.0,0.0,10,35.0,192.0,38.0,14,83.0,7.0,32.0,16,21.0,285.0,36.0*47
$GPGLL,0557.7169,S,03508.9137,W,203332,A*2a
$GPGSV,3,2,12,18,22.0,154.0,29.0,21,39.0,116.0,30.0,22,28.0,249.0,37.0,24,5.0,113.0,17.0*42
$GPGSV,3,3,12,26,24.0,317.0,25.0,27,31.0,220.0,34.0,29,21.0,31.0,26.0,31,19.0,358.0,30.0*43
$GPGLL,0557.7953,S,03508.8465,W,203950,A*26
$GPGSV,3,2,12,18,20.0,151.0,29.0,21,39.0,111.0,28.0,22,28.0,245.0,37.0,24,4.0,116.0,16.0*42
$GPGSV,3,1,12,8,5.0,217.0,17.0,10,34.0,188.0,37.0,14,87.0,22.0,33.0,16,20.0,289.0,33.0*48
$GPGLL,0557.7953,S,03508.8465,W,203952,A*24
$GPRMC,203952,A,0557.7953,S,03508.8465,W,0.0,100.34,060216,,*26
$GPGSA,A,3,,10,14,16,18,21,22,,26,27,29,31,,,,*31
$GPGSV,3,1,12,8,5.0,217.0,17.0,10,34.0,188.0,37.0,14,87.0,22.0,33.0,16,20.0,289.0,33.0*48
$GPGSV,3,1,12,8,5.0,217.0,17.0,10,34.0,188.0,37.0,14,87.0,22.0,33.0,16,20.0,289.0,33.0*48
$GPGSV,3,2,12,18,20.0,151.0,29.0,21,39.0,111.0,29.0,22,28.0,245.0,37.0,24,4.0,116.0,14.0*41
$GPGSV,3,3,12,26,23.0,320.0,32.0,27,33.0,223.0,31.0,29,18.0,30.0,23.0,31,21.0,0.0,33.0*4a
$GPGGA,203954,0557.7953,S,03508.8465,W,1,10,1.8,13.5,M,,,,*26
$GPGSV,3,1,12,8,5.0,217.0,17.0,10,34.0,188.0,37.0,14,87.0,22.0,33.0,16,20.0,289.0,33.0*48
$GPGLL,0557.7953,S,03508.8465,W,203955,A*23
$GPRMC,203955,A,0557.7953,S,03508.8465,W,0.0,100.34,060216,,*21
$GPGSV,3,2,12,18,20.0,151.0,26.0,21,39.0,111.0,26.0,22,28.0,245.0,37.0,24,4.0,116.0,15.0*40
$GPGSV,3,2,12,18,20.0,151.0,26.0,21,39.0,111.0,25.0,22,28.0,245.0,37.0,24,4.0,116.0,15.0*43
$GPGSV,3,1,12,8,5.0,217.0,17.0,10,34.0,188.0,37.0,14,87.0,22.0,33.0,16,20.0,289.0,33.0*48
$GPGLL,0557.7953,S,03508.8465,W,203959,A*2f
$GPGSV,3,1,12,8,5.0,217.0,17.0,10,34.0,188.0,37.0,14,87.0,22.0,33.0,16,20.0,289.0,33.0*48
$GPGSV,3,1,12,8,5.0,217.0,17.0,10,34.0,188.0,37.0,14,87.0,22.0,33.0,16,20.0,289.0,32.0*49
$GPGSV,3,2,12,18,20.0,151.0,25.0,21,39.0,111.0,25.0,22,28.0,245.0,36.0,24,4.0,116.0,14.0*40
$GPGSV,3,1,12,8,5.0,217.0,17.0,10,34.0,188.0,37.0,14,87.0,22.0,33.0,16,20.0,289.0,32.0*49
$GPGSV,3,2,12,18,20.0,151.0,25.0,21,39.0,111.0,25.0,22,28.0,245.0,37.0,24,4.0,116.0,15.0*40
$GPGSV,3,3,12,26,23.0,320.0,32.0,27,33.0,223.0,31.0,29,18.0,30.0,24.0,31,21.0,0.0,32.0*4c
$GPGGA,204002,0557.7953,S,03508.8465,W,1,10,1.7,13.5,M,,,,*24
$GPGSV,3,1,12,8,5.0,217.0,17.0,10,34.0,188.0,37.0,14,87.0,22.0,33.0,16,20.0,289.0,32.0*49
$GPGSV,3,2,12,18,20.0,151.0,25.0,21,39.0,111.0,26.0,22,28.0,245.0,37.0,24,4.0,116.0,15.0*43
$GPGSV,3,3,12,26,23.0,320.0,31.0,27,33.0,223.0,31.0,29,18.0,30.0,25.0,31,21.0,0.0,32.0*4e
$GPGLL,0557.7926,S,03508.8225,W,204301,A*2f
$GPRMC,204301,A,0557.7926,S,03508.8225,W,0.0,82.28,060216,,*1b
$GPGSA,A,3,,10,14,16,18,21,22,,26,27,29,31,,,,*31
$GPGSV,3,1,12,8,6.0,218.0,19.0,10,33.0,187.0,38.0,14,88.0,33.0,35.0,16,20.0,290.0,30.0*4f
$GPGSV,3,1,12,8,6.0,218.0,19.0,10,33.0,187.0,39.0,14,88.0,33.0,35.0,16,20.0,290.0,29.0*46
$GPGLL,0557.7926,S,03508.8225,W,204303,A*2d
$GPGSV,3,2,12,18,20.0,150.0,30.0,21,39.0,110.0,29.0,22,28.0,244.0,25.0,24,4.0,116.0,13.0*4c
$GPGSV,3,2,12,18,20.0,150.0,30.0,21,39.0,110.0,29.0,22,28.0,244.0,26.0,24,4.0,116.0,12.0*4e
$GPGSV,3,3,12,26,23.0,321.0,23.0,27,34.0,223.0,33.0,29,17.0,30.0,23.0,31,21.0,1.0,25.0*47
$GPGSA,A,3,,10,14,16,18,21,22,,26,27,29,31,,,,*31
$GPGSV,3,1,12,8,6.0,218.0,18.0,10,33.0,186.0,39.0,14,88.0,33.0,36.0,16,20.0,290.0,28.0*44
$GPGSV,3,1,12,8,6.0,218.0,18.0,10,33.0,186.0,39.0,14,88.0,33.0,36.0,16,20.0,290.0,29.0*45
$GPGLL,0557.7926,S,03508.8225,W,204307,A*29
$GPRMC,204307,A,0557.7926,S,03508.8225,W,0.0,82.28,060216,,*1d
$GPGLL,0557.7926,S,03508.8225,W,204314,A*2b
$GPRMC,204314,A,0557.7926,S,03508.8225,W,0.0,82.28,060216,,*1f
$GPGSA,A,3,,10,14,16,18,21,22,,26,27,29,31,,,,*31
$GPGSV,3,1,12,8,6.0,218.0,16.0,10,33.0,186.0,39.0,14,88.0,54.0,36.0,16,20.0,291.0,26.0*44
$GPGSV,3,1,12,8,6.0,218.0,17.0,10,33.0,186.0,39.0,14,88.0,54.0,36.0,16,20.0,291.0,25.0*46
$GPGSV,3,2,12,18,20.0,150.0,25.0,21,40.0,109.0,31.0,22,28.0,243.0,30.0,24,4.0,116.0,13.0*44
$GPGSV,3,3,12,26,23.0,321.0,24.0,27,34.0,223.0,35.0,29,17.0,30.0,22.0,31,21.0,1.0,26.0*44
$GPGSV,3,1,12,8,6.0,218.0,17.0,10,33.0,186.0,39.0,14,88.0,54.0,36.0,16,20.0,291.0,25.0*46
$GPGLL,0557.7926,S,03508.8225,W,204317,A*28
$GPRMC,204317,A,0557.7926,S,03508.8225,W,0.0,82.28,060216,,*1c
$GPGSA,A,3,,10,14,16,18,21,22,,26,27,29,31,,,,*31
$GPGSV,3,1,12,8,6.0,218.0,17.0,10,33.0,186.0,39.0,14,88.0,54.0,36.0,16,20.0,291.0,25.0*46
$GPGLL,0557.7926,S,03508.8225,W,204318,A*27
$GPGSV,3,2,12,18,20.0,150.0,26.0,21,40.0,109.0,31.0,22,28.0,243.0,29.0,24,3.0,117.0,15.0*4f
$GPGLL,0557.9583,S,03508.6257,W,205439,A*24
$GPGSV,3,2,12,18,17.0,145.0,19.0,21,39.0,101.0,33.0,22,28.0,237.0,39.0,24,2.0,121.0,13.0*47
$GPGSV,3,3,12,26,22.0,326.0,29.0,27,38.0,227.0,36.0,29,13.0,29.0,35.0,31,24.0,5.0,26.0*4f
$GPGSA,A,3,,10,14,16,18,21,22,,26,27,29,31,,,,*31
$GPGSV,3,1,12,8,10.0,220.0,20.0,10,31.0,181.0,32.0,14,84.0,158.0,22.0,16,19.0,296.0,31.0*4c
$GPGLL,0557.9598,S,03508.6234,W,205441,A*24
$GPRMC,205441,A,0557.9598,S,03508.6234,W,3.8750912873078573,125.18,060216,,*1e
$GPGSV,3,3,12,26,22.0,326.0,20.0,27,38.0,227.0,37.0,29,13.0,29.0,37.0,31,24.0,5.0,26.0*45
$GPGSV,3,1,12,8,10.0,220.0,27.0,10,31.0,181.0,31.0,14,84.0,158.0,21.0,16,19.0,296.0,31.0*4b
$GPGLL,0557.9609,S,03508.6218,W,205443,A*23
$GPGSV,3,1,12,8,10.0,220.0,20.0,10,31.0,181.0,30.0,14,84.0,158.0,21.0,16,19.0,296.0,31.0*4d
$GPGLL,0557.9611,S,03508.6211,W,205444,A*24
$GPGSV,3,2,12,18,17.0,145.0,23.0,21,39.0,101.0,36.0,22,28.0,237.0,37.0,24,2.0,121.0,15.0*43
$GPGSV,3,3,12,26,21.0,327.0,23.0,27,39.0,228.0,37.0,29,13.0,29.0,39.0,31,24.0,5.0,29.0*4b
$GPGLL,0557.9619,S,03508.6199,W,205446,A*2d
$GPGSV,3,1,12,8,10.0,220.0,18.0,10,31.0,181.0,31.0,14,84.0,158.0,21.0,16,19.0,296.0,30.0*46
$GPGSV,3,2,12,18,17.0,145.0,23.0,21,39.0,101.0,36.0,22,28.0,237.0,37.0,24,2.0,121.0,14.0*42
$GPGSV,3,3,12,26,21.0,327.0,25.0,27,39.0,228.0,37.0,29,12.0,29.0,38.0,31,24.0,5.0,31.0*44
$GPGSA,A,3,,10,14,16,18,21,22,,26,27,29,31,,,,*31
$GPGSV,3,1,12,8,10.0,220.0,15.0,10,31.0,181.0,31.0,14,84.0,158.0,22.0,16,19.0,296.0,30.0*48
$GPGLL,0557.9619,S,03508.6197,W,205448,A*2d
$GPGSV,3,2,12,18,17.0,145.0,22.0,21,39.0,101.0,36.0,22,28.0,237.0,37.0,24,2.0,121.0,13.0*44
$GPGLL,0557.9620,S,03508.6196,W,205450,A*2f
$GPGSV,3,2,12,18,17.0,145.0,23.0,21,39.0,101.0,36.0,22,28.0,237.0,38.0,24,2.0,121.0,15.0*4c
$GPGSV,3,2,12,18,17.0,145.0,23.0,21,39.0,101.0,36.0,22,28.0,237.0,38.0,24,2.0,121.0,15.0*4c
$GPGSV,3,1,12,8,10.0,220.0,0.0,10,31.0,181.0,30.0,14,84.0,158.0,22.0,16,19.0,296.0,30.0*7d
$GPGLL,0557.9620,S,03508.6196,W,205452,A*2d
$GPGSV,3,2,12,18,17.0,145.0,22.0,21,39.0,101.0,36.0,22,28.0,237.0,38.0,24,2.0,121.0,0.0*79
