$GPGLL,0548.6160,S,03512.2638,W,094701,A*2c
$GPRMC,094701,A,0548.6160,S,03512.2638,W,0.0,107.54,030216,,*2a
$GPGSA,A,3,2,5,6,7,9,13,,17,19,28,30,,,,,*0a
$GPGSV,3,1,11,2,16.0,343.0,17.0,5,13.0,310.0,26.0,6,40.0,23.0,35.0,7,28.0,74.0,27.0*73
$GPGSV,3,1,11,2,16.0,343.0,15.0,5,13.0,310.0,26.0,6,40.0,23.0,35.0,7,28.0,74.0,26.0*70
$GPGLL,0548.6158,S,03512.2639,W,094703,A*24
$GPRMC,094703,A,0548.6158,S,03512.2639,W,0.0,107.54,030216,,*22
$GPGLL,0548.6158,S,03512.2639,W,094704,A*23
$GPRMC,094704,A,0548.6158,S,03512.2639,W,0.0,107.54,030216,,*25
$GPGSA,A,3,2,5,6,7,9,13,,17,19,28,30,,,,,*0a
$GPGSV,3,1,11,2,16.0,343.0,16.0,5,13.0,310.0,24.0,6,40.0,23.0,34.0,7,28.0,74.0,25.0*73
$GPGSV,3,2,11,9,7.0,28.0,15.0,13,48.0,236.0,31.0,15,9.0,227.0,13.0,17,61.0,170.0,29.0*77
$GPGSV,3,1,11,2,16.0,343.0,16.0,5,13.0,310.0,24.0,6,40.0,23.0,34.0,7,28.0,74.0,23.0*75
$GPGLL,0548.6158,S,03512.2639,W,094706,A*21
$GPGSV,3,1,11,2,18.0,343.0,30.0,5,13.0,312.0,17.0,6,41.0,25.0,34.0,7,27.0,72.0,22.0*72
$GPGLL,0549.2104,S,03512.4717,W,095031,A*24
$GPRMC,095031,A,0549.2104,S,03512.4717,W,0.0,190.59,030216,,*21
$GPGSA,A,3,2,5,6,7,9,13,,17,19,28,30,,,,,*0a
$GPGSV,3,1,11,2,18.0,343.0,30.0,5,13.0,312.0,16.0,6,41.0,25.0,34.0,7,27.0,72.0,22.0*73
$GPGLL,0549.2104,S,03512.4717,W,095032,A*27
$GPGSV,3,2,11,9,6.0,28.0,26.0,13,49.0,238.0,38.0,15,10.0,228.0,15.0,17,59.0,169.0,32.0*48
$GPGGA,095034,0549.2104,S,03512.4717,W,1,10,2.4,48.1,M,,,,*20
$GPGLL,0549.2104,S,03512.4717,W,095034,A*21
$GPRMC,095034,A,0549.2104,S,03512.4717,W,0.0,190.59,030216,,*24
$GPGSA,A,3,2,5,6,7,9,13,,17,19,28,30,,,,,*0a
$GPGSV,3,1,11,2,18.0,343.0,30.0,5,13.0,312.0,18.0,6,41.0,25.0,34.0,7,27.0,72.0,22.0*7d
$GPGSV,3,1,11,2,18.0,343.0,30.0,5,13.0,312.0,18.0,6,41.0,25.0,34.0,7,27.0,72.0,22.0*7d
$GPGSV,3,2,11,9,6.0,28.0,27.0,13,49.0,238.0,37.0,15,10.0,228.0,17.0,17,59.0,169.0,32.0*44
$GPGSV,3,2,13,18,31.0,168.0,27.0,21,37.0,139.0,36.0,22,25.0,268.0,23.0,24,7.0,97.0,22.0*77
$GPGSV,3,3,13,25,2.0,28.0,0.0,26,30.0,298.0,32.0,27,16.0,214.0,22.0,29,36.0,39.0,22.0*70
$GPGSA,A,3,10,14,15,,18,21,,24,,26,,29,,,,*33
$GPGSV,3,1,13,10,42.0,212.0,30.0,14,63.0,357.0,19.0,15,5.0,142.0,20.0,16,22.0,265.0,24.0*41
$GPGGA,195452,0552.2105,S,03510.8844,W,1,9,2.8,48.5,M,,,,*19
$GPGSV,3,2,13,18,31.0,168.0,28.0,21,37.0,139.0,36.0,22,25.0,268.0,22.0,24,7.0,97.0,25.0*7e
$GPGSV,3,3,13,25,2.0,28.0,0.0,26,30.0,298.0,31.0,27,16.0,214.0,21.0,29,36.0,39.0,18.0*79
$GPGLL,0552.2125,S,03510.8837,W,195454,A*28
$GPGSA,A,3,10,14,15,,18,21,,24,,26,,29,,,,*33
$GPGSV,3,1,13,10,42.0,212.0,31.0,14,63.0,357.0,22.0,15,5.0,142.0,22.0,16,22.0,265.0,26.0*48
$GPGSV,3,1,13,10,42.0,212.0,32.0,14,63.0,357.0,23.0,15,5.0,142.0,23.0,16,22.0,265.0,27.0*4a
$GPGLL,0552.2138,S,03510.8829,W,195456,A*29
$GPRMC,195456,A,0552.2138,S,03510.8829,W,1.8119778260206092,163.99,060216,,*1a
$GPGSA,A,3,10,14,15,,18,21,,24,,26,,29,,,,*33
$GPGLL,0557.9878,S,03508.5672,W,205755,A*24
$GPGSV,3,2,12,18,17.0,145.0,24.0,21,39.0,100.0,33.0,22,28.0,236.0,36.0,24,2.0,122.0,0.0*77
$GPGSV,3,1,12,8,11.0,220.0,17.0,10,31.0,180.0,35.0,14,83.0,161.0,33.0,16,19.0,297.0,20.0*43
$GPGLL,0557.9882,S,03508.5663,W,205756,A*22
$GPRMC,205756,A,0557.9882,S,03508.5663,W,3.0266333824204756,115.68,060216,,*13
$GPGSA,A,3,,10,14,16,18,21,22,,26,27,29,31,,,,*31
$GPGSV,3,1,12,8,11.0,220.0,17.0,10,31.0,180.0,35.0,14,83.0,161.0,32.0,16,19.0,297.0,21.0*43
$GPGSV,3,1,12,8,11.0,220.0,17.0,10,31.0,180.0,35.0,14,83.0,161.0,31.0,16,19.0,297.0,20.0*41
$GPGLL,0557.9888,S,03508.5650,W,205758,A*26
$GPGSV,3,1,12,8,11.0,220.0,28.0,10,31.0,180.0,35.0,14,83.0,161.0,30.0,16,19.0,297.0,20.0*4c
$GPGLL,0557.9892,S,03508.5645,W,205759,A*28
$GPRMC,205759,A,0557.9892,S,03508.5645,W,2.5683860252215864,117.41,060216,,*13
$GPGSA,A,3,,10,14,16,18,21,22,,26,27,29,31,,,,*31
$GPGSV,3,1,12,8,11.0,220.0,26.0,10,31.0,180.0,35.0,14,83.0,161.0,29.0,16,19.0,297.0,21.0*4b
$GPGLL,0558.5669,S,03507.6516,W,212033,A*25
$GPGSV,3,2,11,18,14.0,136.0,24.0,21,38.0,86.0,32.0,22,28.0,224.0,40.0,26,18.0,337.0,22.0*41
$GPGSV,3,1,11,8,18.0,225.0,26.0,10,28.0,170.0,30.0,14,71.0,168.0,33.0,16,17.0,308.0,24.0*45
$GPGLL,0558.5680,S,03507.6502,W,212035,A*21
$GPGSV,3,2,11,18,14.0,136.0,23.0,21,38.0,86.0,34.0,22,28.0,224.0,30.0,26,18.0,337.0,19.0*4f
$GPGSV,3,3,11,27,46.0,241.0,24.0,29,2.0,30.0,19.0,31,32.0,14.0,26.0*61
$GPGSA,A,3,8,10,14,16,18,21,22,26,27,,31,,,,,*02
$GPGLL,0558.5691,S,03507.6480,W,212037,A*28
$GPGSV,3,2,11,18,14.0,136.0,23.0,21,38.0,86.0,34.0,22,28.0,224.0,27.0,26,18.0,337.0,29.0*4a
$GPGSV,3,1,11,8,18.0,225.0,17.0,10,28.0,170.0,25.0,14,71.0,168.0,34.0,16,17.0,308.0,30.0*41
$GPGLL,0558.5709,S,03507.6434,W,212039,A*29
$GPGSV,3,2,11,18,14.0,136.0,31.0,21,38.0,86.0,24.0,22,28.0,224.0,25.0,26,18.0,337.0,22.0*41
$GPGSV,3,3,11,27,46.0,241.0,37.0,29,2.0,30.0,18.0,31,32.0,14.0,29.0*6d
$GPGSA,A,3,8,10,14,16,18,21,22,26,27,,31,,,,,*02
