$GPGLL,0551.0759,S,03512.2703,W,223746,A*2a
$GPGSV,3,1,12,8,16.0,224.0,35.0,10,28.0,172.0,37.0,14,73.0,167.0,34.0,16,17.0,306.0,33.0*4c
$GPGLL,0551.0721,S,03512.2751,W,223747,A*23
$GPGSV,3,2,12,18,14.0,138.0,34.0,21,38.0,89.0,29.0,22,32.0,211.0,35.0,26,19.0,336.0,23.0*46
$GPGSV,3,1,12,8,16.0,224.0,35.0,10,28.0,172.0,28.0,14,73.0,167.0,32.0,16,17.0,306.0,31.0*46
$GPGLL,0551.0646,S,03512.2842,W,223749,A*20
$GPRMC,223749,A,0551.0646,S,03512.2842,W,21.484594750669736,309.21,170116,,*14
$GPGSV,3,1,12,8,16.0,224.0,32.0,10,28.0,172.0,29.0,14,73.0,167.0,33.0,16,17.0,306.0,31.0*41
$GPGGA,223751,0551.0567,S,03512.2936,W,1,12,2.0,57.3,M,,,,*20
$GPGLL,0551.0567,S,03512.2936,W,223751,A*2b
$GPRMC,223751,A,0551.0567,S,03512.2936,W,21.35052276633072,308.92,170116,,*2e
$GPGSA,A,3,8,10,14,16,18,21,22,26,27,29,31,32,,,,*08
$GPGSV,3,1,12,8,16.0,224.0,30.0,10,28.0,172.0,40.0,14,73.0,167.0,34.0,16,17.0,306.0,31.0*4b
$GPGLL,0551.0529,S,03512.2983,W,223752,A*2c
$GPGLL,0551.0449,S,03512.3075,W,223754,A*2c
$GPGSV,3,2,12,18,14.0,138.0,23.0,21,38.0,89.0,29.0,22,32.0,211.0,39.0,26,19.0,336.0,21.0*4e
$GPGSV,3,1,12,8,16.0,224.0,28.0,10,28.0,172.0,40.0,14,73.0,167.0,32.0,16,17.0,306.0,33.0*46
$GPGLL,0551.0408,S,03512.3122,W,223755,A*2b
$GPGSV,3,1,12,8,16.0,224.0,28.0,10,28.0,172.0,40.0,14,73.0,167.0,32.0,16,17.0,306.0,34.0*41
$GPGSV,3,2,12,18,14.0,138.0,31.0,21,38.0,89.0,29.0,22,32.0,211.0,40.0,26,19.0,336.0,21.0*43
$GPGSA,A,3,8,10,14,16,18,21,22,26,27,29,31,32,,,,*08
$GPGLL,0551.0329,S,03512.3217,W,223757,A*28
$GPRMC,223757,A,0551.0329,S,03512.3217,W,22.52415639797022,309.17,170116,,*21
$GPGSA,A,3,8,10,14,16,18,21,22,26,27,29,31,32,,,,*08
$GPGSV,3,1,12,8,17.0,224.0,30.0,10,28.0,172.0,42.0,14,73.0,167.0,29.0,16,17.0,306.0,34.0*41
$GPGLL,0551.0290,S,03512.3264,W,223758,A*20
$GPGSV,3,2,12,18,14.0,138.0,34.0,21,38.0,89.0,29.0,22,32.0,211.0,38.0,26,19.0,336.0,25.0*4d
$GPGSV,3,1,12,8,17.0,224.0,22.0,10,28.0,171.0,42.0,14,73.0,167.0,29.0,16,17.0,306.0,33.0*46
$GPGGA,223946,0551.1907,S,03512.3617,W,1,9,2.0,56.9,M,,,,*1f
$GPGLL,0551.1907,S,03512.3617,W,223946,A*25
$GPRMC,223946,A,0551.1907,S,03512.3617,W,19.48851774500064,180.09,170116,,*29
$GPGSA,A,3,8,10,14,16,18,21,22,,27,,31,32,,,,*07
$GPGSV,3,1,12,8,17.0,224.0,22.0,10,28.0,171.0,40.0,14,72.0,167.0,38.0,16,17.0,307.0,27.0*41
$GPGLL,0551.1960,S,03512.3617,W,223947,A*25
$GPGSV,3,2,12,18,14.0,137.0,27.0,21,38.0,88.0,38.0,22,32.0,210.0,38.0,26,19.0,336.0,25.0*40
$GPGSV,3,2,12,18,14.0,137.0,27.0,21,38.0,88.0,37.0,22,32.0,210.0,38.0,26,19.0,336.0,23.0*49
$GPGSV,3,3,12,27,45.0,238.0,42.0,29,4.0,29.0,12.0,31,31.0,13.0,37.0,32,13.0,262.0,19.0*4d
$GPGSA,A,3,8,10,14,16,18,21,22,26,27,,31,32,,,,*03
$GPGSV,3,1,12,8,17.0,224.0,27.0,10,28.0,171.0,40.0,14,72.0,167.0,39.0,16,17.0,307.0,20.0*42
$GPGSV,3,1,12,8,18.0,225.0,17.0,10,28.0,171.0,40.0,14,72.0,167.0,39.0,16,17.0,307.0,23.0*4c
$GPGLL,0551.2140,S,03512.3613,W,223951,A*2f
$GPGSV,3,1,12,8,18.0,225.0,17.0,10,28.0,171.0,40.0,14,72.0,167.0,39.0,16,17.0,307.0,19.0*45
$GPGLL,0551.2168,S,03512.3612,W,223952,A*27
$GPGSV,3,1,12,8,18.0,225.0,16.0,10,28.0,171.0,40.0,14,72.0,167.0,38.0,16,17.0,307.0,18.0*44
$GPGSV,3,1,12,8,18.0,225.0,16.0,10,28.0,171.0,40.0,14,72.0,167.0,37.0,16,17.0,307.0,17.0*44
$GPGLL,0551.2236,S,03512.3610,W,223954,A*2b
$GPGSV,3,1,12,8,18.0,225.0,17.0,10,28.0,171.0,39.0,14,72.0,167.0,37.0,16,17.0,307.0,18.0*44
$GPGLL,0551.2276,S,03512.3607,W,223955,A*28
$GPGSV,3,2,12,18,14.0,137.0,21.0,21,38.0,88.0,38.0,22,32.0,210.0,42.0,26,19.0,336.0,22.0*4c
$GPGLL,0551.2362,S,03512.3603,W,223957,A*2a
$GPRMC,223957,A,0551.2362,S,03512.3603,W,15.60041907640173,177.73,170116,,*26
$GPGSA,A,3,,10,14,16,18,21,22,26,27,,31,32,,,,*3b
$GPGSV,3,1,12,8,18.0,225.0,22.0,10,28.0,171.0,39.0,14,71.0,168.0,29.0,16,17.0,307.0,21.0*4b
$GPGSV,3,1,12,8,18.0,225.0,30.0,10,28.0,171.0,39.0,14,71.0,168.0,30.0,16,17.0,308.0,20.0*4e
$GPGLL,0551.2455,S,03512.3598,W,223959,A*26
$GPGSV,3,1,12,8,18.0,225.0,31.0,10,28.0,171.0,40.0,14,71.0,168.0,31.0,16,17.0,308.0,19.0*4a
$GPGLL,0551.2877,S,03512.3528,W,224008,A*2b
$GPGSV,3,2,12,18,14.0,136.0,25.0,21,38.0,87.0,32.0,22,32.0,209.0,44.0,26,19.0,337.0,25.0*44
$GPGSV,3,1,12,8,18.0,225.0,42.0,10,28.0,171.0,38.0,14,71.0,168.0,28.0,16,17.0,308.0,32.0*40
$GPGLL,0551.2976,S,03512.3501,W,224010,A*29
$GPRMC,224010,A,0551.2976,S,03512.3501,W,18.582028886768533,167.18,170116,,*11
$GPGSA,A,3,8,10,14,16,18,21,22,26,27,,31,32,,,,*03
$GPGSV,3,1,12,8,18.0,225.0,42.0,10,28.0,171.0,39.0,14,71.0,168.0,28.0,16,17.0,308.0,30.0*43
$GPGSV,3,2,12,18,14.0,136.0,24.0,21,38.0,87.0,35.0,22,32.0,209.0,44.0,26,19.0,337.0,36.0*40
$GPGSV,3,3,12,27,46.0,240.0,35.0,29,4.0,29.0,14.0,31,31.0,13.0,32.0,32,13.0,262.0,32.0*4b
$GPGSV,3,1,12,8,18.0,225.0,40.0,10,28.0,171.0,40.0,14,71.0,168.0,28.0,16,17.0,308.0,29.0*47
$GPGSV,3,2,12,18,14.0,136.0,22.0,21,38.0,87.0,36.0,22,32.0,209.0,43.0,26,19.0,337.0,35.0*41
$GPGSV,3,3,12,27,46.0,240.0,37.0,29,3.0,29.0,10.0,31,31.0,13.0,34.0,32,13.0,262.0,34.0*4a
$GPGGA,224012,0551.3082,S,03512.3483,W,1,11,2.1,53.9,M,,,,*24
$GPGSV,3,1,12,8,18.0,225.0,40.0,10,28.0,171.0,40.0,14,71.0,168.0,35.0,16,17.0,308.0,27.0*45
$GPGSV,3,2,12,18,14.0,136.0,21.0,21,38.0,87.0,36.0,22,32.0,209.0,36.0,26,19.0,337.0,34.0*41
$GPGSV,3,3,12,27,46.0,240.0,39.0,29,3.0,29.0,12.0,31,31.0,13.0,35.0,32,13.0,262.0,34.0*47
$GPGGA,224013,0551.3139,S,03512.3479,W,1,10,2.1,53.5,M,,,,*2c
$GPGLL,0551.3139,S,03512.3479,W,224013,A*26
$GPRMC,224013,A,0551.3139,S,03512.3479,W,20.95530859538643,177.82,170116,,*29
$GPGSA,A,3,8,10,14,16,18,21,22,26,27,,31,32,,,,*03
$GPGSV,3,1,12,8,18.0,225.0,39.0,10,28.0,171.0,40.0,14,71.0,168.0,36.0,16,17.0,308.0,27.0*48
$GPGGA,224014,0551.3197,S,03512.3478,W,1,11,2.0,53.6,M,,,,*2d
$GPGLL,0551.3197,S,03512.3478,W,224014,A*24
$GPRMC,224014,A,0551.3197,S,03512.3478,W,20.894276116916323,179.59,170116,,*1e
$GPGSA,A,3,8,10,14,16,18,21,22,26,27,,31,32,,,,*03
$GPGSV,3,1,12,8,18.0,225.0,31.0,10,28.0,171.0,41.0,14,71.0,168.0,36.0,16,17.0,308.0,26.0*40
$GPGSV,3,1,12,8,18.0,225.0,33.0,10,28.0,171.0,41.0,14,71.0,168.0,36.0,16,17.0,308.0,26.0*42
$GPGLL,0551.3311,S,03512.3479,W,224016,A*2b
