$GPGSV,3,2,12,7,28.0,77.0,36.0,9,10.0,27.0,31.0,13,46.0,233.0,37.0,15,8.0,225.0,24.0*45
$GPGSV,3,3,12,17,64.0,170.0,34.0,19,73.0,175.0,40.0,28,23.0,164.0,27.0,30,45.0,112.0,30.0*7a
$GPGSA,A,3,,2,5,6,7,9,13,,17,19,28,30,,,,*0a
$GPGSV,3,1,12,1,2.0,127.0,0.0,2,14.0,341.0,26.0,5,14.0,307.0,15.0,6,38.0,20.0,29.0*4e
$GPGLL,0549.2220,S,03512.4762,W,100504,A*2d
$GPGSV,3,2,12,7,28.0,77.0,36.0,9,10.0,27.0,32.0,13,46.0,233.0,37.0,15,8.0,225.0,23.0*41
$GPGSV,3,1,12,1,2.0,127.0,0.0,2,14.0,341.0,18.0,5,14.0,307.0,13.0,6,38.0,20.0,29.0*45
$GPGLL,0549.2288,S,03512.4784,W,100506,A*25
$GPGSV,3,2,12,7,28.0,77.0,36.0,9,10.0,27.0,31.0,13,46.0,233.0,35.0,15,8.0,225.0,23.0*40
$GPGSV,3,3,12,17,64.0,170.0,35.0,19,73.0,175.0,41.0,28,23.0,164.0,26.0,30,45.0,112.0,20.0*7a
$GPGSA,A,3,,2,5,6,7,9,13,,17,19,28,30,,,,*0a
$GPGSV,3,1,12,1,2.0,127.0,0.0,2,14.0,341.0,30.0,5,14.0,307.0,14.0,6,38.0,20.0,28.0*49
$GPGLL,0549.2365,S,03512.4811,W,100508,A*2a
$GPRMC,100508,A,0549.2365,S,03512.4811,W,14.8310034959097,200.95,280116,,*1c
$GPGSV,3,2,12,7,30.0,83.0,32.0,9,14.0,27.0,24.0,13,42.0,227.0,29.0,15,4.0,223.0,0.0*71
$GPGSV,3,3,12,17,70.0,170.0,21.0,19,79.0,176.0,24.0,28,25.0,169.0,31.0,30,45.0,120.0,36.0*7b
$GPGSA,A,3,,2,5,6,7,9,13,,17,19,28,30,,,,*0a
$GPGSV,3,1,12,1,4.0,123.0,14.0,2,11.0,339.0,17.0,5,14.0,302.0,22.0,6,34.0,16.0,27.0*77
$GPGLL,0549.3012,S,03512.3131,W,095411,A*20
$GPGSV,3,2,12,7,30.0,83.0,33.0,9,14.0,27.0,23.0,13,42.0,227.0,29.0,15,4.0,223.0,0.0*77
$GPGSV,3,3,12,17,70.0,170.0,23.0,19,79.0,176.0,33.0,28,25.0,169.0,29.0,30,45.0,120.0,38.0*78
$GPGLL,0549.2960,S,03512.3114,W,095413,A*28
$GPGSV,3,2,12,7,30.0,83.0,32.0,9,14.0,27.0,25.0,13,42.0,227.0,30.0,15,4.0,223.0,0.0*78
$GPGSV,3,3,12,17,70.0,170.0,24.0,19,79.0,176.0,32.0,28,25.0,169.0,28.0,30,45.0,120.0,37.0*70
$GPGSA,A,3,,2,5,6,7,9,13,,17,19,28,30,,,,*0a
$GPGSV,3,1,12,1,4.0,123.0,0.0,2,11.0,339.0,16.0,5,14.0,302.0,20.0,6,34.0,16.0,21.0*47
$GPGLL,0549.2906,S,03512.3094,W,095415,A*27
$GPRMC,095415,A,0549.2906,S,03512.3094,W,11.603261673532057,18.75,280116,,*23
$GPGLL,0548.8184,S,03512.1399,W,095708,A*2d
$GPRMC,095708,A,0548.8184,S,03512.1399,W,5.611027850609854,206.89,280116,,*2e
$GPGSA,A,3,,2,5,6,7,9,13,,17,19,,30,,,,*00
$GPGSV,3,1,12,1,3.0,124.0,0.0,2,12.0,340.0,18.0,5,14.0,304.0,22.0,6,35.0,17.0,24.0*45
$GPGSV,3,1,12,1,3.0,124.0,0.0,2,12.0,340.0,18.0,5,14.0,304.0,22.0,6,35.0,17.0,24.0*45
$GPGLL,0548.8200,S,03512.1425,W,095710,A*2b
$GPRMC,095710,A,0548.8200,S,03512.1425,W,5.000698894871021,247.16,280116,,*2c
$GPGLL,0548.8198,S,03512.1446,W,095711,A*2d
$GPRMC,095711,A,0548.8198,S,03512.1446,W,7.176872969446659,270.74,280116,,*20
$GPGSA,A,3,,2,5,6,7,9,13,,17,19,28,30,,,,*0a
$GPGSV,3,1,12,1,3.0,124.0,0.0,2,12.0,340.0,20.0,5,14.0,304.0,21.0,6,35.0,17.0,34.0*4c
$GPGSV,3,2,12,7,29.0,81.0,22.0,9,13.0,27.0,20.0,13,43.0,229.0,20.0,15,5.0,223.0,0.0*7e
$GPGSV,3,3,12,17,68.0,170.0,26.0,19,77.0,176.0,37.0,28,24.0,168.0,32.0,30,45.0,119.0,22.0*75
$GPGSA,A,3,,2,5,6,7,9,13,,17,19,28,30,,,,*0a
$GPGLL,0548.8012,S,03512.1329,W,095647,A*22
$GPGSV,3,1,12,1,3.0,124.0,0.0,2,12.0,339.0,21.0,5,14.0,303.0,20.0,6,35.0,17.0,28.0*48
$GPGSV,3,2,12,7,30.0,82.0,24.0,9,13.0,27.0,24.0,13,43.0,228.0,30.0,15,5.0,223.0,0.0*77
$GPGSV,3,3,12,17,69.0,170.0,28.0,19,78.0,176.0,26.0,28,24.0,168.0,12.0,30,45.0,119.0,35.0*71
$GPGSA,A,3,,2,5,6,7,9,13,,17,19,28,30,,,,*0a
$GPGSV,3,1,12,1,3.0,124.0,0.0,2,12.0,339.0,23.0,5,14.0,303.0,20.0,6,35.0,17.0,29.0*4b
$GPGLL,0548.8012,S,03512.1329,W,095649,A*2c
$GPGLL,0548.8012,S,03512.1329,W,095651,A*25
$GPGSV,3,2,12,7,30.0,82.0,26.0,9,13.0,27.0,24.0,13,43.0,228.0,28.0,15,5.0,223.0,0.0*7c
$GPGSV,3,3,12,17,69.0,170.0,28.0,19,78.0,176.0,27.0,28,24.0,168.0,15.0,30,45.0,119.0,35.0*77
$GPGSA,A,3,,2,5,6,7,9,13,,17,19,28,30,,,,*0a
$GPGSV,3,1,12,1,3.0,124.0,0.0,2,12.0,339.0,24.0,5,14.0,303.0,27.0,6,35.0,17.0,29.0*4b
$GPGSV,3,3,12,17,69.0,170.0,27.0,19,78.0,176.0,28.0,28,24.0,168.0,13.0,30,45.0,119.0,35.0*71
$GPGGA,095652,0548.8012,S,03512.1329,W,1,10,2.9,52.1,M,,,,*21
$GPGSV,3,1,12,1,3.0,124.0,0.0,2,12.0,340.0,22.0,5,14.0,303.0,27.0,6,35.0,17.0,28.0*42
$GPGLL,0548.8012,S,03512.1329,W,095654,A*20
$GPRMC,095654,A,0548.8012,S,03512.1329,W,0.0,197.21,280116,,*27
$GPGGA,095655,0548.8012,S,03512.1329,W,1,10,2.9,52.1,M,,,,*26
$GPGLL,0548.8012,S,03512.1329,W,095655,A*21
$GPGSV,3,2,12,7,30.0,82.0,27.0,9,13.0,27.0,22.0,13,43.0,228.0,26.0,15,5.0,223.0,0.0*75
$GPGSV,3,3,12,17,69.0,170.0,34.0,19,78.0,176.0,27.0,28,24.0,168.0,19.0,30,45.0,119.0,32.0*71
$GPGSV,3,1,12,1,3.0,124.0,0.0,2,12.0,340.0,22.0,5,14.0,304.0,23.0,6,35.0,17.0,25.0*4c
$GPGLL,0548.8012,S,03512.1329,W,095657,A*23
$GPGSV,3,1,12,1,3.0,124.0,0.0,2,12.0,340.0,22.0,5,14.0,304.0,23.0,6,35.0,17.0,24.0*4d
$GPGLL,0548.8012,S,03512.1329,W,095658,A*2c
$GPGSV,3,2,12,7,29.0,81.0,25.0,9,13.0,27.0,31.0,13,43.0,228.0,29.0,15,5.0,223.0,0.0*71
$GPGSV,3,3,12,17,69.0,170.0,32.0,19,78.0,176.0,31.0,28,24.0,168.0,17.0,30,45.0,119.0,35.0*79
$GPGSA,A,3,,2,5,6,7,9,13,,17,19,28,30,,,,*0a
$GPGLL,0548.8030,S,03512.1340,W,095700,A*2f
$GPGSV,3,2,12,7,29.0,81.0,25.0,9,13.0,27.0,31.0,13,43.0,228.0,22.0,15,5.0,223.0,0.0*7a
$GPGSV,3,1,12,1,3.0,124.0,0.0,2,12.0,340.0,21.0,5,14.0,304.0,22.0,6,35.0,17.0,25.0*4e
$GPGLL,0548.8062,S,03512.1349,W,095702,A*23
$GPGSV,3,2,12,7,29.0,81.0,28.0,9,13.0,27.0,31.0,13,43.0,228.0,21.0,15,5.0,223.0,0.0*74
$GPGSV,3,3,12,17,69.0,170.0,23.0,19,78.0,176.0,24.0,28,24.0,168.0,27.0,30,45.0,119.0,22.0*78
$GPGSA,A,3,,2,5,6,7,9,13,,17,19,28,30,,,,*0a
$GPGSV,3,3,12,17,69.0,170.0,33.0,19,78.0,176.0,24.0,28,24.0,168.0,25.0,30,45.0,119.0,23.0*7a
$GPGLL,0548.8112,S,03512.1363,W,095704,A*2b
$GPRMC,095704,A,0548.8112,S,03512.1363,W,7.955293357039151,199.04,280116,,*2d
$GPGSA,A,3,,2,5,6,7,9,13,,17,19,28,30,,,,*0a
$GPGSV,3,2,12,7,29.0,81.0,25.0,9,13.0,27.0,30.0,13,43.0,229.0,22.0,15,5.0,223.0,0.0*7a
$GPGSV,3,3,12,17,69.0,170.0,34.0,19,78.0,176.0,24.0,28,24.0,168.0,18.0,30,45.0,119.0,24.0*74
$GPGSA,A,3,,2,5,6,7,9,13,,17,19,28,30,,,,*0a
$GPGLL,0549.9701,S,03512.1573,W,094949,A*2e
$GPRMC,094949,A,0549.9701,S,03512.1573,W,16.708016838039647,308.23,280116,,*1c
$GPGSA,A,3,,2,5,6,7,9,13,,17,19,28,30,,,,*0a
$GPGSV,3,1,12,1,4.0,122.0,28.0,2,10.0,338.0,21.0,5,15.0,301.0,32.0,6,33.0,14.0,30.0*7c
$GPGLL,0549.9677,S,03512.1604,W,094950,A*25
$GPGSV,3,2,12,7,30.0,85.0,23.0,9,16.0,27.0,24.0,13,41.0,226.0,33.0,15,3.0,222.0,0.0*7a
$GPGSV,3,3,12,17,72.0,170.0,35.0,19,81.0,177.0,29.0,28,26.0,171.0,34.0,30,44.0,122.0,31.0*7c
$GPGLL,0549.9632,S,03512.1665,W,094952,A*21
$GPGSV,3,2,12,7,30.0,85.0,26.0,9,16.0,27.0,27.0,13,41.0,226.0,37.0,15,3.0,222.0,0.0*78
$GPGSV,3,3,12,17,72.0,170.0,37.0,19,81.0,177.0,32.0,28,26.0,171.0,34.0,30,44.0,122.0,32.0*77
$GPGSA,A,3,,2,5,6,7,9,13,,17,19,28,30,,,,*0a
$GPGSV,3,1,12,1,4.0,122.0,26.0,2,10.0,338.0,19.0,5,15.0,301.0,32.0,6,33.0,14.0,32.0*7b
$GPGLL,0549.9575,S,03512.1740,W,094954,A*21
$GPGSV,3,2,12,7,30.0,85.0,29.0,9,16.0,27.0,26.0,13,41.0,226.0,38.0,15,3.0,222.0,0.0*79
$GPGSV,3,2,12,7,29.0,81.0,31.0,9,13.0,27.0,0.0,13,43.0,229.0,31.0,15,5.0,223.0,20.0*7c
$GPGSV,3,3,12,17,68.0,170.0,30.0,19,77.0,176.0,35.0,28,24.0,167.0,16.0,30,45.0,117.0,34.0*70
$GPGSA,A,3,,2,5,6,7,,13,,17,19,28,30,,,,*33
$GPGSV,3,1,12,1,3.0,124.0,0.0,2,12.0,340.0,15.0,5,14.0,304.0,23.0,6,35.0,17.0,30.0*4c
$GPGLL,0548.7740,S,03512.2775,W,095838,A*25
$GPGSV,3,2,12,7,29.0,81.0,31.0,9,13.0,27.0,0.0,13,43.0,229.0,31.0,15,5.0,223.0,21.0*7d
$GPGSV,3,3,12,17,68.0,170.0,30.0,19,77.0,176.0,35.0,28,24.0,167.0,14.0,30,45.0,117.0,33.0*75
$GPGGA,095840,0548.7740,S,03512.2775,W,1,9,2.5,47.9,M,,,,*15
$GPGLL,0548.7740,S,03512.2775,W,095840,A*2a
$GPGSV,3,2,12,7,29.0,81.0,31.0,9,13.0,27.0,0.0,13,43.0,229.0,32.0,15,5.0,223.0,20.0*7f
$GPGSV,3,3,12,17,68.0,170.0,31.0,19,77.0,176.0,36.0,28,24.0,167.0,17.0,30,45.0,117.0,32.0*75
$GPGSA,A,3,,2,5,6,7,,13,,17,19,28,30,,,,*33
$GPGSV,3,1,12,1,3.0,124.0,0.0,2,12.0,340.0,15.0,5,14.0,304.0,24.0,6,35.0,17.0,30.0*4b
$GPGSV,3,3,12,17,68.0,170.0,31.0,19,77.0,176.0,36.0,28,24.0,167.0,17.0,30,45.0,117.0,33.0*74
$GPRMC,095804,A,0548.7740,S,03512.2775,W,0.0,290.55,280116,,*2a
$GPGSA,A,3,,2,5,6,7,,13,,17,19,28,30,,,,*33
$GPGSV,3,1,12,1,3.0,124.0,0.0,2,12.0,340.0,13.0,5,14.0,304.0,21.0,6,35.0,17.0,29.0*40
$GPGSV,3,1,12,1,3.0,124.0,0.0,2,12.0,340.0,13.0,5,14.0,304.0,21.0,6,35.0,17.0,30.0*48
$GPGLL,0548.7740,S,03512.2775,W,095806,A*28
$GPRMC,095806,A,0548.7740,S,03512.2775,W,0.0,290.55,280116,,*28
$GPGSA,A,3,,,5,6,7,,13,,17,19,28,30,,,,*01
$GPGLL,0548.7740,S,03512.2775,W,095807,A*29
$GPRMC,095807,A,0548.7740,S,03512.2775,W,0.0,290.55,280116,,*29
$GPGSA,A,3,,,5,6,7,,13,,17,19,28,30,,,,*01
$GPGSV,3,1,12,1,3.0,124.0,0.0,2,12.0,340.0,0.0,5,14.0,304.0,19.0,6,35.0,17.0,31.0*70
$GPGSV,3,1,12,1,3.0,124.0,0.0,2,12.0,340.0,12.0,5,14.0,304.0,17.0,6,35.0,17.0,30.0*4c
$GPGLL,0548.7740,S,03512.2775,W,095809,A*27
$GPGSV,3,1,12,1,3.0,124.0,0.0,2,12.0,340.0,11.0,5,14.0,304.0,16.0,6,35.0,17.0,29.0*46
$GPGSV,3,1,12,1,3.0,125.0,0.0,2,13.0,340.0,27.0,5,14.0,305.0,29.0,6,36.0,18.0,0.0*79
$GPGLL,0548.6956,S,03512.4662,W,100039,A*28
$GPRMC,100039,A,0548.6956,S,03512.4662,W,10.31856813638866,292.22,280116,,*2d
$GPGGA,100040,0548.6921,S,03512.4681,W,1,8,3.7,51.8,M,,,,*10
$GPGLL,0548.6921,S,03512.4681,W,100040,A*2b
$GPGSV,3,2,12,7,29.0,80.0,14.0,9,12.0,27.0,13.0,13,44.0,230.0,27.0,15,6.0,224.0,0.0*77
$GPGSV,3,2,12,7,29.0,80.0,15.0,9,12.0,27.0,12.0,13,44.0,230.0,28.0,15,6.0,224.0,23.0*49
$GPGLL,0548.6887,S,03512.4731,W,100042,A*2e
$GPGSV,3,2,12,7,29.0,80.0,18.0,9,12.0,27.0,20.0,13,44.0,230.0,35.0,15,6.0,224.0,17.0*4e
$GPGSV,3,3,12,17,67.0,170.0,33.0,19,76.0,176.0,36.0,28,24.0,167.0,27.0,30,45.0,116.0,32.0*7b
$GPGSA,A,3,,2,5,,7,9,13,,17,19,28,30,,,,*3c
$GPGSV,3,1,12,1,2.0,126.0,0.0,2,13.0,340.0,27.0,5,14.0,305.0,28.0,6,36.0,18.0,0.0*7a
$GPGLL,0548.6861,S,03512.4758,W,100044,A*2f
$GPGSV,3,2,12,7,29.0,80.0,15.0,9,12.0,27.0,21.0,13,44.0,230.0,28.0,15,6.0,224.0,0.0*78
$GPGSV,3,1,12,1,2.0,127.0,0.0,2,14.0,341.0,26.0,5,14.0,307.0,19.0,6,37.0,20.0,24.0*40
$GPGSV,3,2,12,7,29.0,78.0,41.0,9,10.0,27.0,30.0,13,45.0,232.0,35.0,15,7.0,225.0,14.0*46
$GPGSV,3,3,12,17,65.0,170.0,39.0,19,74.0,175.0,42.0,28,23.0,165.0,25.0,30,45.0,113.0,42.0*74
$GPGGA,100356,0549.0567,S,03512.4172,W,1,10,2.7,53.4,M,,,,*20
$GPGSV,3,1,12,1,2.0,127.0,0.0,2,14.0,341.0,18.0,5,14.0,307.0,17.0,6,37.0,20.0,24.0*43
$GPGLL,0549.0635,S,03512.4195,W,100357,A*21
$GPGSV,3,1,12,1,2.0,127.0,0.0,2,14.0,341.0,15.0,5,14.0,307.0,14.0,6,37.0,20.0,24.0*4d
$GPGSV,3,2,12,7,29.0,78.0,41.0,9,10.0,27.0,30.0,13,45.0,232.0,35.0,15,7.0,225.0,15.0*47
$GPRMC,100358,A,0549.0701,S,03512.4218,W,25.100545254329777,200.15,280116,,*1d
$GPGSA,A,3,,,5,6,7,9,13,,17,19,28,30,,,,*38
$GPGSV,3,1,12,1,2.0,127.0,0.0,2,14.0,341.0,13.0,5,14.0,307.0,21.0,6,37.0,20.0,24.0*4d
$GPGSV,3,1,12,1,2.0,127.0,0.0,2,14.0,341.0,12.0,5,14.0,307.0,17.0,6,37.0,20.0,23.0*4e
$GPGLL,0549.0838,S,03512.4265,W,100400,A*2b
$GPRMC,100400,A,0549.0838,S,03512.4265,W,25.58180515381243,200.68,280116,,*21
$GPGGA,095732,0548.7856,S,03512.2419,W,1,10,3.1,48.1,M,,,,*24
$GPGLL,0548.7856,S,03512.2419,W,095732,A*21
$GPRMC,095732,A,0548.7856,S,03512.2419,W,16.82307815911253,293.67,280116,,*2b
$GPGSA,A,3,,2,5,6,7,9,13,,17,19,28,30,,,,*0a
$GPGSV,3,1,12,1,3.0,124.0,0.0,2,12.0,340.0,17.0,5,14.0,304.0,18.0,6,35.0,17.0,28.0*4f
$GPGSV,3,1,12,1,3.0,124.0,0.0,2,12.0,340.0,0.0,5,14.0,304.0,17.0,6,35.0,17.0,27.0*79
$GPGSV,3,2,12,7,29.0,81.0,20.0,9,13.0,27.0,18.0,13,43.0,229.0,25.0,15,5.0,223.0,0.0*72
$GPRMC,095735,A,0548.7807,S,03512.2564,W,17.233300650856687,290.71,280116,,*19
$GPGSV,3,2,12,7,29.0,81.0,19.0,9,13.0,27.0,18.0,13,43.0,229.0,34.0,15,5.0,223.0,27.0*4d
$GPGSV,3,1,12,1,3.0,124.0,0.0,2,12.0,340.0,0.0,5,14.0,304.0,17.0,6,35.0,17.0,24.0*7a
$GPGSV,3,2,12,7,29.0,81.0,19.0,9,13.0,27.0,18.0,13,43.0,229.0,33.0,15,5.0,223.0,22.0*4f
$GPGLL,0548.7775,S,03512.2652,W,095737,A*27
$GPGSV,3,2,12,7,29.0,81.0,30.0,9,13.0,27.0,18.0,13,43.0,229.0,26.0,15,5.0,223.0,21.0*43
$GPGSV,3,3,12,17,68.0,170.0,29.0,19,77.0,176.0,36.0,28,24.0,167.0,30.0,30,45.0,117.0,28.0*72
$GPGSV,3,2,12,7,31.0,87.0,33.0,9,17.0,27.0,24.0,13,39.0,224.0,27.0,15,2.0,221.0,0.0*73
$GPGSV,3,2,12,7,31.0,87.0,33.0,9,17.0,27.0,23.0,13,39.0,224.0,27.0,15,2.0,221.0,0.0*74
$GPGSV,3,3,12,17,74.0,170.0,35.0,19,83.0,177.0,34.0,28,26.0,172.0,30.0,30,44.0,125.0,30.0*75
$GPGGA,094634,0550.5452,S,03512.1934,W,1,11,2.5,46.6,M,,,,*2d
$GPGLL,0550.5452,S,03512.1934,W,094634,A*25
$GPGSV,3,1,12,1,5.0,120.0,14.0,2,9.0,337.0,20.0,5,15.0,299.0,27.0,6,31.0,13.0,32.0*45
$GPGSV,3,2,12,7,31.0,87.0,33.0,9,17.0,27.0,23.0,13,39.0,224.0,25.0,15,2.0,221.0,0.0*76
$GPGSV,3,1,12,1,5.0,120.0,14.0,2,9.0,337.0,22.0,5,15.0,299.0,20.0,6,31.0,13.0,31.0*43
$GPGSV,3,2,12,7,31.0,87.0,31.0,9,17.0,27.0,24.0,13,39.0,224.0,24.0,15,2.0,221.0,0.0*72
$GPGSV,3,3,12,17,74.0,170.0,34.0,19,83.0,177.0,32.0,28,26.0,172.0,21.0,30,44.0,125.0,28.0*7b
$GPGGA,094636,0550.5557,S,03512.1878,W,1,11,2.6,46.4,M,,,,*23
$GPGLL,0550.5611,S,03512.1850,W,094637,A*20
$GPGSV,3,2,12,7,31.0,87.0,30.0,9,17.0,27.0,24.0,13,39.0,224.0,25.0,15,2.0,221.0,0.0*72
$GPGSV,3,3,12,17,74.0,170.0,35.0,19,83.0,177.0,32.0,28,26.0,172.0,22.0,30,44.0,125.0,29.0*78
$GPGSV,3,2,12,7,29.0,80.0,16.0,9,12.0,27.0,15.0,13,44.0,230.0,30.0,15,6.0,224.0,0.0*75
$GPGSV,3,1,12,1,3.0,125.0,0.0,2,13.0,340.0,18.0,5,14.0,305.0,30.0,6,36.0,18.0,0.0*7d
$GPGLL,0548.7065,S,03512.4582,W,100020,A*25
$GPGSV,3,2,12,7,29.0,80.0,16.0,9,12.0,27.0,17.0,13,44.0,230.0,31.0,15,6.0,224.0,0.0*76
$GPGSV,3,1,12,1,3.0,125.0,0.0,2,13.0,340.0,18.0,5,14.0,305.0,29.0,6,36.0,18.0,0.0*75
$GPGLL,0548.7063,S,03512.4580,W,100022,A*23
$GPGSV,3,2,12,7,29.0,80.0,16.0,9,12.0,27.0,14.0,13,44.0,230.0,31.0,15,6.0,224.0,0.0*75
$GPGSV,3,3,12,17,67.0,170.0,30.0,19,76.0,176.0,35.0,28,24.0,167.0,35.0,30,45.0,116.0,21.0*7a
$GPGGA,100024,0548.7063,S,03512.4580,W,1,9,3.1,50.6,M,,,,*16
$GPGLL,0548.7063,S,03512.4580,W,100024,A*25
$GPGSV,3,2,12,7,29.0,80.0,16.0,9,12.0,27.0,12.0,13,44.0,230.0,31.0,15,6.0,224.0,0.0*73
$GPGSV,3,3,12,17,67.0,170.0,30.0,19,76.0,176.0,36.0,28,24.0,167.0,35.0,30,45.0,116.0,20.0*78
$GPGSA,A,3,,2,5,,7,9,13,,17,19,28,30,,,,*3c
$GPGSV,3,1,12,1,3.0,125.0,0.0,2,13.0,340.0,17.0,5,14.0,305.0,29.0,6,36.0,18.0,0.0*7a
$GPGLL,0548.7063,S,03512.4580,W,100026,A*27
$GPGSV,3,2,12,7,29.0,80.0,16.0,9,12.0,27.0,13.0,13,44.0,230.0,31.0,15,6.0,224.0,0.0*72
$GPGSV,3,1,12,1,3.0,125.0,0.0,2,13.0,340.0,17.0,5,14.0,305.0,30.0,6,36.0,18.0,0.0*72
$GPGLL,0548.7063,S,03512.4580,W,100028,A*29
$GPRMC,100028,A,0548.7063,S,03512.4580,W,0.0,249.98,280116,,*2c
$GPGSA,A,3,,2,5,,7,9,13,,17,19,28,30,,,,*3c
$GPGSV,3,1,12,1,3.0,125.0,0.0,2,13.0,340.0,16.0,5,14.0,305.0,30.0,6,36.0,18.0,0.0*73
$GPGSV,3,1,12,1,3.0,125.0,0.0,2,13.0,340.0,15.0,5,14.0,305.0,29.0,6,36.0,18.0,0.0*78
$GPGLL,0548.7063,S,03512.4580,W,100030,A*20
$GPRMC,100030,A,0548.7063,S,03512.4580,W,0.0,249.98,280116,,*25
$GPGSA,A,3,,,5,,7,9,13,,17,19,28,30,,,,*0e
$GPGSV,3,1,12,1,3.0,125.0,0.0,2,13.0,340.0,14.0,5,14.0,305.0,28.0,6,36.0,18.0,0.0*78
$GPGLL,0548.7063,S,03512.4580,W,100031,A*21
$GPRMC,100031,A,0548.7063,S,03512.4580,W,0.0,249.98,280116,,*24
$GPGSV,3,2,12,7,30.0,84.0,38.0,9,15.0,27.0,20.0,13,41.0,226.0,25.0,15,4.0,222.0,0.0*76
$GPGSV,3,3,12,17,71.0,170.0,35.0,19,80.0,177.0,23.0,28,25.0,170.0,32.0,30,44.0,121.0,29.0*7a
$GPGSA,A,3,,2,5,6,7,9,13,,17,19,28,30,,,,*0a
$GPGSV,3,1,12,1,4.0,122.0,0.0,2,10.0,338.0,17.0,5,14.0,302.0,29.0,6,33.0,15.0,36.0*4c
$GPGLL,0549.5918,S,03512.5120,W,095220,A*27
$GPGSV,3,2,12,7,30.0,84.0,38.0,9,15.0,27.0,18.0,13,41.0,226.0,26.0,15,4.0,222.0,0.0*7e
$GPGSV,3,3,12,17,71.0,170.0,28.0,19,80.0,177.0,25.0,28,25.0,170.0,23.0,30,44.0,121.0,25.0*7c
$GPGSV,3,2,12,7,30.0,84.0,38.0,9,15.0,27.0,27.0,13,41.0,226.0,25.0,15,4.0,222.0,0.0*71
$GPGSV,3,3,12,17,71.0,170.0,31.0,19,80.0,177.0,25.0,28,25.0,170.0,21.0,30,44.0,121.0,28.0*7b
$GPGSA,A,3,,2,5,6,7,9,13,,17,19,28,30,,,,*0a
$GPGSV,3,1,12,1,4.0,122.0,15.0,2,10.0,338.0,16.0,5,14.0,302.0,31.0,6,33.0,15.0,38.0*7e
$GPGLL,0549.5983,S,03512.4948,W,095224,A*26
$GPGSV,3,2,12,7,30.0,84.0,38.0,9,15.0,27.0,18.0,13,41.0,226.0,29.0,15,4.0,222.0,0.0*71
$GPGSA,A,3,,2,5,6,7,9,13,,17,19,28,30,,,,*0a
$GPGLL,0548.8705,S,03512.1551,W,095538,A*21
$GPGSV,3,2,12,7,30.0,82.0,34.0,9,13.0,27.0,17.0,13,43.0,228.0,31.0,15,5.0,223.0,0.0*77
$GPGSV,3,3,12,17,69.0,170.0,22.0,19,78.0,176.0,27.0,28,24.0,168.0,13.0,30,45.0,119.0,23.0*7c
$GPGSA,A,3,,2,5,6,7,9,13,,17,19,28,30,,,,*0a
$GPGSV,3,1,12,1,3.0,124.0,0.0,2,12.0,339.0,17.0,5,14.0,303.0,22.0,6,35.0,17.0,20.0*47
$GPGLL,0548.8615,S,03512.1513,W,095540,A*28
$GPGSV,3,1,12,1,3.0,124.0,0.0,2,12.0,339.0,23.0,5,14.0,303.0,21.0,6,35.0,17.0,21.0*42
$GPGLL,0548.8510,S,03512.1480,W,095542,A*27
$GPGSV,3,2,12,7,30.0,82.0,24.0,9,13.0,27.0,24.0,13,43.0,228.0,34.0,15,5.0,223.0,0.0*73
$GPGSV,3,3,12,17,69.0,170.0,38.0,19,78.0,176.0,28.0,28,24.0,168.0,22.0,30,45.0,119.0,31.0*79
$GPGGA,095544,0548.8411,S,03512.1448,W,1,10,2.9,50.2,M,,,,*23
$GPGLL,0548.8411,S,03512.1448,W,095544,A*25
$GPGSA,A,3,,2,5,6,7,9,13,,17,19,28,30,,,,*0a
$GPGSV,3,1,12,1,3.0,124.0,0.0,2,12.0,339.0,23.0,5,14.0,303.0,30.0,6,35.0,17.0,27.0*44
$GPGLL,0550.6298,S,03511.9568,W,094724,A*28
$GPGSA,A,3,1,2,5,6,7,9,13,,17,19,28,30,,,,*3b
$GPGSV,3,1,12,1,5.0,121.0,17.0,2,9.0,337.0,12.0,5,15.0,299.0,27.0,6,31.0,13.0,38.0*4c
$GPGSV,3,2,12,7,31.0,87.0,31.0,9,17.0,27.0,17.0,13,39.0,224.0,27.0,15,2.0,221.0,0.0*71
$GPGSV,3,3,12,17,74.0,170.0,41.0,19,83.0,177.0,32.0,28,26.0,172.0,28.0,30,44.0,125.0,34.0*7d
$GPGSA,A,3,1,2,5,6,7,9,13,,17,19,28,30,,,,*3b
$GPGSV,3,1,12,1,5.0,121.0,17.0,2,9.0,337.0,11.0,5,15.0,299.0,26.0,6,31.0,13.0,38.0*4e
$GPGSV,3,2,12,7,31.0,87.0,31.0,9,17.0,27.0,21.0,13,39.0,224.0,26.0,15,2.0,221.0,0.0*75
$GPGLL,0550.6303,S,03511.9514,W,094725,A*21
$GPGSV,3,1,12,1,5.0,121.0,17.0,2,9.0,337.0,0.0,5,15.0,299.0,26.0,6,31.0,13.0,39.0*7f
$GPGLL,0550.6313,S,03511.9395,W,094727,A*2d
$GPRMC,094727,A,0550.6313,S,03511.9395,W,22.002874927619448,95.43,280116,,*2e
$GPGSA,A,3,1,,5,6,7,9,13,,17,19,28,30,,,,*09
$GPGSV,3,1,12,1,5.0,121.0,17.0,2,9.0,337.0,0.0,5,15.0,300.0,26.0,6,31.0,13.0,38.0*7f
$GPGSV,3,2,12,7,29.0,81.0,32.0,9,13.0,27.0,0.0,13,43.0,229.0,34.0,15,5.0,223.0,15.0*7c
$GPGSV,3,1,12,1,3.0,124.0,0.0,2,12.0,340.0,15.0,5,14.0,304.0,19.0,6,35.0,17.0,30.0*45
$GPGLL,0548.7740,S,03512.2775,W,095821,A*2d
$GPGSV,3,2,12,7,29.0,81.0,32.0,9,13.0,27.0,0.0,13,43.0,229.0,31.0,15,5.0,223.0,16.0*7a
$GPGSV,3,1,12,1,3.0,124.0,0.0,2,12.0,340.0,16.0,5,14.0,304.0,19.0,6,35.0,17.0,29.0*4e
$GPGLL,0548.7740,S,03512.2775,W,095823,A*2f
$GPRMC,095823,A,0548.7740,S,03512.2775,W,0.0,290.55,280116,,*2f
$GPGSV,3,1,12,1,3.0,124.0,0.0,2,12.0,340.0,14.0,5,14.0,304.0,19.0,6,35.0,17.0,29.0*4c
$GPGLL,0548.7740,S,03512.2775,W,095825,A*29
$GPRMC,095825,A,0548.7740,S,03512.2775,W,0.0,290.55,280116,,*29
$GPGSA,A,3,,2,5,6,7,,13,,17,19,28,30,,,,*33
$GPGSV,3,1,12,1,3.0,124.0,0.0,2,12.0,340.0,14.0,5,14.0,304.0,19.0,6,35.0,17.0,30.0*44
$GPGLL,0548.7740,S,03512.2775,W,095826,A*2a
$GPGSV,3,2,12,7,29.0,81.0,33.0,9,13.0,27.0,0.0,13,43.0,229.0,32.0,15,5.0,223.0,19.0*77
$GPGLL,0548.7097,S,03512.2944,W,100255,A*28
$GPGSV,3,1,12,1,2.0,127.0,0.0,2,14.0,341.0,14.0,5,14.0,307.0,15.0,6,37.0,20.0,21.0*48
$GPGSV,3,2,12,7,29.0,78.0,32.0,9,10.0,27.0,27.0,13,45.0,232.0,34.0,15,7.0,225.0,0.0*70
$GPGLL,0548.7102,S,03512.2948,W,100256,A*2a
$GPRMC,100256,A,0548.7102,S,03512.2948,W,2.1951847378417733,181.81,280116,,*1c
$GPGSA,A,3,,2,5,6,7,9,13,,17,19,28,30,,,,*0a
$GPGSV,3,1,12,1,2.0,127.0,0.0,2,14.0,341.0,14.0,5,14.0,307.0,16.0,6,37.0,20.0,22.0*48
$GPGGA,100258,0548.7123,S,03512.2968,W,1,10,3.8,48.1,M,,,,*29
$GPGLL,0548.7123,S,03512.2968,W,100258,A*25
$GPRMC,100258,A,0548.7123,S,03512.2968,W,4.690531257194448,227.23,280116,,*20
$GPGSA,A,3,,2,5,6,7,9,13,,17,19,28,30,,,,*0a
$GPGSV,3,1,12,1,2.0,127.0,0.0,2,14.0,341.0,15.0,5,14.0,307.0,17.0,6,37.0,20.0,23.0*49
$GPGLL,0548.7169,S,03512.2991,W,100300,A*21
$GPGSV,3,2,12,7,29.0,78.0,29.0,9,10.0,27.0,26.0,13,45.0,232.0,34.0,15,7.0,225.0,0.0*7b
$GPGSV,3,2,12,7,30.0,84.0,30.0,9,15.0,27.0,21.0,13,41.0,226.0,31.0,15,4.0,222.0,0.0*7a
$GPGSV,3,3,12,17,71.0,170.0,39.0,19,80.0,177.0,31.0,28,25.0,170.0,28.0,30,44.0,121.0,34.0*72
$GPGSA,A,3,,,5,6,7,9,13,,17,19,28,30,,,,*38
$GPGSV,3,1,12,1,4.0,123.0,19.0,2,11.0,339.0,19.0,5,14.0,302.0,30.0,6,33.0,15.0,27.0*73
$GPGLL,0549.6136,S,03512.4466,W,095307,A*22
$GPRMC,095307,A,0549.6136,S,03512.4466,W,8.892798979038917,83.26,280116,,*18
$GPGSA,A,3,,2,5,6,7,9,13,,17,19,28,30,,,,*0a
$GPGSV,3,1,12,1,4.0,123.0,21.0,2,11.0,339.0,18.0,5,14.0,302.0,27.0,6,33.0,15.0,35.0*7c
$GPGLL,0549.6104,S,03512.4418,W,095309,A*24
$GPRMC,095309,A,0549.6104,S,03512.4418,W,12.469729887793326,39.97,280116,,*22
$GPGSA,A,3,,2,5,6,7,9,13,,17,19,28,30,,,,*0a
$GPGSV,3,1,12,1,4.0,123.0,23.0,2,11.0,339.0,18.0,5,14.0,302.0,19.0,6,34.0,16.0,34.0*76
$GPGLL,0549.6074,S,03512.4397,W,095310,A*2a
$GPGSV,3,2,12,7,30.0,83.0,29.0,9,15.0,27.0,29.0,13,41.0,226.0,30.0,15,4.0,222.0,0.0*7c
$GPGLL,0549.6001,S,03512.4361,W,095312,A*23
$GPGSV,3,2,12,7,30.0,83.0,28.0,9,14.0,27.0,28.0,13,41.0,226.0,32.0,15,4.0,222.0,0.0*7f
$GPGSV,3,3,12,17,71.0,170.0,26.0,19,80.0,177.0,31.0,28,25.0,170.0,22.0,30,44.0,121.0,33.0*71
$GPGSA,A,3,,2,5,6,7,9,13,,17,19,28,30,,,,*0a
$GPGSV,3,1,12,1,4.0,123.0,14.0,2,11.0,339.0,18.0,5,14.0,302.0,30.0,6,34.0,16.0,27.0*7b
$GPGLL,0549.5909,S,03512.4322,W,095314,A*20
$GPRMC,095314,A,0549.5909,S,03512.4322,W,19.44449383166625,23.32,280116,,*12
$GPGLL,0549.5800,S,03512.4274,W,095316,A*28
$GPGSV,3,2,12,7,30.0,83.0,24.0,9,14.0,27.0,22.0,13,42.0,227.0,32.0,15,4.0,222.0,0.0*7b
$GPGSV,3,3,12,17,71.0,170.0,31.0,19,80.0,177.0,33.0,28,25.0,170.0,20.0,30,44.0,121.0,20.0*75
$GPGSA,A,3,,2,5,6,7,9,13,,17,19,28,30,,,,*0a
$GPGSV,3,1,12,1,4.0,123.0,14.0,2,11.0,339.0,21.0,5,14.0,302.0,27.0,6,34.0,16.0,27.0*77
$GPGLL,0549.5684,S,03512.4223,W,095318,A*26
$GPGSV,3,2,12,7,30.0,83.0,33.0,9,14.0,27.0,26.0,13,42.0,227.0,33.0,15,4.0,223.0,0.0*79
$GPGLL,0548.5615,S,03512.4011,W,100118,A*23
$GPGSV,3,1,12,1,2.0,126.0,14.0,2,13.0,340.0,24.0,5,14.0,306.0,33.0,6,36.0,19.0,37.0*70
$GPGSV,3,1,12,1,2.0,126.0,13.0,2,13.0,340.0,23.0,5,14.0,306.0,32.0,6,36.0,19.0,37.0*71
$GPGSV,3,2,12,7,29.0,79.0,23.0,9,11.0,27.0,18.0,13,45.0,231.0,37.0,15,7.0,224.0,16.0*4a
$GPGSV,3,3,12,17,66.0,170.0,37.0,19,75.0,176.0,34.0,28,24.0,166.0,29.0,30,45.0,115.0,19.0*7a
$GPGGA,100120,0548.5657,S,03512.3909,W,1,10,2.6,44.0,M,,,,*27
$GPGSV,3,1,12,1,2.0,126.0,13.0,2,13.0,340.0,21.0,5,14.0,306.0,31.0,6,36.0,19.0,37.0*70
$GPGLL,0548.5680,S,03512.3855,W,100121,A*2a
$GPGSV,3,1,12,1,2.0,126.0,13.0,2,13.0,340.0,20.0,5,14.0,306.0,30.0,6,36.0,19.0,36.0*71
$GPGLL,0548.5702,S,03512.3800,W,100122,A*22
$GPGSV,3,2,12,7,29.0,79.0,29.0,9,11.0,27.0,17.0,13,45.0,231.0,29.0,15,7.0,224.0,13.0*45
$GPGSV,3,3,12,17,66.0,170.0,29.0,19,75.0,176.0,33.0,28,24.0,166.0,27.0,30,45.0,115.0,21.0*77
$GPGSA,A,3,,2,5,6,7,9,13,,17,19,28,30,,,,*0a
$GPGSV,3,1,12,1,2.0,126.0,13.0,2,13.0,340.0,28.0,5,14.0,306.0,30.0,6,36.0,19.0,17.0*7a
$GPGLL,0549.5223,S,03512.4010,W,095326,A*20
$GPGSV,3,2,12,7,30.0,83.0,19.0,9,14.0,27.0,28.0,13,42.0,227.0,32.0,15,4.0,223.0,0.0*7e
$GPGSV,3,3,12,17,70.0,170.0,36.0,19,79.0,176.0,32.0,28,25.0,170.0,33.0,30,44.0,121.0,25.0*72
$GPGSA,A,3,,2,5,6,7,9,13,,17,19,28,30,,,,*0a
$GPGSV,3,1,12,1,4.0,123.0,14.0,2,11.0,339.0,17.0,5,14.0,302.0,24.0,6,34.0,16.0,29.0*7f
$GPGLL,0549.5113,S,03512.3959,W,095328,A*2d
$GPRMC,095328,A,0549.5113,S,03512.3959,W,21.623670126540233,25.12,280116,,*21
$GPGSV,3,1,12,1,4.0,123.0,12.0,2,11.0,339.0,15.0,5,14.0,302.0,23.0,6,34.0,16.0,27.0*72
$GPGLL,0549.5005,S,03512.3908,W,095330,A*26
$GPGSV,3,1,12,1,4.0,123.0,12.0,2,11.0,339.0,14.0,5,14.0,302.0,22.0,6,34.0,16.0,28.0*7d
$GPGLL,0549.4955,S,03512.3884,W,095331,A*2f
$GPGSV,3,2,12,7,30.0,83.0,32.0,9,14.0,27.0,28.0,13,42.0,227.0,30.0,15,4.0,223.0,0.0*75
$GPGSV,3,3,12,17,70.0,170.0,34.0,19,79.0,176.0,34.0,28,25.0,169.0,30.0,30,44.0,121.0,32.0*7b
$GPGSA,A,3,,2,5,6,7,9,13,,17,19,28,30,,,,*0a
$GPGSV,3,1,12,1,3.0,125.0,0.0,2,13.0,340.0,14.0,5,14.0,305.0,28.0,6,36.0,18.0,0.0*78
$GPGLL,0548.7011,S,03512.4572,W,100034,A*2c
$GPRMC,100034,A,0548.7011,S,03512.4572,W,2.1811770026584747,249.98,280116,,*1b
$GPGGA,100035,0548.7005,S,03512.4590,W,1,7,4.8,52.9,M,,,,*1a
$GPGLL,0548.7005,S,03512.4590,W,100035,A*24
$GPGSV,3,2,12,7,29.0,80.0,16.0,9,12.0,27.0,12.0,13,44.0,230.0,33.0,15,6.0,224.0,0.0*71
$GPGSV,3,2,12,7,29.0,80.0,15.0,9,12.0,27.0,14.0,13,44.0,230.0,24.0,15,6.0,224.0,0.0*72
$GPGSV,3,2,12,7,29.0,80.0,14.0,9,12.0,27.0,12.0,13,44.0,230.0,24.0,15,6.0,224.0,0.0*75
$GPGSV,3,3,12,17,67.0,170.0,32.0,19,76.0,176.0,38.0,28,24.0,167.0,35.0,30,45.0,116.0,27.0*73
$GPGGA,100037,0548.6980,S,03512.4618,W,1,9,4.2,53.0,M,,,,*12
$GPGLL,0548.6980,S,03512.4618,W,100037,A*20
$GPRMC,100037,A,0548.6980,S,03512.4618,W,7.532064642625547,292.36,280116,,*21
$GPGSA,A,3,,2,5,,7,9,13,,17,19,28,30,,,,*3c
$GPGSV,3,1,12,1,3.0,125.0,0.0,2,13.0,340.0,28.0,5,14.0,305.0,28.0,6,36.0,18.0,0.0*77
$GPGLL,0548.6150,S,03512.2668,W,100158,A*2c
$GPGSV,3,1,12,1,2.0,126.0,0.0,2,13.0,340.0,19.0,5,14.0,306.0,35.0,6,36.0,19.0,32.0*48
$GPGLL,0548.6150,S,03512.2668,W,100159,A*2d
$GPGSV,3,1,12,1,2.0,126.0,0.0,2,13.0,340.0,19.0,5,14.0,306.0,35.0,6,36.0,19.0,32.0*48
$GPGSV,3,1,12,1,2.0,126.0,0.0,2,13.0,340.0,19.0,5,14.0,306.0,35.0,6,36.0,19.0,32.0*48
$GPGLL,0548.6150,S,03512.2668,W,100201,A*23
$GPRMC,100201,A,0548.6150,S,03512.2668,W,0.0,126.62,280116,,*29
$GPGLL,0548.6150,S,03512.2668,W,100202,A*20
$GPGSV,3,2,12,7,29.0,79.0,25.0,9,11.0,27.0,15.0,13,45.0,231.0,36.0,15,7.0,224.0,0.0*77
$GPGSV,3,3,12,17,66.0,170.0,39.0,19,75.0,176.0,30.0,28,24.0,166.0,28.0,30,45.0,115.0,24.0*7f
$GPGSA,A,3,,2,5,6,7,9,13,,17,19,28,30,,,,*0a
$GPGSV,3,1,12,1,2.0,126.0,0.0,2,13.0,340.0,19.0,5,14.0,306.0,35.0,6,36.0,19.0,31.0*4b
$GPGLL,0548.6150,S,03512.2668,W,100204,A*26
$GPGSV,3,2,12,7,29.0,79.0,23.0,9,11.0,27.0,17.0,13,45.0,231.0,36.0,15,7.0,224.0,0.0*73
$GPGSV,3,2,12,7,29.0,80.0,16.0,9,12.0,27.0,0.0,13,44.0,230.0,26.0,15,6.0,224.0,13.0*74
$GPGSV,3,3,12,17,67.0,170.0,35.0,19,76.0,176.0,37.0,28,24.0,167.0,33.0,30,45.0,116.0,30.0*7b
$GPGSA,A,3,,2,5,6,7,,13,,17,19,28,30,,,,*33
$GPGSV,3,1,12,1,3.0,125.0,0.0,2,13.0,340.0,14.0,5,14.0,305.0,33.0,6,36.0,18.0,13.0*40
$GPGLL,0548.7077,S,03512.4639,W,100004,A*23
$GPGSV,3,1,12,1,3.0,125.0,0.0,2,13.0,340.0,15.0,5,14.0,305.0,32.0,6,36.0,18.0,0.0*72
$GPGSV,3,2,12,7,29.0,80.0,16.0,9,12.0,27.0,0.0,13,44.0,230.0,28.0,15,6.0,224.0,13.0*7a
$GPGLL,0548.7077,S,03512.4639,W,100006,A*21
$GPGSV,3,2,12,7,29.0,80.0,17.0,9,12.0,27.0,0.0,13,44.0,230.0,30.0,15,6.0,224.0,13.0*72
$GPGLL,0548.7077,S,03512.4639,W,100008,A*2f
$GPGSV,3,2,12,7,29.0,80.0,17.0,9,12.0,27.0,0.0,13,44.0,230.0,30.0,15,6.0,224.0,0.0*40
$GPGSV,3,3,12,17,67.0,170.0,31.0,19,76.0,176.0,37.0,28,24.0,167.0,30.0,30,45.0,116.0,23.0*7e
$GPGSA,A,3,,2,5,,7,,13,,17,19,28,30,,,,*05
$GPGSV,3,1,12,1,3.0,125.0,0.0,2,13.0,340.0,16.0,5,14.0,305.0,31.0,6,36.0,18.0,0.0*72
$GPGSV,3,2,12,7,30.0,82.0,25.0,9,13.0,27.0,27.0,13,43.0,228.0,29.0,15,5.0,223.0,0.0*7d
$GPGSV,3,3,12,17,69.0,170.0,31.0,19,78.0,176.0,30.0,28,24.0,168.0,23.0,30,45.0,119.0,32.0*7b
$GPGSA,A,3,,2,5,6,7,9,13,,17,19,28,30,,,,*0a
$GPGSV,3,1,12,1,3.0,124.0,0.0,2,12.0,339.0,19.0,5,14.0,303.0,20.0,6,35.0,17.0,28.0*43
$GPGLL,0548.8011,S,03512.1335,W,095624,A*29
$GPGSV,3,2,12,7,30.0,82.0,26.0,9,13.0,27.0,27.0,13,43.0,228.0,28.0,15,5.0,223.0,0.0*7f
$GPGSV,3,3,12,17,69.0,170.0,24.0,19,78.0,176.0,28.0,28,24.0,168.0,22.0,30,45.0,119.0,28.0*7c
$GPGLL,0548.8011,S,03512.1331,W,095626,A*2f
$GPGSV,3,2,12,7,30.0,82.0,28.0,9,13.0,27.0,28.0,13,43.0,228.0,21.0,15,5.0,223.0,0.0*77
$GPGSV,3,3,12,17,69.0,170.0,25.0,19,78.0,176.0,27.0,28,24.0,168.0,20.0,30,45.0,119.0,31.0*78
$GPGSA,A,3,,2,5,6,7,9,13,,17,19,28,30,,,,*0a
$GPGSV,3,1,12,1,3.0,124.0,0.0,2,12.0,339.0,22.0,5,14.0,303.0,20.0,6,35.0,17.0,21.0*42
$GPGLL,0548.8012,S,03512.1329,W,095628,A*2b
$GPGSV,3,1,12,1,3.0,124.0,0.0,2,12.0,339.0,22.0,5,14.0,303.0,20.0,6,35.0,17.0,21.0*42
$GPGSV,3,1,12,1,2.0,127.0,0.0,2,14.0,341.0,18.0,5,14.0,307.0,20.0,6,37.0,20.0,23.0*40
$GPGGA,100403,0549.1053,S,03512.4342,W,1,10,2.8,50.3,M,,,,*2e
$GPGSV,3,1,12,1,2.0,127.0,0.0,2,14.0,341.0,17.0,5,14.0,307.0,30.0,6,37.0,20.0,23.0*4e
$GPGLL,0549.1128,S,03512.4368,W,100404,A*2a
$GPGSV,3,1,12,1,2.0,127.0,0.0,2,14.0,341.0,22.0,5,14.0,307.0,29.0,6,37.0,20.0,23.0*40
$GPGLL,0549.1205,S,03512.4394,W,100405,A*24
$GPGSV,3,2,12,7,29.0,78.0,18.0,9,10.0,27.0,29.0,13,45.0,232.0,35.0,15,7.0,225.0,21.0*44
$GPGLL,0549.1345,S,03512.4457,W,100407,A*2b
$GPGSV,3,1,12,1,2.0,127.0,0.0,2,14.0,341.0,31.0,5,14.0,307.0,30.0,6,37.0,20.0,24.0*4d
$GPGSV,3,2,12,7,29.0,78.0,16.0,9,10.0,27.0,31.0,13,45.0,232.0,34.0,15,7.0,225.0,21.0*42
$GPGSV,3,3,12,17,65.0,170.0,37.0,19,74.0,175.0,42.0,28,23.0,165.0,25.0,30,45.0,113.0,23.0*7d
$GPGSA,A,3,,2,5,6,7,9,13,,17,19,28,30,,,,*0a
$GPGSV,3,1,12,1,2.0,127.0,0.0,2,14.0,341.0,31.0,5,14.0,307.0,20.0,6,37.0,20.0,23.0*4b
$GPGLL,0549.1484,S,03512.4512,W,100409,A*2f
$GPGLL,0549.1608,S,03512.4552,W,100411,A*24
$GPGSV,3,2,12,7,29.0,78.0,39.0,9,10.0,27.0,30.0,13,45.0,232.0,34.0,15,7.0,225.0,18.0*44
$GPGSV,3,3,12,17,65.0,170.0,35.0,19,74.0,175.0,43.0,28,23.0,165.0,24.0,30,45.0,113.0,31.0*7c
$GPGSA,A,3,,2,5,6,7,9,13,,17,19,28,30,,,,*0a
$GPGSV,3,1,12,1,2.0,127.0,0.0,2,14.0,341.0,17.0,5,14.0,307.0,24.0,6,37.0,20.0,21.0*49
$GPGLL,0549.1667,S,03512.4569,W,100412,A*26
$GPRMC,100412,A,0549.1667,S,03512.4569,W,21.668693235145263,198.3,280116,,*2a
$GPGLL,0549.1774,S,03512.4609,W,100414,A*26
$GPGSV,3,2,12,7,29.0,78.0,37.0,9,10.0,27.0,31.0,13,45.0,232.0,33.0,15,7.0,225.0,19.0*4d
$GPGSV,3,3,12,17,65.0,170.0,36.0,19,74.0,175.0,43.0,28,23.0,165.0,21.0,30,45.0,113.0,31.0*7a
$GPGSA,A,3,,2,5,6,7,9,13,,17,19,28,30,,,,*0a
$GPGSV,3,1,12,1,2.0,127.0,0.0,2,14.0,341.0,27.0,5,14.0,307.0,18.0,6,37.0,20.0,19.0*4e
$GPGLL,0549.1860,S,03512.4642,W,100416,A*21
$GPRMC,100416,A,0549.1860,S,03512.4642,W,14.902041830545478,198.84,280116,,*19
$GPGSV,3,1,12,1,3.0,125.0,0.0,2,13.0,340.0,14.0,5,14.0,305.0,29.0,6,36.0,18.0,17.0*4f
$GPGLL,0548.7063,S,03512.4502,W,095951,A*29
$GPRMC,095951,A,0548.7063,S,03512.4502,W,11.08098008101336,288.17,280116,,*21
$GPGSA,A,3,,2,5,6,,,13,,17,19,28,30,,,,*04
$GPGSV,3,1,12,1,3.0,125.0,0.0,2,13.0,340.0,17.0,5,14.0,305.0,28.0,6,36.0,18.0,14.0*4e
$GPGLL,0548.7052,S,03512.4540,W,095952,A*2e
$GPGSV,3,2,12,7,29.0,80.0,16.0,9,12.0,27.0,0.0,13,44.0,230.0,26.0,15,6.0,224.0,16.0*71
$GPGLL,0548.7052,S,03512.4600,W,095954,A*2f
$GPGSV,3,2,12,7,29.0,80.0,16.0,9,12.0,27.0,0.0,13,44.0,230.0,28.0,15,6.0,224.0,15.0*7c
$GPGSV,3,1,12,1,3.0,125.0,0.0,2,13.0,340.0,16.0,5,14.0,305.0,31.0,6,36.0,18.0,11.0*42
$GPGLL,0548.7065,S,03512.4630,W,095956,A*2a
$GPGSV,3,2,12,7,29.0,80.0,16.0,9,12.0,27.0,0.0,13,44.0,230.0,28.0,15,6.0,224.0,14.0*7d
$GPGSV,3,1,12,1,3.0,125.0,0.0,2,13.0,340.0,16.0,5,14.0,305.0,32.0,6,36.0,18.0,12.0*42
$GPGSV,3,2,12,7,29.0,80.0,16.0,9,12.0,27.0,0.0,13,44.0,230.0,29.0,15,6.0,224.0,14.0*7c
$GPGSV,3,1,12,1,4.0,122.0,0.0,2,10.0,338.0,26.0,5,14.0,302.0,19.0,6,33.0,15.0,36.0*4d
$GPGLL,0549.5828,S,03512.5403,W,095211,A*23
$GPRMC,095211,A,0549.5828,S,03512.5403,W,6.2073499980626705,95.57,280116,,*23
$GPGSA,A,3,,2,5,6,7,9,13,,17,19,28,30,,,,*0a
$GPGSV,3,1,12,1,4.0,122.0,0.0,2,10.0,338.0,27.0,5,14.0,302.0,20.0,6,33.0,15.0,37.0*47
$GPGLL,0549.5828,S,03512.5386,W,095212,A*2a
$GPGSV,3,2,12,7,30.0,84.0,24.0,9,15.0,27.0,20.0,13,41.0,226.0,21.0,15,4.0,222.0,0.0*7f
$GPGLL,0549.5839,S,03512.5335,W,095214,A*24
$GPGSV,3,2,12,7,30.0,84.0,36.0,9,15.0,27.0,18.0,13,41.0,226.0,21.0,15,4.0,222.0,0.0*77
$GPGSV,3,3,12,17,71.0,170.0,35.0,19,80.0,177.0,24.0,28,25.0,170.0,20.0,30,44.0,121.0,32.0*74
$GPGSA,A,3,,2,5,6,7,9,13,,17,19,28,30,,,,*0a
$GPGSV,3,1,12,1,4.0,122.0,0.0,2,10.0,338.0,21.0,5,14.0,302.0,31.0,6,33.0,15.0,34.0*42
$GPGLL,0549.5861,S,03512.5276,W,095216,A*2d
$GPGSV,3,2,12,7,30.0,84.0,36.0,9,15.0,27.0,19.0,13,41.0,226.0,37.0,15,4.0,222.0,0.0*71
$GPGLL,0548.7740,S,03512.2775,W,095828,A*24
$GPGSV,3,2,12,7,29.0,81.0,33.0,9,13.0,27.0,0.0,13,43.0,229.0,26.0,15,5.0,223.0,19.0*72
$GPGSV,3,1,12,1,3.0,124.0,0.0,2,12.0,340.0,16.0,5,14.0,304.0,20.0,6,35.0,17.0,30.0*4c
$GPGLL,0548.7740,S,03512.2775,W,095830,A*2d
$GPRMC,095830,A,0548.7740,S,03512.2775,W,0.0,290.55,280116,,*2d
$GPGSA,A,3,,2,5,6,7,,13,,17,19,28,30,,,,*33
$GPGSV,3,1,12,1,3.0,124.0,0.0,2,12.0,340.0,14.0,5,14.0,304.0,21.0,6,35.0,17.0,30.0*4f
$GPGSV,3,1,12,1,3.0,124.0,0.0,2,12.0,340.0,13.0,5,14.0,304.0,21.0,6,35.0,17.0,30.0*48
$GPGGA,095832,0548.7740,S,03512.2775,W,1,9,2.6,47.9,M,,,,*13
$GPGSV,3,1,12,1,3.0,124.0,0.0,2,12.0,340.0,15.0,5,14.0,304.0,23.0,6,35.0,17.0,30.0*4c
$GPGLL,0548.7740,S,03512.2775,W,095833,A*2e
$GPRMC,095833,A,0548.7740,S,03512.2775,W,0.0,290.55,280116,,*2e
$GPGSA,A,3,,2,5,6,7,,13,,17,19,28,30,,,,*33
$GPGSV,3,1,12,1,3.0,124.0,0.0,2,12.0,340.0,12.0,5,14.0,304.0,23.0,6,35.0,17.0,30.0*4b
$GPGLL,0548.7740,S,03512.2775,W,095812,A*2d
$GPRMC,095812,A,0548.7740,S,03512.2775,W,0.0,290.55,280116,,*2d
$GPGSA,A,3,,2,5,6,7,,13,,17,19,28,30,,,,*33
$GPGSV,3,1,12,1,3.0,124.0,0.0,2,12.0,340.0,14.0,5,14.0,304.0,16.0,6,35.0,17.0,29.0*43
$GPGSV,3,1,12,1,3.0,124.0,0.0,2,12.0,340.0,15.0,5,14.0,304.0,15.0,6,35.0,17.0,29.0*41
$GPGLL,0548.7740,S,03512.2775,W,095814,A*2b
$GPRMC,095814,A,0548.7740,S,03512.2775,W,0.0,290.55,280116,,*2b
$GPGLL,0548.7740,S,03512.2775,W,095815,A*2a
$GPGSV,3,2,12,7,29.0,81.0,32.0,9,13.0,27.0,0.0,13,43.0,229.0,33.0,15,5.0,223.0,16.0*78
$GPGSV,3,3,12,17,68.0,170.0,27.0,19,77.0,176.0,33.0,28,24.0,167.0,22.0,30,45.0,117.0,26.0*74
$GPGSA,A,3,,2,5,6,7,,13,,17,19,28,30,,,,*33
$GPGSV,3,1,12,1,3.0,124.0,0.0,2,12.0,340.0,15.0,5,14.0,304.0,18.0,6,35.0,17.0,30.0*44
$GPGLL,0548.7740,S,03512.2775,W,095817,A*28
$GPGSV,3,2,12,7,29.0,81.0,32.0,9,13.0,27.0,0.0,13,43.0,229.0,33.0,15,5.0,223.0,16.0*78
$GPGLL,0549.7943,S,03512.5927,W,095108,A*2d
$GPGSV,3,2,12,7,30.0,85.0,35.0,9,16.0,27.0,19.0,13,41.0,226.0,23.0,15,3.0,222.0,0.0*72
$GPGSV,3,1,12,1,4.0,122.0,16.0,2,10.0,338.0,26.0,5,15.0,301.0,26.0,6,33.0,14.0,38.0*7b
$GPGLL,0549.7899,S,03512.6040,W,095110,A*29
$GPGSV,3,1,12,1,4.0,122.0,15.0,2,10.0,338.0,26.0,5,15.0,301.0,27.0,6,33.0,14.0,29.0*79
$GPGSV,3,1,12,1,4.0,122.0,15.0,2,10.0,338.0,27.0,5,15.0,301.0,27.0,6,33.0,14.0,39.0*79
$GPGLL,0549.7856,S,03512.6152,W,095112,A*2a
$GPGSV,3,2,12,7,30.0,84.0,33.0,9,15.0,27.0,20.0,13,41.0,226.0,22.0,15,3.0,222.0,0.0*7d
$GPGSV,3,1,12,1,4.0,122.0,18.0,2,10.0,338.0,23.0,5,14.0,302.0,26.0,6,33.0,15.0,36.0*7d
$GPGSV,3,1,12,1,4.0,122.0,17.0,2,10.0,338.0,24.0,5,14.0,302.0,28.0,6,33.0,15.0,36.0*7b
$GPGGA,095121,0549.7721,S,03512.6527,W,1,10,2.3,39.3,M,,,,*21
$GPGLL,0549.7721,S,03512.6527,W,095121,A*23
$GPRMC,095121,A,0549.7721,S,03512.6527,W,7.459025136756635,298.23,280116,,*22
$GPGSA,A,3,,2,5,6,7,9,13,,17,19,28,30,,,,*0a
$GPGLL,0549.7708,S,03512.6540,W,095122,A*2a
$GPGSV,3,2,12,7,30.0,84.0,33.0,9,15.0,27.0,20.0,13,41.0,226.0,27.0,15,3.0,222.0,0.0*78
$GPGLL,0549.7662,S,03512.6538,W,095124,A*2e
$GPGSV,3,2,12,7,30.0,84.0,34.0,9,15.0,27.0,27.0,13,41.0,226.0,28.0,15,3.0,222.0,0.0*77
$GPGSV,3,2,12,7,30.0,84.0,35.0,9,15.0,27.0,26.0,13,41.0,226.0,27.0,15,4.0,222.0,0.0*7f
$GPGSV,3,3,12,17,72.0,170.0,28.0,19,81.0,177.0,32.0,28,26.0,171.0,32.0,30,44.0,122.0,39.0*74
$GPGSA,A,3,,2,5,6,7,9,13,,17,19,28,30,,,,*0a
$GPGLL,0549.7596,S,03512.6511,W,095126,A*2f
$GPGSV,3,1,12,1,4.0,122.0,12.0,2,10.0,338.0,21.0,5,14.0,302.0,26.0,6,33.0,15.0,24.0*76
$GPGSV,3,2,12,7,30.0,84.0,34.0,9,15.0,27.0,25.0,13,41.0,226.0,26.0,15,4.0,222.0,0.0*7c
$GPGSV,3,3,12,17,71.0,170.0,21.0,19,81.0,177.0,31.0,28,26.0,171.0,30.0,30,44.0,122.0,30.0*76
$GPGSA,A,3,,2,5,6,7,9,13,,17,19,28,30,,,,*0a
$GPGSV,3,1,12,1,4.0,122.0,14.0,2,10.0,338.0,23.0,5,14.0,302.0,27.0,6,33.0,15.0,26.0*71
$GPGLL,0549.7514,S,03512.6481,W,095128,A*23
$GPGSV,3,1,12,1,3.0,125.0,0.0,2,13.0,340.0,16.0,5,14.0,305.0,31.0,6,36.0,18.0,0.0*72
$GPGLL,0548.7077,S,03512.4639,W,100011,A*27
$GPRMC,100011,A,0548.7077,S,03512.4639,W,0.0,249.98,280116,,*22
$GPGSA,A,3,,2,5,,7,,13,,17,19,28,30,,,,*05
$GPGSV,3,1,12,1,3.0,125.0,0.0,2,13.0,340.0,17.0,5,14.0,305.0,31.0,6,36.0,18.0,0.0*73
$GPGLL,0548.7077,S,03512.4639,W,100012,A*24
$GPRMC,100012,A,0548.7077,S,03512.4639,W,0.0,249.98,280116,,*21
$GPGSV,3,1,12,1,3.0,125.0,0.0,2,13.0,340.0,18.0,5,14.0,305.0,30.0,6,36.0,18.0,0.0*7d
$GPGGA,100014,0548.7077,S,03512.4639,W,1,8,3.2,54.5,M,,,,*14
$GPGSV,3,1,12,1,3.0,125.0,0.0,2,13.0,340.0,18.0,5,14.0,305.0,30.0,6,36.0,18.0,0.0*7d
$GPGLL,0548.7077,S,03512.4639,W,100015,A*23
$GPGSV,3,1,12,1,3.0,125.0,0.0,2,13.0,340.0,18.0,5,14.0,305.0,30.0,6,36.0,18.0,0.0*7d
$GPGLL,0548.7077,S,03512.4639,W,100016,A*20
$GPGSV,3,2,12,7,29.0,80.0,16.0,9,12.0,27.0,0.0,13,44.0,230.0,30.0,15,6.0,224.0,0.0*41
$GPGLL,0548.8316,S,03512.1424,W,095546,A*2d
$GPRMC,095546,A,0548.8316,S,03512.1424,W,16.36182997196122,23.61,280116,,*11
$GPGSA,A,3,,2,5,6,7,9,13,,17,19,28,30,,,,*0a
$GPGSV,3,1,12,1,3.0,124.0,0.0,2,12.0,339.0,20.0,5,14.0,303.0,23.0,6,35.0,17.0,25.0*47
$GPGSA,A,3,,2,5,6,7,9,13,,17,19,28,30,,,,*0a
$GPGSV,3,1,12,1,3.0,124.0,0.0,2,12.0,339.0,19.0,5,14.0,303.0,22.0,6,35.0,17.0,26.0*4f
$GPGSV,3,2,12,7,30.0,82.0,30.0,9,13.0,27.0,28.0,13,43.0,228.0,34.0,15,5.0,223.0,0.0*7a
$GPGSV,3,1,12,1,3.0,124.0,0.0,2,12.0,339.0,19.0,5,14.0,303.0,24.0,6,35.0,17.0,19.0*45
$GPGLL,0548.8176,S,03512.1369,W,095549,A*28
$GPGLL,0548.8121,S,03512.1354,W,095550,A*2c
$GPRMC,095550,A,0548.8121,S,03512.1354,W,16.112694812754754,20.31,280116,,*22
$GPGSV,3,2,12,7,30.0,82.0,24.0,9,13.0,27.0,29.0,13,43.0,228.0,25.0,15,5.0,223.0,0.0*7e
$GPGSV,3,3,12,17,69.0,170.0,21.0,19,78.0,176.0,29.0,28,24.0,168.0,34.0,30,45.0,119.0,33.0*75
$GPGSA,A,3,,2,5,6,7,9,13,,17,19,28,30,,,,*0a
$GPGLL,0550.5158,S,03512.8613,W,094005,A*2d
$GPRMC,094005,A,0550.5158,S,03512.8613,W,0.0,221.35,280116,,*21
$GPGSA,A,3,1,,5,6,7,9,13,17,19,28,30,,,,,*09
$GPGSV,3,1,11,1,6.0,118.0,23.0,2,7.0,335.0,33.0,5,15.0,296.0,39.0,6,30.0,11.0,36.0*43
$GPGSV,3,1,11,1,6.0,118.0,24.0,2,7.0,335.0,33.0,5,15.0,296.0,39.0,6,30.0,11.0,36.0*44
$GPGSV,3,3,11,19,86.0,179.0,40.0,28,27.0,175.0,29.0,30,43.0,129.0,37.0*57
$GPGGA,094007,0550.5158,S,03512.8613,W,1,10,2.3,79.5,M,,,,*2f
$GPGLL,0550.5158,S,03512.8613,W,094008,A*20
$GPGSV,3,2,11,7,31.0,90.0,29.0,9,19.0,27.0,33.0,13,37.0,222.0,43.0,17,77.0,169.0,39.0*7a
$GPGSV,3,3,11,19,86.0,179.0,41.0,28,27.0,175.0,29.0,30,43.0,129.0,36.0*57
$GPGSA,A,3,1,,5,6,7,9,13,17,19,28,30,,,,,*09
$GPGSV,3,1,11,1,6.0,118.0,23.0,2,7.0,335.0,32.0,5,15.0,296.0,39.0,6,30.0,11.0,34.0*40
$GPGSV,3,2,11,7,31.0,90.0,29.0,9,19.0,27.0,33.0,13,37.0,222.0,43.0,17,77.0,169.0,39.0*7a
$GPGLL,0550.5158,S,03512.8613,W,094010,A*29
$GPGSA,A,1,,,,,,,,,,,,,,,,*32
$GPGSV,3,1,12,1,9.0,92.0,0.0,5,17.0,268.0,0.0,6,15.0,350.0,0.0,7,31.0,123.0,0.0*75
$GPGSV,3,2,12,9,45.0,35.0,0.0,11,12.0,114.0,0.0,13,14.0,213.0,0.0,17,69.0,358.0,0.0*72
$GPGSV,3,3,12,19,62.0,355.0,0.0,23,11.0,36.0,0.0,28,42.0,205.0,0.0,30,35.0,162.0,0.0*4a
$GPGSA,A,1,,,,,,,,,,,,,,,,*32
$GPGSV,3,3,12,19,62.0,355.0,0.0,23,11.0,36.0,0.0,28,42.0,205.0,0.0,30,35.0,162.0,0.0*4a
$GPGSA,A,1,,,,,,,,,,,,,,,,*32
$GPGSA,A,1,,,,,,,,,,,,,,,,*32
$GPGSV,3,3,12,19,62.0,355.0,0.0,23,11.0,36.0,0.0,28,42.0,205.0,0.0,30,35.0,162.0,0.0*4a
$GPGSV,3,3,12,19,62.0,355.0,0.0,23,11.0,36.0,0.0,28,42.0,205.0,0.0,30,35.0,162.0,0.0*4a
$GPGSA,A,1,,,,,,,,,,,,,,,,*32
$GPGSV,3,1,12,1,9.0,92.0,0.0,5,17.0,268.0,0.0,6,15.0,350.0,0.0,7,31.0,123.0,0.0*75
$GPGSV,3,2,12,9,45.0,35.0,0.0,11,12.0,114.0,0.0,13,14.0,213.0,40.0,17,69.0,358.0,0.0*46
$GPGSV,3,3,12,19,62.0,355.0,0.0,23,11.0,36.0,0.0,28,42.0,205.0,36.0,30,35.0,162.0,0.0*7f
$GPGLL,0548.7890,S,03512.1259,W,095555,A*29
$GPGSV,3,2,12,7,30.0,82.0,30.0,9,13.0,27.0,27.0,13,43.0,228.0,24.0,15,5.0,223.0,0.0*74
$GPGSV,3,3,12,17,69.0,170.0,25.0,19,78.0,176.0,33.0,28,24.0,168.0,18.0,30,45.0,119.0,40.0*70
$GPGSA,A,3,,2,5,6,7,9,13,,17,19,28,30,,,,*0a
$GPGSV,3,1,12,1,3.0,124.0,0.0,2,12.0,339.0,28.0,5,14.0,303.0,26.0,6,35.0,17.0,24.0*4b
$GPGLL,0548.7784,S,03512.1228,W,095557,A*27
$GPGSV,3,1,12,1,3.0,124.0,0.0,2,12.0,339.0,21.0,5,14.0,303.0,26.0,6,35.0,17.0,24.0*42
$GPGSV,3,1,12,1,3.0,124.0,0.0,2,12.0,339.0,22.0,5,14.0,303.0,25.0,6,35.0,17.0,25.0*43
$GPGLL,0548.7688,S,03512.1196,W,095559,A*22
$GPRMC,095559,A,0548.7688,S,03512.1196,W,17.18827568845709,21.37,280116,,*10
$GPGSA,A,3,,2,5,6,7,9,13,,17,19,28,30,,,,*0a
$GPGSV,3,1,12,1,3.0,124.0,0.0,2,12.0,339.0,22.0,5,14.0,303.0,25.0,6,35.0,17.0,27.0*41
$GPGLL,0548.7650,S,03512.1179,W,095600,A*29
$GPGSV,3,2,12,7,30.0,82.0,27.0,9,13.0,27.0,27.0,13,43.0,228.0,29.0,15,5.0,223.0,0.0*7f
