$GPGSA,A,1,,,,,,,,,,,,,,,,*32
$GPGSV,3,1,12,8,11.0,220.0,0.0,10,30.0,180.0,0.0,14,83.0,163.0,0.0,16,19.0,297.0,0.0*42
$GPGSV,3,2,12,18,17.0,144.0,0.0,21,39.0,99.0,0.0,22,21.0,249.0,0.0,24,1.0,123.0,0.0*77
$GPGSV,3,3,12,26,21.0,328.0,0.0,27,40.0,229.0,0.0,29,10.0,29.0,0.0,31,25.0,6.0,0.0*4e
$GPGSA,A,1,,,,,,,,,,,,,,,,*32
$GPGSV,3,1,12,8,11.0,220.0,0.0,10,30.0,180.0,0.0,14,83.0,163.0,0.0,16,19.0,297.0,0.0*42
$GPGSV,3,2,12,18,17.0,144.0,0.0,21,39.0,99.0,0.0,22,21.0,249.0,0.0,24,1.0,123.0,0.0*77
$GPGSV,3,3,12,26,21.0,328.0,0.0,27,40.0,229.0,0.0,29,10.0,29.0,0.0,31,25.0,6.0,0.0*4e
$GPGSA,A,1,,,,,,,,,,,,,,,,*32
$GPGSV,3,3,12,26,21.0,328.0,0.0,27,40.0,229.0,34.0,29,10.0,29.0,0.0,31,25.0,6.0,0.0*79
$GPGSV,3,3,12,26,21.0,328.0,0.0,27,40.0,229.0,39.0,29,10.0,29.0,0.0,31,25.0,6.0,0.0*74
$GPGSV,3,3,12,26,21.0,328.0,0.0,27,40.0,229.0,39.0,29,10.0,29.0,0.0,31,25.0,6.0,0.0*74
$GPGSV,3,3,12,26,21.0,328.0,0.0,27,40.0,229.0,38.0,29,10.0,29.0,0.0,31,25.0,6.0,0.0*75
$GPGSV,3,3,12,26,21.0,328.0,0.0,27,40.0,229.0,39.0,29,10.0,29.0,0.0,31,25.0,6.0,0.0*74
$GPGSV,3,3,12,26,21.0,328.0,0.0,27,40.0,229.0,38.0,29,10.0,29.0,0.0,31,25.0,6.0,0.0*75
$GPGSV,3,3,12,26,21.0,328.0,0.0,27,40.0,229.0,37.0,29,10.0,29.0,0.0,31,25.0,6.0,0.0*7a
$GPGSV,3,3,12,26,21.0,328.0,0.0,27,40.0,229.0,38.0,29,10.0,29.0,0.0,31,25.0,6.0,0.0*75
$GPGSV,3,3,12,26,21.0,328.0,0.0,27,40.0,229.0,37.0,29,10.0,29.0,0.0,31,25.0,6.0,0.0*7a
$GPGSV,3,3,12,26,21.0,328.0,0.0,27,40.0,229.0,36.0,29,10.0,29.0,0.0,31,25.0,6.0,0.0*7b
$GPGSV,3,3,12,26,21.0,328.0,0.0,27,40.0,229.0,35.0,29,10.0,29.0,0.0,31,25.0,6.0,0.0*78
$GPGSV,3,3,12,26,21.0,328.0,0.0,27,40.0,229.0,34.0,29,10.0,29.0,0.0,31,25.0,6.0,0.0*79
$GPGSA,A,1,,,,,,,,,,,,,,,,*32
$GPGSV,3,3,12,26,21.0,328.0,0.0,27,40.0,229.0,34.0,29,10.0,29.0,0.0,31,25.0,6.0,0.0*79
$GPGSV,3,3,12,26,21.0,328.0,0.0,27,40.0,229.0,34.0,29,10.0,29.0,0.0,31,25.0,6.0,0.0*79
$GPGSV,3,3,12,26,21.0,328.0,0.0,27,40.0,229.0,33.0,29,10.0,29.0,0.0,31,25.0,6.0,0.0*7e
$GPGSV,3,3,12,26,21.0,328.0,0.0,27,40.0,229.0,34.0,29,10.0,29.0,0.0,31,25.0,6.0,0.0*79
$GPGSV,3,3,12,26,21.0,328.0,0.0,27,40.0,229.0,36.0,29,10.0,29.0,0.0,31,25.0,6.0,0.0*7b
$GPGSV,3,3,12,26,21.0,328.0,0.0,27,40.0,229.0,34.0,29,10.0,29.0,0.0,31,25.0,6.0,0.0*79
$GPGSA,A,1,,,,,,,,,,,,,,,,*32
$GPGSV,3,1,10,8,20.0,227.0,0.0,10,27.0,168.0,0.0,14,69.0,169.0,0.0,16,16.0,310.0,0.0*4a
$GPGSV,3,2,10,18,13.0,133.0,0.0,21,37.0,83.0,0.0,22,22.0,236.0,0.0,26,18.0,339.0,0.0*4c
$GPGSV,3,3,10,27,48.0,244.0,0.0,31,34.0,15.0,0.0*42
$GPGSA,A,1,,,,,,,,,,,,,,,,*32
$GPGSV,3,1,10,8,20.0,227.0,0.0,10,27.0,168.0,0.0,14,69.0,169.0,0.0,16,16.0,310.0,0.0*4a
$GPGSV,3,2,10,18,13.0,133.0,0.0,21,37.0,83.0,0.0,22,22.0,236.0,0.0,26,18.0,339.0,0.0*4c
$GPGLL,0547.5238,S,03512.0874,W,205849,A*23
$GPGSV,3,2,10,18,13.0,133.0,0.0,21,37.0,83.0,20.0,22,22.0,236.0,40.0,26,18.0,339.0,18.0*73
$GPGSV,3,1,10,8,20.0,227.0,32.0,10,27.0,168.0,29.0,14,69.0,169.0,27.0,16,16.0,310.0,0.0*75
$GPGSV,3,2,10,18,13.0,133.0,0.0,21,37.0,83.0,27.0,22,22.0,236.0,33.0,26,18.0,339.0,19.0*71
$GPGLL,0547.5284,S,03512.0907,W,205851,A*28
$GPGSV,3,1,10,8,20.0,227.0,35.0,10,27.0,168.0,23.0,14,69.0,169.0,27.0,16,16.0,310.0,0.0*78
$GPGSV,3,1,10,8,20.0,227.0,26.0,10,27.0,168.0,19.0,14,69.0,169.0,35.0,16,16.0,310.0,0.0*70
$GPGLL,0547.5354,S,03512.0951,W,205853,A*25
$GPGSV,3,1,10,8,20.0,227.0,22.0,10,27.0,168.0,17.0,14,69.0,169.0,35.0,16,16.0,310.0,0.0*7a
$GPGLL,0547.5381,S,03512.0989,W,205854,A*2f
$GPGSV,3,1,10,8,20.0,227.0,22.0,10,27.0,168.0,16.0,14,69.0,169.0,35.0,16,16.0,310.0,0.0*7b
$GPGSV,3,1,10,8,20.0,227.0,23.0,10,27.0,168.0,16.0,14,69.0,169.0,23.0,16,16.0,310.0,0.0*7d
$GPGGA,205856,0547.5470,S,03512.1006,W,1,7,4.6,36.4,M,,,,*14
$GPGSV,3,1,10,8,20.0,227.0,24.0,10,27.0,168.0,16.0,14,69.0,169.0,22.0,16,16.0,310.0,0.0*7b
$GPGSV,3,1,10,8,20.0,227.0,23.0,10,27.0,168.0,16.0,14,69.0,169.0,23.0,16,16.0,310.0,0.0*7d
$GPGGA,205859,0547.5529,S,03512.1043,W,1,8,4.4,37.1,M,,,,*1e
$GPGLL,0547.5529,S,03512.1043,W,205859,A*28
$GPGSV,3,1,10,8,20.0,227.0,22.0,10,27.0,168.0,15.0,14,69.0,169.0,24.0,16,16.0,310.0,0.0*78
$GPGSV,3,3,10,27,48.0,244.0,19.0,31,34.0,15.0,20.0*48
$GPGLL,0547.5551,S,03512.1052,W,205900,A*2a
$GPRMC,205900,A,0547.5551,S,03512.1052,W,9.209970252582817,200.72,270216,,*22
