$GPGLL,0548.7397,S,03512.2698,W,193804,A*21
$GPGSV,3,2,13,18,59.0,211.0,34.0,20,15.0,149.0,0.0,21,30.0,183.0,25.0,22,20.0,299.0,0.0*7d
$GPGSV,3,2,13,18,59.0,211.0,34.0,20,15.0,149.0,0.0,21,30.0,183.0,25.0,22,20.0,299.0,0.0*7d
$GPGSV,3,3,13,24,5.0,60.0,0.0,25,29.0,6.0,0.0,26,30.0,250.0,0.0,29,59.0,99.0,13.0*71
$GPGGA,193806,0548.7400,S,03512.2693,W,1,3,7.4,170.5,M,,,,*29
$GPGLL,0548.7400,S,03512.2693,W,193806,A*21
$GPGSV,3,2,13,18,59.0,211.0,34.0,20,15.0,149.0,0.0,21,30.0,183.0,25.0,22,20.0,299.0,0.0*7d
$GPGSV,3,1,13,10,50.0,273.0,21.0,14,24.0,348.0,22.0,15,31.0,120.0,21.0,16,10.0,228.0,19.0*74
$GPGSV,3,2,13,18,59.0,211.0,32.0,20,15.0,149.0,0.0,21,30.0,183.0,25.0,22,20.0,299.0,0.0*7b
$GPGSV,3,3,13,24,5.0,60.0,0.0,25,29.0,6.0,20.0,26,30.0,250.0,0.0,29,59.0,99.0,16.0*46
$GPGGA,193812,0548.7555,S,03512.2645,W,1,6,6.0,236.3,M,,,,*21
$GPGLL,0548.7555,S,03512.2645,W,193812,A*2e
$GPRMC,193812,A,0548.7555,S,03512.2645,W,0.0,354.29,200116,,*24
$GPGGA,193813,0548.7542,S,03512.2643,W,1,6,6.0,235.9,M,,,,*29
$GPGSV,3,2,13,18,59.0,211.0,32.0,20,15.0,149.0,0.0,21,30.0,183.0,25.0,22,20.0,299.0,0.0*7b
$GPGSV,3,2,13,18,59.0,211.0,32.0,20,15.0,149.0,0.0,21,30.0,183.0,25.0,22,20.0,299.0,0.0*7b
$GPGSV,3,3,13,24,5.0,60.0,0.0,25,29.0,6.0,23.0,26,30.0,250.0,0.0,29,59.0,99.0,16.0*45
$GPGSA,A,3,10,14,15,,18,,21,,,25,,,,,,*3d
$GPGSV,3,1,13,10,50.0,273.0,21.0,14,24.0,348.0,24.0,15,31.0,120.0,19.0,16,10.0,228.0,20.0*73
$GPGLL,0548.7542,S,03512.2643,W,193817,A*2b
$GPGSV,3,1,13,10,50.0,273.0,21.0,14,24.0,348.0,24.0,15,31.0,120.0,19.0,16,10.0,228.0,20.0*73
$GPGLL,0548.7542,S,03512.2643,W,193819,A*25
$GPRMC,193819,A,0548.7542,S,03512.2643,W,0.0,354.29,200116,,*2f
$GPGSA,A,3,10,14,15,,18,,21,,,25,,,,,,*3d
$GPGSV,3,1,13,10,50.0,273.0,21.0,14,24.0,348.0,25.0,15,31.0,120.0,19.0,16,10.0,228.0,20.0*72
$GPGSV,3,2,13,18,59.0,211.0,33.0,20,15.0,149.0,0.0,21,30.0,183.0,27.0,22,20.0,299.0,0.0*78
$GPGSV,3,3,13,24,5.0,60.0,0.0,25,29.0,6.0,24.0,26,30.0,250.0,0.0,29,59.0,99.0,16.0*42
$GPGGA,193821,0548.7542,S,03512.2643,W,1,6,5.0,235.9,M,,,,*2b
$GPGSV,3,2,13,18,59.0,211.0,33.0,20,15.0,149.0,0.0,21,30.0,183.0,28.0,22,20.0,299.0,0.0*77
$GPGSV,3,1,13,10,50.0,273.0,21.0,14,24.0,348.0,25.0,15,31.0,120.0,18.0,16,10.0,228.0,19.0*79
$GPGSV,3,2,13,18,59.0,211.0,33.0,20,15.0,149.0,0.0,21,30.0,183.0,28.0,22,20.0,299.0,0.0*77
$GPGSV,3,3,13,24,5.0,60.0,0.0,25,29.0,6.0,24.0,26,30.0,250.0,0.0,29,59.0,99.0,18.0*4c
$GPGGA,193823,0548.7542,S,03512.2643,W,1,6,4.9,235.9,M,,,,*21
$GPGLL,0548.7542,S,03512.2643,W,193823,A*2c
$GPRMC,193823,A,0548.7542,S,03512.2643,W,0.0,354.29,200116,,*26
$GPGSV,3,2,13,18,59.0,211.0,33.0,20,15.0,149.0,0.0,21,30.0,183.0,28.0,22,20.0,299.0,0.0*77
$GPGSV,3,3,13,24,5.0,60.0,0.0,25,29.0,6.0,24.0,26,30.0,250.0,0.0,29,59.0,99.0,19.0*4d
$GPGGA,193825,0548.7542,S,03512.2643,W,1,6,4.9,235.9,M,,,,*27
$GPGLL,0548.7542,S,03512.2643,W,193825,A*2a
$GPGSV,3,2,13,18,59.0,211.0,33.0,20,15.0,149.0,0.0,21,30.0,183.0,28.0,22,20.0,299.0,0.0*77
$GPGSV,3,2,13,18,59.0,211.0,33.0,20,15.0,149.0,0.0,21,30.0,183.0,28.0,22,20.0,299.0,0.0*77
$GPGSV,3,1,13,10,50.0,273.0,21.0,14,24.0,348.0,26.0,15,31.0,120.0,16.0,16,10.0,228.0,19.0*74
$GPGLL,0548.7600,S,03512.2600,W,193831,A*2d
$GPGSV,3,1,13,10,50.0,273.0,20.0,14,24.0,348.0,19.0,15,31.0,120.0,15.0,16,10.0,228.0,19.0*7a
$GPGSV,3,1,13,10,50.0,273.0,20.0,14,24.0,348.0,19.0,15,31.0,120.0,15.0,16,10.0,228.0,19.0*7a
$GPGGA,193833,0548.7590,S,03512.2632,W,1,6,4.9,232.1,M,,,,*26
$GPGLL,0548.7590,S,03512.2632,W,193833,A*24
$GPRMC,193833,A,0548.7590,S,03512.2632,W,0.0,296.0,200116,,*1a
$GPGSA,A,3,10,14,15,,18,,21,,,25,,,,,,*3d
$GPGLL,0548.7537,S,03512.2776,W,193837,A*2c
$GPGSV,3,2,13,18,59.0,211.0,28.0,20,15.0,149.0,0.0,21,30.0,183.0,30.0,22,20.0,299.0,0.0*74
$GPGSV,3,1,13,10,50.0,273.0,20.0,14,24.0,348.0,12.0,15,31.0,120.0,15.0,16,10.0,228.0,14.0*7c
$GPGLL,0548.7522,S,03512.2810,W,193838,A*28
$GPGSV,3,2,13,18,59.0,211.0,25.0,20,15.0,149.0,0.0,21,30.0,183.0,29.0,22,20.0,299.0,0.0*71
$GPGSV,3,3,13,24,5.0,60.0,0.0,25,29.0,6.0,15.0,26,31.0,250.0,0.0,29,59.0,98.0,16.0*40
$GPGSA,A,3,10,14,15,,18,,21,,,25,,29,,,,*36
