$GPGLL,0549.2349,S,03512.4795,W,194646,A*23
$GPRMC,194646,A,0549.2349,S,03512.4795,W,0.0,202.5,200116,,*15
$GPGGA,194647,0549.2349,S,03512.4795,W,1,11,1.9,49.8,M,,,,*24
$GPGLL,0549.2349,S,03512.4795,W,194647,A*22
$GPGSV,3,2,13,18,57.0,205.0,39.0,20,12.0,147.0,26.0,21,30.0,179.0,28.0,22,22.0,296.0,0.0*43
$GPGSV,3,2,13,18,57.0,205.0,31.0,20,12.0,147.0,26.0,21,30.0,179.0,27.0,22,22.0,296.0,0.0*44
$GPGSV,3,3,13,24,6.0,63.0,0.0,25,26.0,7.0,17.0,26,32.0,254.0,30.0,29,59.0,90.0,41.0*72
$GPGLL,0549.2374,S,03512.4812,W,194654,A*2e
$GPRMC,194654,A,0549.2374,S,03512.4812,W,6.637581884894963,203.13,200116,,*2b
$GPGSA,A,3,10,14,15,16,18,20,21,,,25,26,29,,,,*37
$GPGSV,3,1,13,10,51.0,267.0,37.0,14,27.0,349.0,36.0,15,29.0,124.0,39.0,16,12.0,230.0,24.0*71
$GPGSV,3,1,13,10,51.0,267.0,36.0,14,27.0,349.0,37.0,15,29.0,124.0,39.0,16,12.0,230.0,23.0*76
$GPGLL,0549.2418,S,03512.4823,W,194656,A*23
$GPRMC,194656,A,0549.2418,S,03512.4823,W,9.122923474979249,200.54,200116,,*2c
$GPGLL,0549.3476,S,03512.5216,W,194716,A*22
$GPRMC,194716,A,0549.3476,S,03512.5216,W,24.789378421382562,200.17,200116,,*16
$GPGSA,A,3,10,14,15,16,18,20,21,,,25,26,29,,,,*37
$GPGSV,3,1,13,10,51.0,267.0,41.0,14,27.0,349.0,39.0,15,29.0,124.0,39.0,16,12.0,230.0,14.0*7c
$GPGSV,3,1,13,10,51.0,267.0,40.0,14,27.0,349.0,39.0,15,29.0,124.0,38.0,16,12.0,230.0,16.0*7e
$GPGLL,0549.3606,S,03512.5265,W,194718,A*2d
$GPRMC,194718,A,0549.3606,S,03512.5265,W,24.938458726521446,200.98,200116,,*13
$GPGLL,0549.3673,S,03512.5288,W,194719,A*2d
$GPGSV,3,1,13,10,51.0,267.0,40.0,14,27.0,349.0,38.0,15,29.0,124.0,39.0,16,12.0,230.0,14.0*7c
$GPGSV,3,1,13,10,51.0,267.0,40.0,14,27.0,349.0,39.0,15,29.0,124.0,39.0,16,12.0,230.0,17.0*7e
$GPGSV,3,2,13,18,57.0,205.0,28.0,20,12.0,147.0,25.0,21,30.0,179.0,29.0,22,22.0,296.0,34.0*76
$GPGSV,3,3,13,24,6.0,63.0,0.0,25,26.0,7.0,30.0,26,32.0,254.0,27.0,29,59.0,90.0,40.0*70
$GPGGA,194721,0549.3808,S,03512.5339,W,1,12,1.9,49.8,M,,,,*2a
$GPGSV,3,1,13,10,51.0,267.0,41.0,14,27.0,349.0,39.0,15,29.0,124.0,39.0,16,12.0,230.0,36.0*7c
$GPGLL,0549.3877,S,03512.5364,W,194722,A*2c
$GPGSV,3,1,13,10,51.0,267.0,41.0,14,27.0,349.0,39.0,15,29.0,124.0,39.0,16,12.0,230.0,29.0*72
$GPGLL,0549.3945,S,03512.5387,W,194723,A*20
$GPGSV,3,1,13,10,51.0,267.0,41.0,14,27.0,349.0,39.0,15,29.0,124.0,39.0,16,12.0,230.0,22.0*79
$GPGSV,3,1,13,10,51.0,267.0,41.0,14,27.0,349.0,40.0,15,29.0,124.0,39.0,16,12.0,230.0,22.0*77
$GPGSV,3,2,13,18,57.0,205.0,26.0,20,12.0,147.0,26.0,21,30.0,179.0,30.0,22,22.0,296.0,24.0*72
$GPGSV,3,3,13,24,6.0,63.0,0.0,25,26.0,7.0,31.0,26,32.0,254.0,27.0,29,59.0,90.0,40.0*71
$GPGSV,3,1,13,10,51.0,267.0,41.0,14,27.0,349.0,40.0,15,29.0,124.0,39.0,16,12.0,230.0,30.0*74
$GPGSV,3,2,13,18,57.0,205.0,26.0,20,12.0,147.0,17.0,21,30.0,179.0,31.0,22,22.0,296.0,22.0*77
$GPGSV,3,3,13,24,6.0,63.0,0.0,25,26.0,7.0,31.0,26,32.0,254.0,25.0,29,59.0,90.0,40.0*73
$GPGGA,194726,0549.4148,S,03512.5462,W,1,11,1.9,48.0,M,,,,*24
$GPGLL,0549.4148,S,03512.5462,W,194726,A*2b
$GPRMC,194726,A,0549.4148,S,03512.5462,W,25.20060010839736,199.79,200116,,*25
$GPGSA,A,3,10,14,15,16,18,,21,22,,25,26,29,,,,*35
$GPGLL,0549.4213,S,03512.5485,W,194727,A*2e
$GPGSV,3,2,13,18,57.0,205.0,27.0,20,12.0,147.0,14.0,21,30.0,179.0,30.0,22,22.0,296.0,34.0*73
$GPGSV,3,3,13,24,6.0,63.0,0.0,25,26.0,7.0,31.0,26,32.0,254.0,25.0,29,59.0,90.0,40.0*73
$GPGGA,194729,0549.4342,S,03512.5530,W,1,10,1.9,46.9,M,,,,*23
$GPGLL,0549.4342,S,03512.5530,W,194729,A*2a
$GPRMC,194729,A,0549.4342,S,03512.5530,W,24.125019232695028,199.94,200116,,*1e
$GPGSA,A,3,10,14,15,16,18,,21,22,,25,26,29,,,,*35
$GPGSV,3,1,13,10,51.0,267.0,40.0,14,27.0,349.0,41.0,15,29.0,124.0,20.0,16,12.0,230.0,29.0*74
$GPGLL,0549.4465,S,03512.5577,W,194731,A*22
$GPRMC,194731,A,0549.4465,S,03512.5577,W,22.763284774113732,201.08,200116,,*17
$GPGSA,A,3,10,14,15,16,18,,21,22,,25,26,29,,,,*35
$GPGSV,3,1,13,10,51.0,267.0,39.0,14,27.0,349.0,41.0,15,29.0,124.0,18.0,16,12.0,230.0,27.0*7f
$GPGLL,0549.4525,S,03512.5599,W,194732,A*24
$GPGSV,3,2,13,18,57.0,205.0,31.0,20,12.0,147.0,0.0,21,30.0,179.0,30.0,22,22.0,296.0,21.0*45
