$GPGSV,1,1,4,10,0.0,0.0,19.0,15,0.0,0.0,23.0,18,0.0,0.0,33.0,29,0.0,0.0,19.0*4b
$GPGSV,1,1,4,10,0.0,0.0,19.0,15,0.0,0.0,24.0,18,0.0,0.0,34.0,29,0.0,0.0,19.0*4b
$GPGSV,1,1,4,10,0.0,0.0,18.0,15,0.0,0.0,24.0,18,0.0,0.0,35.0,29,0.0,0.0,19.0*4b
$GPGSV,1,1,4,10,0.0,0.0,17.0,15,0.0,0.0,24.0,18,0.0,0.0,34.0,29,0.0,0.0,19.0*45
$GPGSV,1,1,4,10,0.0,0.0,17.0,15,0.0,0.0,25.0,18,0.0,0.0,34.0,29,0.0,0.0,18.0*45
$GPGSA,A,1,,,,,,,,,,,,,,,,*32
$GPGSV,1,1,4,10,0.0,0.0,17.0,15,0.0,0.0,25.0,18,0.0,0.0,34.0,29,0.0,0.0,18.0*45
$GPGSA,A,1,,,,,,,,,,,,,,,,*32
$GPGSV,1,1,4,10,0.0,0.0,18.0,15,0.0,0.0,25.0,18,0.0,0.0,33.0,29,0.0,0.0,17.0*42
$GPGSA,A,1,,,,,,,,,,,,,,,,*32
$GPGSV,2,1,5,10,0.0,0.0,18.0,15,0.0,0.0,26.0,18,0.0,0.0,34.0,21,0.0,0.0,24.0*4c
$GPGSV,2,1,5,10,0.0,0.0,18.0,15,0.0,0.0,26.0,18,0.0,0.0,34.0,21,0.0,0.0,23.0*4b
$GPGSV,2,1,5,10,0.0,0.0,19.0,15,0.0,0.0,26.0,18,0.0,0.0,34.0,21,0.0,0.0,25.0*4c
$GPGSV,2,1,5,10,0.0,0.0,19.0,15,0.0,0.0,26.0,18,0.0,0.0,35.0,21,0.0,0.0,26.0*4e
$GPGSV,2,1,5,10,0.0,0.0,19.0,15,0.0,0.0,26.0,18,0.0,0.0,35.0,21,0.0,0.0,25.0*4d
$GPGSV,2,1,5,10,0.0,0.0,19.0,15,0.0,0.0,26.0,18,0.0,0.0,35.0,21,0.0,0.0,25.0*4d
$GPGSA,A,1,,,,,,,,,,,,,,,,*32
$GPGSV,2,1,5,10,0.0,0.0,19.0,15,0.0,0.0,26.0,18,0.0,0.0,35.0,21,0.0,0.0,26.0*4e
$GPGSV,2,1,5,10,0.0,0.0,19.0,15,0.0,0.0,26.0,18,0.0,0.0,35.0,21,0.0,0.0,26.0*4e
$GPGSV,2,1,5,10,0.0,0.0,19.0,15,0.0,0.0,26.0,18,0.0,0.0,35.0,21,0.0,0.0,26.0*4e
$GPGSV,2,2,5,29,0.0,0.0,17.0*5f
$GPGSA,A,1,,,,,,,,,,,,,,,,*32
$GPGSA,A,1,,,,,,,,,,,,,,,,*32
$GPGSV,3,1,13,10,50.0,273.0,21.0,14,24.0,348.0,0.0,15,31.0,120.0,26.0,16,10.0,228.0,0.0*7b
$GPGSV,3,2,13,18,59.0,211.0,35.0,20,15.0,149.0,0.0,21,30.0,183.0,27.0,22,20.0,299.0,0.0*7e
$GPGSV,3,3,13,24,5.0,60.0,0.0,25,29.0,6.0,0.0,26,30.0,250.0,0.0,29,59.0,99.0,15.0*77
$GPGGA,193802,0548.7401,S,03512.2712,W,1,0,8.6,169.5,M,,,,*22
$GPGLL,0548.7401,S,03512.2712,W,193802,A*2c
$GPGSV,3,2,12,13,39.0,328.0,38.0,15,27.0,283.0,28.0,17,10.0,149.0,30.0,19,13.0,151.0,23.0*75
$GPGSV,3,1,12,2,70.0,4.0,28.0,5,19.0,1.0,25.0,6,55.0,123.0,36.0,12,10.0,220.0,33.0*49
$GPGGA,125313,0553.8224,S,03511.8646,W,1,11,1.9,53.3,M,,,,*21
$GPGLL,0553.8224,S,03511.8646,W,125313,A*27
$GPRMC,125313,A,0553.8224,S,03511.8646,W,27.94107944449023,338.61,190116,,*2e
$GPGSA,A,3,2,5,6,12,13,15,17,19,24,28,,30,,,,*05
$GPGSV,3,1,12,2,70.0,4.0,26.0,5,19.0,1.0,25.0,6,55.0,123.0,37.0,12,10.0,220.0,25.0*41
$GPGLL,0553.8076,S,03511.8703,W,125315,A*24
$GPGLL,0553.8005,S,03511.8727,W,125316,A*25
$GPGSV,3,2,12,13,39.0,328.0,40.0,15,27.0,283.0,29.0,17,10.0,149.0,33.0,19,13.0,151.0,35.0*7f
$GPGSV,3,3,12,24,29.0,213.0,38.0,28,14.0,105.0,20.0,29,1.0,302.0,0.0,30,20.0,42.0,42.0*4f
$GPGSA,A,3,2,5,6,12,13,15,17,19,24,28,,30,,,,*05
$GPGSV,3,1,12,2,70.0,4.0,20.0,5,19.0,1.0,42.0,6,55.0,123.0,39.0,12,10.0,220.0,25.0*48
$GPGSV,3,1,12,2,70.0,4.0,20.0,5,19.0,1.0,40.0,6,55.0,123.0,37.0,12,10.0,220.0,23.0*42
$GPGSV,3,1,12,2,70.0,4.0,30.0,5,19.0,1.0,40.0,6,55.0,123.0,37.0,12,10.0,220.0,22.0*42
$GPGLL,0553.7802,S,03511.8751,W,125319,A*2b
$GPRMC,125319,A,0553.7802,S,03511.8751,W,22.786297779846134,4.37,190116,,*12
$GPGSA,A,3,2,5,6,12,13,15,17,19,24,28,,30,,,,*05
$GPGSV,3,1,12,2,70.0,4.0,31.0,5,19.0,1.0,39.0,6,55.0,123.0,35.0,12,10.0,220.0,21.0*4c
$GPGLL,0553.7739,S,03511.8745,W,125320,A*23
$GPRMC,125320,A,0553.7739,S,03511.8745,W,22.49013741390422,6.83,190116,,*24
$GPGSV,3,1,12,2,70.0,4.0,34.0,5,19.0,1.0,38.0,6,55.0,123.0,37.0,12,10.0,220.0,19.0*41
$GPGLL,0553.7614,S,03511.8729,W,125322,A*25
$GPRMC,125322,A,0553.7614,S,03511.8729,W,22.48013248463583,4.01,190116,,*26
$GPGSA,A,3,2,5,6,12,13,15,17,19,24,28,,30,,,,*05
$GPGSV,3,1,12,2,70.0,4.0,33.0,5,19.0,1.0,38.0,6,55.0,123.0,30.0,12,10.0,220.0,20.0*4b
$GPGLL,0553.7550,S,03511.8727,W,125323,A*29
$GPGSV,3,2,12,13,39.0,328.0,31.0,15,27.0,283.0,33.0,17,10.0,149.0,24.0,19,13.0,151.0,24.0*74
$GPRMC,111502,A,0550.5549,S,03512.5778,W,0.0,59.9,190116,,*2a
$GPGSA,A,1,,,,,,,,,,,,,,,,*32
$GPGSV,3,1,11,2,26.0,348.0,30.0,5,13.0,322.0,24.0,6,49.0,36.0,39.0,7,22.0,61.0,31.0*75
$GPGSV,3,2,11,12,1.0,260.0,0.0,13,54.0,255.0,32.0,15,17.0,235.0,30.0,17,48.0,167.0,38.0*7a
$GPGSV,3,2,11,12,1.0,260.0,0.0,13,54.0,255.0,33.0,15,17.0,235.0,31.0,17,48.0,167.0,38.0*7a
$GPGSV,3,2,11,12,1.0,260.0,0.0,13,54.0,255.0,32.0,15,17.0,235.0,32.0,17,48.0,167.0,38.0*78
$GPGSV,3,3,11,19,51.0,166.0,41.0,28,19.0,150.0,41.0,30,45.0,88.0,26.0*6a
$GPGLL,0550.6307,S,03512.5485,W,111526,A*2e
$GPRMC,111526,A,0550.6307,S,03512.5485,W,10.900883012106819,106.79,190116,,*11
$GPGSA,A,2,,,,,,,,17,,28,30,,,,,*3e
$GPGSV,3,1,11,2,26.0,348.0,32.0,5,13.0,322.0,29.0,6,49.0,36.0,43.0,7,22.0,61.0,34.0*72
$GPGSV,3,1,11,2,26.0,348.0,33.0,5,13.0,322.0,30.0,6,49.0,36.0,43.0,7,22.0,61.0,33.0*7c
$GPGLL,0550.6384,S,03512.5408,W,111528,A*2e
$GPRMC,111528,A,0550.6384,S,03512.5408,W,8.903804957372513,133.38,190116,,*29
$GPGSV,3,3,13,20,1.0,324.0,0.0,24,35.0,215.0,39.0,28,13.0,97.0,28.0,29,4.0,297.0,16.0*79
$GPGLL,0550.7127,S,03512.5091,W,130851,A*20
$GPGSV,3,2,13,13,35.0,335.0,43.0,15,26.0,291.0,23.0,17,6.0,144.0,30.0,19,9.0,147.0,24.0*70
$GPGSV,3,1,13,2,78.0,12.0,39.0,5,21.0,7.0,38.0,6,50.0,132.0,35.0,12,12.0,215.0,18.0*7d
$GPGLL,0550.7059,S,03512.5112,W,130852,A*21
$GPGSV,3,2,13,13,35.0,335.0,41.0,15,26.0,291.0,23.0,17,6.0,144.0,26.0,19,9.0,147.0,22.0*73
$GPGSV,3,3,13,20,1.0,324.0,0.0,24,35.0,215.0,37.0,28,13.0,97.0,25.0,29,4.0,297.0,16.0*7a
$GPGLL,0550.6930,S,03512.5155,W,130854,A*23
$GPRMC,130854,A,0550.6930,S,03512.5155,W,23.805847714815275,340.95,190116,,*18
$GPGSA,A,3,2,5,6,12,13,15,17,19,,24,28,,,,,*06
$GPGSV,3,1,13,2,78.0,12.0,39.0,5,21.0,7.0,35.0,6,50.0,132.0,37.0,12,12.0,215.0,30.0*78
$GPGSV,3,1,13,2,78.0,12.0,39.0,5,21.0,7.0,36.0,6,50.0,132.0,37.0,12,12.0,215.0,37.0*7c
$GPGGA,130856,0550.6807,S,03512.5201,W,1,11,1.7,55.5,M,,,,*2e
$GPGSV,3,1,13,2,78.0,12.0,39.0,5,21.0,7.0,36.0,6,50.0,132.0,37.0,12,12.0,215.0,24.0*7e
$GPGSV,3,2,11,12,3.0,252.0,15.0,13,55.0,272.0,39.0,15,21.0,243.0,27.0,17,40.0,165.0,39.0*4b
$GPGSV,3,3,11,19,43.0,165.0,33.0,28,17.0,142.0,37.0,30,43.0,77.0,26.0*65
$GPGSA,A,3,2,5,6,7,,13,15,17,19,28,30,,,,,*37
$GPGSV,3,1,11,2,33.0,351.0,36.0,5,12.0,330.0,37.0,6,55.0,48.0,28.0,7,18.0,54.0,36.0*73
$GPGSV,3,1,11,2,33.0,351.0,36.0,5,12.0,330.0,37.0,6,55.0,48.0,27.0,7,18.0,54.0,36.0*7c
$GPGGA,113351,0553.1241,S,03512.0188,W,1,10,1.8,42.1,M,,,,*24
$GPGLL,0553.1241,S,03512.0188,W,113351,A*20
$GPGLL,0553.1241,S,03512.0188,W,113352,A*23
$GPGSV,3,1,11,2,33.0,351.0,36.0,5,12.0,330.0,37.0,6,55.0,48.0,25.0,7,18.0,54.0,36.0*7e
$GPGSV,3,2,11,12,3.0,252.0,16.0,13,55.0,272.0,38.0,15,21.0,243.0,28.0,17,39.0,165.0,39.0*48
$GPGSV,3,3,11,19,42.0,165.0,33.0,28,17.0,142.0,37.0,30,43.0,77.0,27.0*65
$GPGGA,113354,0553.1241,S,03512.0188,W,1,10,1.8,42.1,M,,,,*21
$GPGLL,0553.1241,S,03512.0188,W,113354,A*25
$GPGSV,3,2,11,12,3.0,252.0,16.0,13,55.0,272.0,38.0,15,21.0,243.0,28.0,17,39.0,165.0,39.0*48
$GPGLL,0553.2770,S,03511.9765,W,113504,A*2d
$GPRMC,113504,A,0553.2770,S,03511.9765,W,25.408712647670498,170.87,190116,,*13
$GPGSA,A,3,2,5,6,7,,13,15,17,19,28,30,,,,,*37
$GPGSV,3,1,11,2,33.0,351.0,31.0,5,12.0,330.0,21.0,6,55.0,48.0,31.0,7,18.0,54.0,37.0*7a
$GPGLL,0553.2840,S,03511.9752,W,113505,A*24
$GPGSV,3,2,11,12,3.0,252.0,14.0,13,55.0,272.0,35.0,15,21.0,243.0,25.0,17,39.0,165.0,40.0*44
$GPGSV,3,3,11,19,42.0,165.0,41.0,28,17.0,141.0,22.0,30,43.0,76.0,33.0*63
$GPGLL,0553.2974,S,03511.9728,W,113507,A*2d
$GPRMC,113507,A,0553.2974,S,03511.9728,W,23.868880437621232,169.04,190116,,*1f
$GPGSA,A,3,2,5,6,7,,13,15,17,19,28,30,,,,,*37
$GPGSV,3,1,11,2,33.0,351.0,31.0,5,12.0,330.0,22.0,6,55.0,48.0,30.0,7,18.0,54.0,34.0*7b
$GPGSV,3,1,11,2,33.0,351.0,32.0,5,12.0,330.0,22.0,6,55.0,48.0,32.0,7,18.0,54.0,33.0*7d
$GPGSV,3,2,11,12,3.0,252.0,14.0,13,55.0,272.0,32.0,15,21.0,243.0,38.0,17,39.0,165.0,39.0*41
$GPGSV,3,3,11,19,42.0,165.0,41.0,28,17.0,141.0,23.0,30,43.0,76.0,33.0*62
$GPGSV,3,2,11,13,40.0,327.0,40.0,15,27.0,282.0,34.0,17,10.0,149.0,25.0,19,14.0,152.0,24.0*73
$GPGSV,3,3,11,24,28.0,213.0,26.0,28,14.0,105.0,39.0,30,21.0,42.0,28.0*62
$GPGSA,A,3,2,5,6,12,13,15,17,,24,28,30,,,,,*0d
$GPGSV,3,1,11,2,69.0,3.0,40.0,5,19.0,0.0,25.0,6,56.0,121.0,32.0,12,9.0,221.0,30.0*75
$GPGSV,3,2,11,13,40.0,327.0,41.0,15,27.0,282.0,34.0,17,10.0,149.0,25.0,19,14.0,152.0,23.0*75
$GPGSV,3,3,11,24,28.0,213.0,26.0,28,14.0,105.0,39.0,30,21.0,42.0,26.0*6c
$GPGSA,A,3,2,5,6,12,13,15,17,,24,28,30,,,,,*0d
$GPGLL,0553.9421,S,03511.8718,W,125203,A*2f
$GPGSV,3,2,11,13,40.0,327.0,40.0,15,27.0,282.0,28.0,17,10.0,149.0,23.0,19,14.0,152.0,21.0*7d
$GPGLL,0553.9489,S,03511.8597,W,125205,A*2e
$GPGSV,3,2,11,13,40.0,327.0,41.0,15,27.0,282.0,29.0,17,10.0,149.0,24.0,19,14.0,152.0,29.0*72
$GPGSV,3,3,11,24,28.0,213.0,20.0,28,14.0,105.0,37.0,30,21.0,42.0,34.0*67
$GPGSA,A,3,2,5,6,12,13,15,17,19,24,28,30,,,,,*05
$GPGSV,3,1,11,2,70.0,4.0,40.0,5,19.0,0.0,37.0,6,56.0,121.0,34.0,12,9.0,221.0,29.0*77
$GPGSV,3,1,13,2,79.0,14.0,39.0,5,22.0,8.0,40.0,6,49.0,133.0,37.0,12,12.0,214.0,32.0*7b
$GPGSV,3,2,13,13,34.0,336.0,42.0,15,26.0,292.0,24.0,17,5.0,144.0,19.0,19,9.0,147.0,22.0*79
$GPGSV,3,3,13,20,1.0,324.0,0.0,24,35.0,215.0,41.0,28,13.0,97.0,25.0,29,4.0,297.0,12.0*7f
$GPGGA,130927,0550.5498,S,03512.5760,W,1,11,1.7,58.2,M,,,,*28
$GPGLL,0550.5498,S,03512.5760,W,130927,A*2a
$GPRMC,130927,A,0550.5498,S,03512.5760,W,26.246164342499963,334.83,190116,,*16
$GPGSA,A,3,2,5,6,12,13,15,17,19,,24,,,,,,*0c
$GPGSV,3,2,13,13,34.0,336.0,42.0,15,26.0,292.0,26.0,17,5.0,144.0,19.0,19,8.0,147.0,32.0*7b
$GPGSV,3,3,13,20,1.0,325.0,0.0,24,35.0,215.0,41.0,28,13.0,97.0,23.0,29,4.0,297.0,0.0*4b
$GPGGA,130932,0550.5153,S,03512.5919,W,1,11,1.7,61.4,M,,,,*22
$GPGLL,0550.5153,S,03512.5919,W,130932,A*2c
$GPRMC,130932,A,0550.5153,S,03512.5919,W,26.247165391565172,334.85,190116,,*12
$GPGSA,A,3,2,5,6,12,13,15,17,19,,24,28,,,,,*06
$GPGSV,3,1,13,2,79.0,14.0,37.0,5,22.0,8.0,37.0,6,49.0,133.0,38.0,12,12.0,214.0,36.0*7e
$GPGSV,3,1,13,2,79.0,14.0,40.0,5,22.0,8.0,32.0,6,49.0,133.0,37.0,12,12.0,214.0,31.0*73
$GPGSV,3,2,13,13,34.0,336.0,37.0,15,26.0,292.0,25.0,17,5.0,144.0,18.0,19,8.0,147.0,22.0*7a
$GPGSV,3,3,13,20,1.0,325.0,0.0,24,36.0,216.0,32.0,28,13.0,97.0,25.0,29,4.0,296.0,16.0*7f
$GPGGA,130944,0550.4405,S,03512.6205,W,1,11,1.8,63.0,M,,,,*28
$GPGLL,0550.4405,S,03512.6205,W,130944,A*2f
$GPRMC,130944,A,0550.4405,S,03512.6205,W,27.80700560635665,343.59,190116,,*22
$GPGSA,A,3,2,5,6,12,13,15,17,19,,24,28,,,,,*06
$GPGLL,0550.4329,S,03512.6228,W,130945,A*28
$GPGSV,3,2,13,13,34.0,336.0,37.0,15,26.0,292.0,17.0,17,5.0,144.0,18.0,19,8.0,147.0,22.0*7b
$GPGSV,3,3,13,20,1.0,325.0,0.0,24,36.0,216.0,41.0,28,13.0,97.0,24.0,29,4.0,296.0,17.0*7b
$GPGGA,130947,0550.4170,S,03512.6274,W,1,11,1.8,62.3,M,,,,*28
$GPGLL,0550.4170,S,03512.6274,W,130947,A*2d
$GPRMC,130947,A,0550.4170,S,03512.6274,W,30.30435422383974,344.06,190116,,*25
$GPGSA,A,3,2,5,6,12,13,15,17,19,,24,28,,,,,*06
$GPGSV,3,1,13,10,51.0,263.0,24.0,14,29.0,350.0,36.0,15,27.0,126.0,34.0,16,13.0,232.0,27.0*70
$GPGLL,0550.3671,S,03512.9946,W,195243,A*29
$GPRMC,195243,A,0550.3671,S,03512.9946,W,12.526760023797165,159.81,200116,,*17
$GPGSA,A,3,10,14,15,16,18,,21,,,25,26,29,,,,*35
$GPGSV,3,1,13,10,51.0,263.0,37.0,14,29.0,350.0,35.0,15,27.0,126.0,35.0,16,13.0,232.0,34.0*72
$GPGLL,0550.3703,S,03512.9933,W,195244,A*28
$GPGSV,3,2,13,18,55.0,201.0,34.0,20,11.0,146.0,29.0,21,30.0,177.0,32.0,22,23.0,294.0,24.0*75
$GPGLL,0550.3767,S,03512.9915,W,195246,A*2c
$GPGSV,3,2,13,18,55.0,201.0,27.0,20,11.0,146.0,20.0,21,30.0,177.0,32.0,22,23.0,294.0,26.0*7c
$GPGSV,3,3,13,24,6.0,66.0,17.0,25,23.0,8.0,26.0,26,32.0,257.0,27.0,29,58.0,85.0,35.0*4a
$GPGSA,A,3,10,14,15,16,18,,21,,,25,26,29,,,,*35
$GPGSV,3,1,13,10,51.0,263.0,38.0,14,29.0,350.0,27.0,15,27.0,126.0,35.0,16,13.0,232.0,33.0*79
$GPGLL,0550.3825,S,03512.9924,W,195248,A*29
$GPGSV,3,1,13,10,51.0,263.0,31.0,14,29.0,350.0,37.0,15,27.0,126.0,26.0,16,13.0,232.0,32.0*72
$GPGLL,0550.3869,S,03512.9962,W,195250,A*2a
$GPGSV,3,2,13,18,55.0,201.0,28.0,20,11.0,146.0,16.0,21,30.0,177.0,28.0,22,23.0,294.0,37.0*7d
$GPGSV,3,3,13,24,6.0,66.0,15.0,25,23.0,8.0,33.0,26,32.0,257.0,26.0,29,58.0,85.0,37.0*4f
$GPGGA,195252,0550.3917,S,03513.0014,W,1,9,2.2,81.2,M,,,,*19
$GPGLL,0550.3917,S,03513.0014,W,195252,A*20
$GPGSV,3,2,13,18,55.0,201.0,28.0,20,11.0,146.0,16.0,21,30.0,177.0,29.0,22,23.0,294.0,35.0*7e
$GPGSV,3,2,13,18,55.0,201.0,28.0,20,11.0,146.0,17.0,21,30.0,177.0,29.0,22,23.0,294.0,34.0*7e
$GPGLL,0550.3968,S,03513.0074,W,195254,A*28
$GPGSV,3,2,13,18,55.0,201.0,30.0,20,11.0,146.0,18.0,21,30.0,177.0,32.0,22,23.0,294.0,33.0*75
$GPGSV,3,1,13,10,51.0,263.0,29.0,14,29.0,350.0,27.0,15,27.0,126.0,23.0,16,13.0,232.0,25.0*79
$GPGLL,0550.4026,S,03513.0135,W,195256,A*2a
$GPGSV,3,2,13,18,55.0,201.0,31.0,20,11.0,146.0,18.0,21,30.0,177.0,22.0,22,23.0,294.0,30.0*76
$GPGSV,3,3,13,24,6.0,66.0,16.0,25,23.0,8.0,32.0,26,32.0,257.0,25.0,29,58.0,85.0,37.0*4e
$GPGSA,A,3,10,14,15,16,18,,21,,,25,26,29,,,,*35
$GPGSV,3,1,13,10,47.0,228.0,33.0,14,49.0,355.0,27.0,15,14.0,138.0,25.0,16,21.0,252.0,32.0*71
$GPGGA,203727,0550.3501,S,03512.9699,W,1,10,2.3,72.6,M,,,,*23
$GPGSV,3,1,13,10,47.0,228.0,35.0,14,49.0,355.0,27.0,15,14.0,138.0,20.0,16,21.0,252.0,39.0*79
$GPGSV,3,2,13,18,40.0,179.0,39.0,21,34.0,154.0,34.0,22,30.0,272.0,38.0,24,7.0,85.0,0.0*42
$GPGSV,3,3,13,25,9.0,19.0,17.0,26,33.0,283.0,36.0,27,5.0,213.0,14.0,29,47.0,50.0,30.0*78
$GPGGA,203728,0550.3492,S,03512.9660,W,1,10,2.3,72.2,M,,,,*25
$GPGSV,3,1,13,10,47.0,228.0,36.0,14,49.0,355.0,28.0,15,14.0,138.0,21.0,16,21.0,252.0,37.0*7a
$GPGLL,0550.3479,S,03512.9618,W,203729,A*22
$GPGSV,3,1,13,10,47.0,228.0,36.0,14,49.0,355.0,28.0,15,14.0,138.0,25.0,16,21.0,252.0,36.0*7f
$GPGLL,0550.3469,S,03512.9575,W,203730,A*23
$GPGSV,3,1,13,10,47.0,228.0,36.0,14,49.0,355.0,29.0,15,14.0,138.0,25.0,16,21.0,252.0,35.0*7d
$GPGSV,3,2,13,18,40.0,179.0,38.0,21,34.0,154.0,34.0,22,30.0,272.0,32.0,24,7.0,85.0,0.0*49
$GPGSV,3,3,13,25,9.0,19.0,16.0,26,33.0,283.0,23.0,27,5.0,213.0,16.0,29,47.0,50.0,39.0*76
$GPGSA,A,3,10,14,15,16,18,21,22,,25,26,,29,,,,*35
$GPGLL,0553.1241,S,03512.0178,W,113434,A*2b
$GPRMC,113434,A,0553.1241,S,03512.0178,W,5.429930196086746,132.81,190116,,*2e
$GPGSA,A,3,2,5,6,7,,13,15,17,19,28,30,,,,,*37
$GPGSV,3,1,11,2,33.0,351.0,36.0,5,12.0,330.0,37.0,6,55.0,48.0,28.0,7,18.0,54.0,38.0*7d
$GPGLL,0553.1269,S,03512.0145,W,113436,A*2d
$GPGSV,3,2,11,12,3.0,252.0,14.0,13,55.0,272.0,36.0,15,21.0,243.0,30.0,17,39.0,165.0,40.0*43
$GPGSV,3,3,11,19,42.0,165.0,34.0,28,17.0,141.0,35.0,30,43.0,76.0,34.0*60
$GPGLL,0553.1286,S,03512.0128,W,113437,A*26
$GPGSV,3,2,11,12,3.0,252.0,14.0,13,55.0,272.0,38.0,15,21.0,243.0,26.0,17,39.0,165.0,39.0*44
$GPGSV,3,1,11,2,33.0,351.0,38.0,5,12.0,330.0,36.0,6,55.0,48.0,29.0,7,18.0,54.0,29.0*73
$GPGLL,0553.1318,S,03512.0090,W,113439,A*2c
$GPGSV,3,2,11,12,3.0,252.0,14.0,13,55.0,272.0,38.0,15,21.0,243.0,23.0,17,39.0,165.0,39.0*41
$GPGSV,3,3,11,19,42.0,165.0,37.0,28,17.0,141.0,38.0,30,43.0,76.0,36.0*6c
$GPGSA,A,3,2,5,6,7,,13,15,17,19,28,30,,,,,*37
$GPGLL,0549.6271,S,03512.4014,W,094550,A*26
$GPGSV,3,1,12,1,8.0,108.0,0.0,2,2.0,329.0,0.0,5,16.0,285.0,26.0,6,23.0,2.0,27.0*79
$GPGSV,3,2,12,7,32.0,103.0,31.0,9,29.0,28.0,25.0,11,5.0,127.0,20.0,13,28.0,216.0,33.0*7c
$GPGSV,3,3,12,17,89.0,52.0,42.0,19,85.0,30.0,38.0,28,33.0,186.0,35.0,30,40.0,143.0,25.0*74
$GPGSA,A,3,,,,6,7,9,11,13,17,19,28,30,,,,*0d
$GPGSV,3,1,12,1,8.0,108.0,21.0,2,2.0,329.0,0.0,5,16.0,285.0,25.0,6,23.0,2.0,34.0*4b
$GPGLL,0549.6248,S,03512.4079,W,094552,A*25
$GPGSV,3,2,12,7,32.0,103.0,32.0,9,29.0,28.0,35.0,11,5.0,127.0,20.0,13,28.0,216.0,31.0*7c
$GPGSV,3,3,12,17,89.0,52.0,42.0,19,85.0,30.0,38.0,28,33.0,186.0,34.0,30,40.0,143.0,26.0*76
$GPGGA,094554,0549.6237,S,03512.4112,W,1,9,3.0,52.5,M,,,,*14
$GPGLL,0549.6237,S,03512.4112,W,094554,A*27
$GPGSV,3,2,12,7,32.0,103.0,32.0,9,29.0,28.0,27.0,11,5.0,127.0,20.0,13,28.0,216.0,32.0*7c
$GPGSV,3,2,12,7,32.0,103.0,32.0,9,29.0,28.0,26.0,11,5.0,127.0,20.0,13,28.0,216.0,33.0*7c
$GPGSV,3,3,12,17,89.0,52.0,42.0,19,85.0,30.0,37.0,28,33.0,186.0,35.0,30,40.0,143.0,27.0*79
$GPGLL,0550.3651,S,03512.9844,W,203714,A*23
$GPGSV,3,2,13,18,40.0,179.0,26.0,21,34.0,154.0,27.0,22,30.0,272.0,33.0,24,7.0,85.0,0.0*45
$GPGSV,3,3,13,25,9.0,19.0,22.0,26,33.0,283.0,32.0,27,5.0,213.0,23.0,29,47.0,50.0,29.0*76
$GPGSA,A,3,10,14,,16,18,21,22,,25,26,,29,,,,*31
$GPGSV,3,1,13,10,47.0,228.0,41.0,14,49.0,355.0,28.0,15,14.0,138.0,18.0,16,21.0,252.0,38.0*7f
$GPGLL,0550.3626,S,03512.9837,W,203716,A*25
$GPGSV,3,2,13,18,40.0,179.0,24.0,21,34.0,154.0,19.0,22,30.0,272.0,31.0,24,7.0,85.0,0.0*48
$GPGLL,0550.3618,S,03512.9836,W,203718,A*27
$GPGSV,3,2,13,18,40.0,179.0,27.0,21,34.0,154.0,17.0,22,30.0,272.0,39.0,24,7.0,85.0,0.0*4d
$GPGSV,3,1,13,10,47.0,228.0,40.0,14,49.0,355.0,26.0,15,14.0,138.0,18.0,16,21.0,252.0,38.0*70
$GPGGA,203720,0550.3613,S,03512.9834,W,1,10,2.4,73.1,M,,,,*2c
$GPGLL,0550.3613,S,03512.9834,W,203720,A*25
$GPRMC,203720,A,0550.3613,S,03512.9834,W,0.0,21.18,200116,,*1c
$GPGSA,A,3,10,14,,16,18,21,22,,25,26,,29,,,,*31
$GPGSV,3,1,13,10,47.0,228.0,28.0,14,49.0,355.0,37.0,15,14.0,138.0,17.0,16,21.0,252.0,31.0*78
$GPGSV,3,2,13,18,40.0,179.0,24.0,21,34.0,154.0,19.0,22,30.0,272.0,38.0,24,7.0,85.0,0.0*41
$GPGSV,3,3,13,25,9.0,19.0,23.0,26,33.0,283.0,29.0,27,5.0,213.0,19.0,29,47.0,50.0,33.0*7f
$GPGGA,203722,0550.3592,S,03512.9827,W,1,9,2.4,73.0,M,,,,*1f
$GPGLL,0550.3592,S,03512.9827,W,203722,A*2f
$GPRMC,203722,A,0550.3592,S,03512.9827,W,5.623034414560018,29.45,200116,,*18
$GPGGA,203723,0550.3573,S,03512.9815,W,1,10,2.4,73.1,M,,,,*29
$GPGSV,3,2,13,18,40.0,179.0,23.0,21,34.0,154.0,19.0,22,30.0,272.0,36.0,24,7.0,85.0,0.0*48
$GPGSV,3,2,13,18,40.0,179.0,23.0,21,34.0,154.0,30.0,22,30.0,272.0,26.0,24,7.0,85.0,0.0*42
$GPGSV,3,3,13,25,9.0,19.0,21.0,26,33.0,283.0,27.0,27,5.0,213.0,0.0,29,47.0,50.0,43.0*4c
$GPGGA,203725,0550.3527,S,03512.9767,W,1,9,2.4,72.9,M,,,,*15
$GPGLL,0550.3527,S,03512.9767,W,203725,A*2d
$GPGSV,3,2,13,18,40.0,179.0,39.0,21,34.0,154.0,30.0,22,30.0,272.0,26.0,24,7.0,85.0,0.0*49
$GPGSV,3,3,13,25,9.0,19.0,20.0,26,33.0,283.0,27.0,27,5.0,213.0,26.0,29,47.0,50.0,42.0*78
$GPGSV,3,1,11,2,26.0,348.0,25.0,5,12.0,323.0,31.0,6,49.0,37.0,35.0,7,22.0,60.0,38.0*70
$GPGSV,3,2,11,12,2.0,259.0,12.0,13,54.0,257.0,43.0,15,18.0,236.0,37.0,17,47.0,167.0,33.0*4b
$GPGSV,3,3,11,19,50.0,166.0,35.0,28,19.0,149.0,31.0,30,45.0,87.0,39.0*66
$GPGSA,A,3,2,,6,7,,13,15,17,19,28,30,,,,,*02
$GPGSV,3,1,11,2,26.0,348.0,24.0,5,12.0,323.0,30.0,6,49.0,37.0,34.0,7,22.0,60.0,38.0*71
$GPGLL,0552.2399,S,03513.1412,W,111811,A*2d
$GPRMC,111811,A,0552.2399,S,03513.1412,W,41.74952985823517,204.37,190116,,*20
$GPGSV,3,2,11,12,2.0,259.0,12.0,13,54.0,257.0,43.0,15,18.0,236.0,36.0,17,47.0,167.0,35.0*4c
$GPGSV,3,1,11,2,26.0,348.0,25.0,5,12.0,323.0,30.0,6,49.0,37.0,35.0,7,22.0,60.0,36.0*7f
$GPGLL,0552.2820,S,03513.1610,W,111815,A*20
$GPRMC,111815,A,0552.2820,S,03513.1610,W,41.21224087181389,205.82,190116,,*23
$GPGSA,A,3,2,,6,7,,13,15,17,19,28,30,,,,,*02
$GPGSV,3,1,11,2,26.0,348.0,25.0,5,12.0,323.0,32.0,6,49.0,37.0,33.0,7,22.0,60.0,35.0*78
$GPGSV,3,2,11,12,2.0,259.0,13.0,13,54.0,257.0,43.0,15,18.0,236.0,33.0,17,47.0,167.0,33.0*4e
$GPGSV,3,1,13,10,50.0,273.0,22.0,14,24.0,348.0,22.0,15,31.0,120.0,21.0,16,10.0,228.0,0.0*4f
$GPGLL,0548.7609,S,03512.2661,W,193809,A*28
$GPRMC,193809,A,0548.7609,S,03512.2661,W,0.0,354.29,200116,,*22
$GPGSA,A,3,10,14,15,,18,,21,,,25,,,,,,*3d
$GPGSV,3,1,13,10,50.0,273.0,21.0,14,24.0,348.0,22.0,15,31.0,120.0,21.0,16,10.0,228.0,0.0*4c
$GPGSV,3,2,13,18,59.0,211.0,33.0,20,15.0,149.0,0.0,21,30.0,183.0,25.0,22,20.0,299.0,0.0*7a
$GPGSV,3,3,13,24,5.0,60.0,0.0,25,29.0,6.0,22.0,26,30.0,250.0,0.0,29,59.0,99.0,15.0*47
$GPGSV,3,2,13,18,59.0,211.0,32.0,20,15.0,149.0,0.0,21,30.0,183.0,25.0,22,20.0,299.0,0.0*7b
$GPGSV,3,3,13,24,5.0,60.0,0.0,25,29.0,6.0,20.0,26,30.0,250.0,0.0,29,59.0,99.0,16.0*46
$GPGSA,A,3,10,14,15,,18,,21,,,25,,,,,,*3d
$GPGSV,3,1,13,10,50.0,273.0,22.0,14,24.0,348.0,23.0,15,31.0,120.0,21.0,16,10.0,228.0,22.0*7e
$GPGSV,3,2,13,18,59.0,211.0,32.0,20,15.0,149.0,0.0,21,30.0,183.0,25.0,22,20.0,299.0,0.0*7b
$GPGLL,0548.7542,S,03512.2643,W,193814,A*28
$GPRMC,193814,A,0548.7542,S,03512.2643,W,0.0,354.29,200116,,*22
$GPGSV,3,2,13,18,59.0,211.0,33.0,20,15.0,149.0,0.0,21,30.0,183.0,28.0,22,20.0,299.0,0.0*77
$GPGLL,0548.7586,S,03512.2605,W,193827,A*22
$GPGSV,3,2,13,18,59.0,211.0,32.0,20,15.0,149.0,0.0,21,30.0,183.0,26.0,22,20.0,299.0,0.0*78
$GPGSV,3,1,13,10,50.0,273.0,21.0,14,24.0,348.0,22.0,15,31.0,120.0,16.0,16,10.0,228.0,19.0*70
$GPGLL,0548.7598,S,03512.2591,W,193829,A*2d
$GPGSV,3,2,13,18,59.0,211.0,21.0,20,15.0,149.0,0.0,21,30.0,183.0,23.0,22,20.0,299.0,0.0*7f
$GPGSV,3,3,13,24,5.0,60.0,0.0,25,29.0,6.0,19.0,26,31.0,250.0,0.0,29,59.0,99.0,17.0*4c
$GPGGA,193834,0548.7587,S,03512.2660,W,1,6,5.0,231.7,M,,,,*2d
$GPGLL,0548.7587,S,03512.2660,W,193834,A*22
$GPRMC,193834,A,0548.7587,S,03512.2660,W,0.0,293.06,200116,,*2f
$GPGSA,A,3,10,14,15,,18,,21,,,25,,,,,,*3d
$GPGSV,3,1,13,10,50.0,273.0,22.0,14,24.0,348.0,16.0,15,31.0,120.0,12.0,16,10.0,228.0,18.0*71
$GPGLL,0548.7568,S,03512.2703,W,193835,A*26
$GPGSV,3,1,13,10,50.0,273.0,22.0,14,24.0,348.0,15.0,15,31.0,120.0,13.0,16,10.0,228.0,17.0*7c
$GPGLL,0550.3289,S,03512.8887,W,203751,A*2d
$GPGSV,3,2,13,18,40.0,179.0,37.0,21,34.0,154.0,25.0,22,30.0,272.0,38.0,24,7.0,85.0,0.0*4c
$GPGSV,3,3,13,25,9.0,19.0,17.0,26,33.0,283.0,30.0,27,5.0,213.0,12.0,29,47.0,50.0,41.0*7e
$GPGGA,203753,0550.3266,S,03512.8786,W,1,9,2.2,60.4,M,,,,*10
$GPGLL,0550.3266,S,03512.8786,W,203753,A*20
$GPGSV,3,2,13,18,40.0,179.0,38.0,21,34.0,154.0,18.0,22,30.0,272.0,37.0,24,7.0,85.0,24.0*74
$GPGSV,3,3,13,25,9.0,19.0,17.0,26,33.0,283.0,30.0,27,5.0,213.0,12.0,29,47.0,50.0,41.0*7e
$GPGSV,3,1,13,10,47.0,228.0,39.0,14,49.0,355.0,30.0,15,14.0,138.0,20.0,16,21.0,252.0,38.0*72
$GPGLL,0550.3239,S,03512.8680,W,203755,A*2b
$GPRMC,203755,A,0550.3239,S,03512.8680,W,19.94176124721941,74.53,200116,,*17
$GPGSA,A,3,10,14,,16,18,21,22,,25,26,,29,,,,*31
$GPGSV,3,1,13,10,47.0,228.0,39.0,14,49.0,355.0,32.0,15,14.0,138.0,15.0,16,21.0,252.0,38.0*76
$GPGLL,0550.3227,S,03512.8624,W,203756,A*29
$GPGSV,3,2,13,18,40.0,179.0,41.0,21,34.0,154.0,36.0,22,30.0,272.0,30.0,24,7.0,85.0,21.0*74
$GPGLL,0550.3202,S,03512.8518,W,203758,A*2c
$GPRMC,203758,A,0550.3202,S,03512.8518,W,19.087300987254228,80.58,200116,,*23
$GPGSA,A,3,10,14,,16,18,21,22,,25,26,,29,,,,*31
$GPGSV,3,1,13,10,47.0,227.0,40.0,14,49.0,355.0,34.0,15,14.0,138.0,15.0,16,21.0,252.0,38.0*71
$GPGSV,3,1,13,10,47.0,227.0,38.0,14,49.0,355.0,42.0,15,14.0,138.0,13.0,16,21.0,252.0,38.0*79
$GPGSV,3,2,13,18,40.0,179.0,21.0,21,34.0,154.0,20.0,22,30.0,272.0,20.0,24,7.0,85.0,22.0*77
$GPGSV,3,3,13,25,9.0,19.0,18.0,26,33.0,283.0,32.0,27,5.0,213.0,11.0,29,47.0,50.0,36.0*70
$GPGSV,3,1,13,10,47.0,227.0,19.0,14,50.0,355.0,41.0,15,14.0,138.0,13.0,16,21.0,252.0,38.0*71
$GPGLL,0550.3178,S,03512.8358,W,203801,A*23
$GPRMC,203801,A,0550.3178,S,03512.8358,W,19.306419504860965,79.7,200116,,*1d
$GPGSA,A,3,10,14,15,16,18,21,22,,25,26,,29,,,,*35
$GPGSV,3,1,13,10,47.0,227.0,18.0,14,50.0,355.0,41.0,15,13.0,139.0,17.0,16,21.0,252.0,38.0*72
$GPGLL,0550.3169,S,03512.8305,W,203802,A*28
$GPGSV,3,1,13,10,47.0,227.0,33.0,14,50.0,355.0,40.0,15,13.0,139.0,18.0,16,21.0,253.0,38.0*74
$GPGSV,3,2,11,13,12.0,16.0,15.0,15,17.0,340.0,23.0,20,31.0,353.0,25.0,21,1.0,316.0,0.0*4a
$GPGSV,3,3,11,24,61.0,291.0,36.0,25,13.0,208.0,27.0,29,14.0,250.0,37.0*5e
$GPGSA,A,3,2,5,6,12,13,15,,,24,,29,,,,,*09
$GPGSV,3,1,11,2,44.0,162.0,31.0,5,46.0,58.0,33.0,6,7.0,147.0,27.0,12,41.0,178.0,29.0*41
$GPGLL,0550.3300,S,03511.7587,W,145529,A*20
$GPGSV,3,2,11,13,12.0,16.0,12.0,15,17.0,340.0,23.0,20,31.0,353.0,26.0,21,1.0,316.0,0.0*4e
$GPGSV,3,3,11,24,61.0,291.0,37.0,25,13.0,208.0,27.0,29,14.0,250.0,36.0*5e
$GPGLL,0550.3175,S,03511.7676,W,145531,A*24
$GPRMC,145531,A,0550.3175,S,03511.7676,W,27.240701027400846,325.62,190116,,*13
$GPGSA,A,3,2,5,6,12,13,15,,,24,,29,,,,,*09
$GPGSV,3,1,11,2,44.0,162.0,30.0,5,46.0,58.0,34.0,6,7.0,147.0,26.0,12,41.0,178.0,37.0*49
$GPGSV,3,1,11,2,44.0,162.0,30.0,5,46.0,58.0,34.0,6,7.0,147.0,28.0,12,41.0,178.0,37.0*47
$GPGLL,0550.3048,S,03511.7769,W,145533,A*26
$GPRMC,145533,A,0550.3048,S,03511.7769,W,27.436806539275178,323.83,190116,,*1d
$GPGLL,0553.4210,S,03511.9500,W,113526,A*29
$GPGSV,3,2,11,12,3.0,252.0,0.0,13,55.0,272.0,29.0,15,21.0,243.0,26.0,17,39.0,165.0,41.0*7e
$GPGSV,3,3,11,19,42.0,165.0,41.0,28,17.0,141.0,24.0,30,43.0,76.0,34.0*62
$GPGSA,A,3,2,5,6,7,,13,15,17,19,28,30,,,,,*37
$GPGSV,3,1,11,2,33.0,351.0,20.0,5,12.0,330.0,23.0,6,55.0,48.0,34.0,7,18.0,54.0,32.0*78
$GPGLL,0553.4274,S,03511.9490,W,113527,A*22
$GPGSV,3,2,11,12,3.0,252.0,0.0,13,55.0,272.0,28.0,15,21.0,243.0,26.0,17,39.0,165.0,41.0*7f
$GPGLL,0553.4406,S,03511.9468,W,113529,A*28
$GPRMC,113529,A,0553.4406,S,03511.9468,W,24.06698804762598,169.26,190116,,*27
$GPGSA,A,3,2,5,6,7,,13,15,17,19,,30,,,,,*3d
$GPGSV,3,1,11,2,34.0,351.0,22.0,5,12.0,330.0,23.0,6,55.0,48.0,31.0,7,18.0,54.0,36.0*7c
$GPGSV,3,1,11,2,34.0,351.0,29.0,5,12.0,330.0,23.0,6,55.0,48.0,24.0,7,18.0,54.0,26.0*72
$GPGLL,0553.4539,S,03511.9438,W,113531,A*29
$GPGSV,3,1,11,2,34.0,351.0,29.0,5,12.0,331.0,23.0,6,55.0,48.0,26.0,7,18.0,54.0,36.0*70
$GPGSV,3,1,13,10,47.0,227.0,28.0,14,50.0,355.0,40.0,15,13.0,139.0,16.0,16,21.0,253.0,22.0*7b
$GPGSV,3,2,13,18,39.0,178.0,33.0,21,34.0,152.0,34.0,22,30.0,272.0,29.0,24,7.0,85.0,23.0*70
$GPGSV,3,3,13,25,9.0,19.0,27.0,26,33.0,283.0,35.0,27,5.0,213.0,0.0,29,47.0,50.0,33.0*4e
$GPGGA,203808,0550.3115,S,03512.7973,W,1,10,2.1,51.9,M,,,,*29
$GPGSV,3,1,13,10,47.0,227.0,35.0,14,50.0,355.0,40.0,15,13.0,139.0,18.0,16,21.0,253.0,21.0*7a
$GPGGA,203809,0550.3108,S,03512.7915,W,1,10,2.1,51.1,M,,,,*2c
$GPGLL,0550.3108,S,03512.7915,W,203809,A*20
$GPGLL,0550.3101,S,03512.7858,W,203810,A*29
$GPRMC,203810,A,0550.3101,S,03512.7858,W,20.33297307569743,80.29,200116,,*19
$GPGSA,A,3,10,14,15,16,18,21,22,,25,26,,29,,,,*35
$GPGSV,3,1,13,10,47.0,227.0,25.0,14,50.0,355.0,40.0,15,13.0,139.0,20.0,16,21.0,253.0,23.0*72
$GPGLL,0550.3085,S,03512.7745,W,203812,A*25
$GPGSV,3,2,13,18,39.0,178.0,42.0,21,34.0,152.0,33.0,22,31.0,271.0,26.0,24,7.0,85.0,18.0*74
$GPGSA,A,3,10,14,,16,18,21,22,,25,26,,29,,,,*31
$GPGLL,0551.9003,S,03512.9755,W,130634,A*26
$GPRMC,130634,A,0551.9003,S,03512.9755,W,37.47922509515598,25.08,190116,,*17
$GPGSA,A,3,2,5,6,12,13,15,17,19,,24,28,,,,,*06
$GPGSV,3,1,13,2,77.0,10.0,38.0,5,21.0,6.0,31.0,6,50.0,131.0,33.0,12,12.0,215.0,40.0*71
$GPGLL,0551.8908,S,03512.9710,W,130635,A*25
$GPGSV,3,2,13,13,35.0,334.0,32.0,15,26.0,290.0,34.0,17,6.0,145.0,21.0,19,9.0,148.0,26.0*7c
$GPGSV,3,3,13,20,1.0,323.0,0.0,24,34.0,215.0,35.0,28,13.0,98.0,35.0,29,3.0,297.0,30.0*73
$GPGLL,0551.8719,S,03512.9620,W,130637,A*2b
$GPRMC,130637,A,0551.8719,S,03512.9620,W,37.387176779815505,25.95,190116,,*24
$GPGSA,A,3,2,5,6,12,13,15,17,19,,24,28,,,,,*06
$GPGSV,3,1,13,2,77.0,10.0,37.0,5,21.0,6.0,29.0,6,50.0,131.0,35.0,12,12.0,215.0,38.0*7e
$GPGSV,3,2,13,13,35.0,334.0,32.0,15,26.0,290.0,33.0,17,6.0,145.0,20.0,19,9.0,148.0,24.0*78
$GPGSV,3,3,13,20,1.0,323.0,0.0,24,34.0,215.0,35.0,28,13.0,98.0,37.0,29,3.0,297.0,18.0*7b
$GPGSA,A,3,2,5,6,12,13,15,17,19,,24,28,,,,,*06
$GPGLL,0550.2120,S,03512.6992,W,151310,A*22
$GPGSV,3,2,10,15,17.0,349.0,31.0,20,39.0,358.0,21.0,21,7.0,312.0,0.0,24,57.0,311.0,38.0*7a
$GPGSV,3,3,10,25,20.0,205.0,32.0,29,14.0,240.0,25.0*74
$GPGSA,A,3,2,5,12,13,15,20,,24,25,29,,,,,,*3a
$GPGSV,3,1,10,2,35.0,160.0,38.0,5,49.0,73.0,31.0,12,49.0,170.0,39.0,13,10.0,24.0,14.0*7e
$GPGLL,0550.2159,S,03512.7008,W,151312,A*25
$GPGSV,3,2,10,15,17.0,349.0,33.0,20,39.0,358.0,23.0,21,7.0,312.0,0.0,24,57.0,311.0,40.0*75
$GPGLL,0550.2197,S,03512.7023,W,151314,A*28
$GPGSV,3,2,10,15,17.0,349.0,35.0,20,39.0,358.0,29.0,21,7.0,312.0,16.0,24,57.0,311.0,36.0*4f
$GPGSV,3,3,10,25,20.0,205.0,23.0,29,14.0,240.0,28.0*79
$GPGSA,A,3,2,5,12,13,15,20,,24,,29,,,,,,*3d
$GPGSV,3,1,10,2,35.0,160.0,27.0,5,49.0,73.0,33.0,12,49.0,170.0,42.0,13,10.0,24.0,15.0*7f
$GPGLL,0550.2265,S,03512.7005,W,151316,A*20
$GPGSV,3,2,10,15,17.0,349.0,36.0,20,39.0,358.0,26.0,21,7.0,312.0,14.0,24,57.0,311.0,26.0*40
$GPGSV,1,1,4,10,0.0,0.0,20.0,15,0.0,0.0,26.0,18,0.0,0.0,26.0,29,0.0,0.0,35.0*4e
$GPGSV,1,1,4,10,0.0,0.0,20.0,15,0.0,0.0,26.0,18,0.0,0.0,27.0,29,0.0,0.0,35.0*4f
$GPGSV,1,1,4,10,0.0,0.0,20.0,15,0.0,0.0,27.0,18,0.0,0.0,26.0,29,0.0,0.0,35.0*4f
$GPGSV,1,1,4,10,0.0,0.0,19.0,15,0.0,0.0,26.0,18,0.0,0.0,24.0,29,0.0,0.0,26.0*44
$GPGSV,1,1,4,10,0.0,0.0,19.0,15,0.0,0.0,25.0,18,0.0,0.0,24.0,29,0.0,0.0,26.0*47
$GPGSV,1,1,4,10,0.0,0.0,18.0,15,0.0,0.0,25.0,18,0.0,0.0,25.0,29,0.0,0.0,26.0*47
$GPGSV,1,1,4,10,0.0,0.0,18.0,15,0.0,0.0,26.0,18,0.0,0.0,26.0,29,0.0,0.0,26.0*47
$GPGSV,1,1,4,10,0.0,0.0,18.0,15,0.0,0.0,25.0,18,0.0,0.0,26.0,29,0.0,0.0,26.0*44
$GPGSV,1,1,4,10,0.0,0.0,18.0,15,0.0,0.0,26.0,18,0.0,0.0,25.0,29,0.0,0.0,26.0*44
$GPGSV,1,1,4,10,0.0,0.0,18.0,15,0.0,0.0,27.0,18,0.0,0.0,23.0,29,0.0,0.0,24.0*41
$GPGSV,1,1,4,10,0.0,0.0,20.0,15,0.0,0.0,25.0,18,0.0,0.0,24.0,29,0.0,0.0,22.0*49
$GPGSV,1,1,4,10,0.0,0.0,21.0,15,0.0,0.0,23.0,18,0.0,0.0,25.0,29,0.0,0.0,21.0*4c
$GPGSV,1,1,4,10,0.0,0.0,22.0,15,0.0,0.0,22.0,18,0.0,0.0,25.0,29,0.0,0.0,20.0*4f
$GPGSV,1,1,4,10,0.0,0.0,22.0,15,0.0,0.0,21.0,18,0.0,0.0,17.0,29,0.0,0.0,19.0*47
$GPGSV,3,2,13,18,59.0,211.0,0.0,20,15.0,149.0,0.0,21,30.0,183.0,0.0,22,20.0,299.0,0.0*7d
$GPGSV,3,2,13,18,59.0,211.0,0.0,20,15.0,149.0,0.0,21,30.0,183.0,0.0,22,20.0,299.0,0.0*7d
$GPRMC,193945,A,0548.7179,S,03512.4077,W,4.12522633695793,337.87,200116,,*1e
$GPGSV,3,3,13,24,5.0,60.0,0.0,25,29.0,6.0,0.0,26,31.0,250.0,0.0,29,59.0,98.0,0.0*43
$GPGSA,A,1,,,,,,,,,,,,,,,,*32
$GPGSV,3,1,13,10,50.0,272.0,0.0,14,24.0,348.0,0.0,15,31.0,120.0,0.0,16,10.0,228.0,0.0*7d
$GPGSV,3,2,13,18,59.0,211.0,0.0,20,15.0,149.0,0.0,21,30.0,183.0,0.0,22,20.0,299.0,0.0*7d
$GPGSV,3,2,13,18,59.0,211.0,0.0,20,15.0,149.0,0.0,21,30.0,183.0,0.0,22,20.0,299.0,0.0*7d
$GPGSV,3,2,13,18,59.0,211.0,0.0,20,15.0,149.0,0.0,21,30.0,183.0,0.0,22,20.0,299.0,0.0*7d
$GPRMC,193945,A,0548.7179,S,03512.4077,W,4.12522633695793,337.87,200116,,*1e
$GPGSV,3,3,13,24,5.0,60.0,0.0,25,29.0,6.0,0.0,26,31.0,250.0,0.0,29,59.0,98.0,0.0*43
$GPGSV,3,3,13,24,5.0,60.0,0.0,25,29.0,6.0,0.0,26,31.0,250.0,0.0,29,59.0,98.0,0.0*43
$GPGSV,3,2,13,18,59.0,211.0,0.0,20,15.0,149.0,0.0,21,30.0,183.0,0.0,22,20.0,299.0,0.0*7d
$GPGSV,3,3,13,24,5.0,60.0,0.0,25,29.0,6.0,0.0,26,31.0,250.0,0.0,29,59.0,98.0,0.0*43
$GPGSV,3,2,13,18,59.0,211.0,0.0,20,15.0,149.0,0.0,21,30.0,183.0,0.0,22,20.0,299.0,0.0*7d
$GPGSV,3,2,13,18,58.0,209.0,0.0,20,15.0,149.0,0.0,21,30.0,183.0,0.0,22,20.0,299.0,0.0*75
$GPRMC,193945,A,0548.7179,S,03512.4077,W,4.12522633695793,337.87,200116,,*1e
$GPGSV,3,3,13,24,5.0,60.0,0.0,25,29.0,6.0,0.0,26,31.0,250.0,0.0,29,59.0,98.0,0.0*43
$GPGSV,3,2,13,18,58.0,209.0,0.0,20,14.0,149.0,0.0,21,30.0,183.0,0.0,22,20.0,299.0,0.0*74
$GPGSV,3,2,13,18,58.0,209.0,0.0,20,14.0,149.0,0.0,21,30.0,182.0,0.0,22,20.0,299.0,0.0*75
$GPGSV,3,2,13,18,58.0,209.0,0.0,20,14.0,149.0,0.0,21,30.0,182.0,0.0,22,20.0,299.0,0.0*75
$GPGSV,3,2,13,18,58.0,209.0,0.0,20,14.0,149.0,0.0,21,30.0,182.0,0.0,22,20.0,299.0,0.0*75
$GPRMC,193945,A,0548.7179,S,03512.4077,W,4.12522633695793,337.87,200116,,*1e
$GPGSV,3,3,13,24,5.0,61.0,0.0,25,29.0,6.0,0.0,26,31.0,250.0,0.0,29,59.0,98.0,0.0*42
$GPGSV,3,2,13,18,58.0,209.0,0.0,20,14.0,149.0,0.0,21,30.0,182.0,0.0,22,20.0,299.0,0.0*75
$GPGSV,3,3,13,24,5.0,61.0,0.0,25,28.0,6.0,0.0,26,31.0,250.0,0.0,29,59.0,98.0,0.0*43
$GPGSA,A,1,,,,,,,,,,,,,,,,*32
$GPGSV,3,1,13,10,50.0,272.0,0.0,14,25.0,348.0,0.0,15,30.0,121.0,0.0,16,10.0,228.0,0.0*7c
$GPGLL,0548.8660,S,03512.3425,W,194502,A*2a
$GPGSV,3,2,13,18,57.0,206.0,42.0,20,13.0,148.0,24.0,21,30.0,180.0,26.0,22,21.0,297.0,24.0*7c
$GPGSV,3,3,13,24,6.0,62.0,34.0,25,26.0,7.0,21.0,26,31.0,253.0,22.0,29,59.0,92.0,35.0*47
$GPGSA,A,3,10,,15,16,18,20,21,22,24,25,26,29,,,,*34
$GPGSV,3,1,13,10,51.0,269.0,38.0,14,26.0,349.0,36.0,15,29.0,123.0,33.0,16,11.0,230.0,30.0*7a
$GPGLL,0548.8744,S,03512.3456,W,194504,A*2f
$GPGSV,3,2,13,18,57.0,206.0,42.0,20,13.0,148.0,25.0,21,30.0,180.0,26.0,22,21.0,297.0,35.0*7d
$GPGSV,3,2,12,12,3.0,247.0,16.0,13,55.0,283.0,25.0,15,23.0,248.0,28.0,17,34.0,163.0,40.0*41
$GPGSV,3,1,12,2,38.0,353.0,43.0,5,13.0,334.0,30.0,6,58.0,57.0,38.0,7,14.0,50.0,33.0*76
$GPGLL,0556.0843,S,03514.3998,W,114630,A*25
$GPGSV,3,1,12,2,38.0,353.0,43.0,5,13.0,334.0,22.0,6,58.0,57.0,37.0,7,14.0,50.0,31.0*78
$GPGSV,3,1,12,2,38.0,353.0,43.0,5,13.0,334.0,23.0,6,58.0,57.0,37.0,7,14.0,50.0,30.0*78
$GPGGA,114632,0556.0793,S,03514.4056,W,1,10,1.9,48.7,M,,,,*20
$GPGSV,3,1,12,2,38.0,353.0,42.0,5,13.0,334.0,22.0,6,58.0,57.0,26.0,7,14.0,50.0,23.0*7a
$GPGLL,0556.0770,S,03514.4087,W,114633,A*29
$GPGSV,3,1,12,2,38.0,353.0,43.0,5,13.0,334.0,21.0,6,58.0,57.0,27.0,7,14.0,50.0,23.0*79
$GPGLL,0556.0747,S,03514.4119,W,114634,A*2c
$GPGSV,3,2,12,12,3.0,247.0,16.0,13,55.0,283.0,37.0,15,23.0,248.0,29.0,17,34.0,163.0,39.0*4d
$GPGSV,3,1,12,2,38.0,353.0,43.0,5,13.0,334.0,22.0,6,58.0,57.0,28.0,7,14.0,50.0,22.0*74
$GPGLL,0556.0698,S,03514.4185,W,114636,A*28
$GPGSV,3,2,12,12,3.0,247.0,17.0,13,55.0,283.0,25.0,15,23.0,248.0,26.0,17,34.0,163.0,38.0*41
$GPGLL,0556.0648,S,03514.4237,W,114638,A*21
$GPGSV,3,2,12,12,3.0,247.0,17.0,13,55.0,283.0,42.0,15,23.0,248.0,27.0,17,34.0,163.0,37.0*4e
$GPGSV,3,3,12,19,37.0,163.0,39.0,24,3.0,215.0,0.0,28,16.0,136.0,35.0,30,40.0,69.0,37.0*48
$GPGSA,A,3,2,5,6,7,,13,15,17,19,,28,30,,,,*37
$GPGSV,3,1,12,2,38.0,353.0,40.0,5,13.0,334.0,24.0,6,58.0,57.0,39.0,7,14.0,50.0,23.0*70
$GPGLL,0556.0610,S,03514.4274,W,114640,A*24
$GPGSV,3,2,12,12,3.0,247.0,17.0,13,55.0,283.0,42.0,15,23.0,248.0,26.0,17,34.0,163.0,37.0*4f
$GPGLL,0556.0567,S,03514.4319,W,114642,A*2f
$GPGSV,3,2,12,12,3.0,247.0,19.0,13,55.0,283.0,40.0,15,23.0,248.0,36.0,17,34.0,163.0,37.0*42
$GPGSV,3,1,12,2,38.0,353.0,35.0,5,13.0,334.0,32.0,6,58.0,57.0,38.0,7,14.0,50.0,26.0*71
$GPGLL,0556.0511,S,03514.4361,W,114644,A*27
$GPGSV,3,2,12,12,3.0,247.0,19.0,13,55.0,283.0,41.0,15,23.0,248.0,35.0,17,34.0,163.0,37.0*40
$GPGSV,3,1,12,2,38.0,353.0,37.0,5,13.0,334.0,22.0,6,58.0,57.0,36.0,7,14.0,50.0,26.0*7c
$GPGLL,0556.0449,S,03514.4414,W,114646,A*2c
$GPRMC,130656,A,0551.6977,S,03512.8798,W,38.311675252248534,24.93,190116,,*27
$GPGSA,A,3,2,5,6,12,13,15,17,19,,24,28,,,,,*06
$GPGSV,3,1,13,2,77.0,10.0,36.0,5,21.0,6.0,28.0,6,50.0,131.0,35.0,12,12.0,215.0,37.0*71
$GPGSV,3,2,13,13,35.0,334.0,31.0,15,26.0,290.0,31.0,17,6.0,145.0,18.0,19,9.0,148.0,28.0*7e
$GPGSV,3,3,13,20,1.0,323.0,0.0,24,34.0,215.0,36.0,28,13.0,98.0,33.0,29,3.0,297.0,17.0*73
$GPGSA,A,3,2,5,6,12,13,15,17,19,,24,28,,,,,*06
$GPGSV,3,1,13,2,77.0,10.0,35.0,5,21.0,6.0,35.0,6,50.0,131.0,36.0,12,12.0,215.0,38.0*72
$GPGLL,0551.6780,S,03512.8706,W,130658,A*28
$GPGSV,3,2,13,13,35.0,334.0,32.0,15,26.0,290.0,31.0,17,6.0,145.0,26.0,19,9.0,148.0,26.0*7e
$GPGSV,3,3,13,20,1.0,323.0,0.0,24,34.0,215.0,36.0,28,13.0,98.0,31.0,29,3.0,297.0,18.0*7e
$GPGGA,130700,0551.6580,S,03512.8612,W,1,11,1.8,52.9,M,,,,*2e
$GPGLL,0551.6580,S,03512.8612,W,130700,A*22
$GPGSV,3,2,13,13,35.0,334.0,33.0,15,26.0,290.0,31.0,17,6.0,145.0,30.0,19,9.0,148.0,25.0*7b
$GPGSV,3,1,13,2,77.0,10.0,37.0,5,21.0,6.0,33.0,6,50.0,131.0,34.0,12,12.0,215.0,37.0*7b
$GPGSV,3,2,11,12,1.0,260.0,0.0,13,54.0,255.0,37.0,15,17.0,235.0,26.0,17,48.0,167.0,43.0*74
$GPGSV,3,2,11,12,1.0,260.0,0.0,13,54.0,255.0,36.0,15,17.0,235.0,33.0,17,48.0,167.0,42.0*70
$GPGSV,3,3,11,19,51.0,166.0,37.0,28,19.0,150.0,42.0,30,45.0,89.0,41.0*68
$GPGGA,111459,0550.5168,S,03512.6411,W,1,6,2.7,127.6,M,,,,*2b
$GPGLL,0550.5168,S,03512.6411,W,111459,A*21
$GPGSV,3,2,11,12,1.0,260.0,0.0,13,54.0,255.0,37.0,15,17.0,235.0,33.0,17,48.0,167.0,41.0*72
$GPGSV,3,2,11,12,1.0,260.0,0.0,13,54.0,255.0,36.0,15,17.0,235.0,32.0,17,48.0,167.0,41.0*72
$GPGSV,3,2,11,12,1.0,260.0,0.0,13,54.0,255.0,36.0,15,17.0,235.0,33.0,17,48.0,167.0,42.0*70
$GPRMC,111502,A,0550.5549,S,03512.5778,W,0.0,59.9,190116,,*2a
$GPGSV,3,3,11,19,51.0,166.0,35.0,28,19.0,150.0,41.0,30,45.0,88.0,42.0*6b
$GPGSV,3,2,11,12,1.0,260.0,0.0,13,54.0,255.0,36.0,15,17.0,235.0,32.0,17,48.0,167.0,42.0*71
$GPGSV,3,2,11,12,1.0,260.0,0.0,13,54.0,255.0,36.0,15,17.0,235.0,32.0,17,48.0,167.0,42.0*71
$GPGSV,3,2,11,12,1.0,260.0,0.0,13,54.0,255.0,43.0,15,17.0,235.0,32.0,17,48.0,167.0,43.0*72
$GPGSV,3,2,11,12,1.0,260.0,0.0,13,54.0,255.0,43.0,15,17.0,235.0,32.0,17,48.0,167.0,42.0*73
$GPGSV,3,1,12,1,3.0,125.0,0.0,2,13.0,340.0,15.0,5,14.0,305.0,31.0,6,36.0,18.0,31.0*43
$GPGSV,3,2,12,7,29.0,79.0,26.0,9,12.0,27.0,26.0,13,44.0,230.0,34.0,15,7.0,224.0,0.0*75
$GPGSV,3,3,12,17,67.0,170.0,37.0,19,70.0,166.0,35.0,28,24.0,166.0,29.0,30,45.0,116.0,39.0*7f
$GPGSA,A,3,,2,5,6,7,9,13,,17,19,28,30,,,,*0a
$GPGSV,3,1,12,1,3.0,125.0,0.0,2,13.0,340.0,14.0,5,14.0,305.0,31.0,6,36.0,18.0,31.0*42
$GPGLL,0549.5925,S,03512.4350,W,103332,A*21
$GPGSV,3,2,12,7,29.0,79.0,25.0,9,12.0,27.0,25.0,13,44.0,230.0,33.0,15,7.0,224.0,0.0*72
$GPGSV,3,2,12,7,29.0,79.0,27.0,9,12.0,27.0,22.0,13,44.0,230.0,32.0,15,7.0,224.0,0.0*76
$GPGSV,3,3,12,17,67.0,170.0,35.0,19,70.0,166.0,29.0,28,24.0,166.0,29.0,30,45.0,116.0,38.0*71
$GPGSA,A,3,,2,5,6,7,9,13,,17,19,28,30,,,,*0a
$GPGSV,3,1,12,1,3.0,125.0,0.0,2,13.0,340.0,25.0,5,14.0,305.0,29.0,6,36.0,18.0,34.0*4c
$GPGLL,0549.5960,S,03512.4375,W,103336,A*23
$GPRMC,103336,A,0549.5960,S,03512.4375,W,6.971762187023223,202.16,200116,,*21
$GPGSV,3,1,12,1,3.0,125.0,0.0,2,13.0,340.0,26.0,5,14.0,305.0,28.0,6,36.0,18.0,34.0*4e
$GPGSV,3,1,13,2,78.0,12.0,36.0,5,21.0,7.0,30.0,6,50.0,132.0,37.0,12,12.0,215.0,31.0*73
$GPGSV,3,2,13,13,35.0,335.0,40.0,15,26.0,291.0,27.0,17,6.0,144.0,20.0,19,9.0,147.0,19.0*78
$GPGSV,3,3,13,20,1.0,324.0,0.0,24,35.0,215.0,36.0,28,13.0,97.0,24.0,29,4.0,297.0,17.0*7b
$GPGGA,130903,0550.6493,S,03512.5329,W,1,11,1.8,53.7,M,,,,*2e
$GPGLL,0550.6493,S,03512.5329,W,130903,A*2d
$GPRMC,130903,A,0550.6493,S,03512.5329,W,5.220817534645682,352.21,190116,,*21
$GPGSA,A,3,2,5,6,12,13,15,17,19,,24,28,,,,,*06
$GPGSV,3,2,13,13,35.0,335.0,41.0,15,26.0,291.0,26.0,17,6.0,144.0,19.0,19,9.0,147.0,19.0*72
$GPGSV,3,3,13,20,1.0,324.0,0.0,24,35.0,215.0,38.0,28,13.0,97.0,24.0,29,4.0,297.0,17.0*75
$GPGGA,130904,0550.6484,S,03512.5333,W,1,11,1.8,51.9,M,,,,*28
$GPGLL,0550.6484,S,03512.5333,W,130904,A*27
$GPRMC,130904,A,0550.6484,S,03512.5333,W,2.3032428864959695,352.21,190116,,*12
$GPGSA,A,3,2,5,6,12,13,15,17,19,,24,28,,,,,*06
$GPGSV,3,1,13,2,78.0,12.0,30.0,5,21.0,7.0,24.0,6,50.0,132.0,35.0,12,12.0,215.0,33.0*70
$GPGSV,3,2,13,18,56.0,204.0,37.0,20,12.0,147.0,22.0,21,30.0,179.0,25.0,22,22.0,296.0,23.0*75
$GPGSV,3,3,13,24,6.0,64.0,28.0,25,25.0,8.0,23.0,26,32.0,255.0,29.0,29,58.0,89.0,40.0*45
$GPGSA,A,3,10,14,15,16,18,,21,,,25,26,29,,,,*35
$GPGSV,3,1,13,10,51.0,266.0,38.0,14,28.0,349.0,35.0,15,28.0,124.0,38.0,16,12.0,231.0,31.0*76
$GPGLL,0549.8083,S,03512.7012,W,194825,A*2c
$GPRMC,194825,A,0549.8083,S,03512.7012,W,25.630832458678295,199.98,200116,,*1a
$GPGSA,A,3,10,14,15,16,18,,21,,,25,26,29,,,,*35
$GPGLL,0549.8216,S,03512.7061,W,194827,A*24
$GPRMC,194827,A,0549.8216,S,03512.7061,W,25.36468873433611,200.79,200116,,*2d
$GPGSA,A,3,10,14,15,16,18,,21,,,25,26,29,,,,*35
$GPGSV,3,1,13,10,51.0,266.0,40.0,14,28.0,349.0,20.0,15,28.0,124.0,38.0,16,12.0,231.0,18.0*76
$GPGLL,0549.8346,S,03512.7109,W,194829,A*21
$GPRMC,194829,A,0549.8346,S,03512.7109,W,23.936918405753232,199.7,200116,,*2a
$GPGSA,A,3,10,14,15,16,18,,21,,,25,26,29,,,,*35
$GPGLL,0550.6459,S,03512.5340,W,130907,A*20
$GPRMC,130907,A,0550.6459,S,03512.5340,W,4.216275457027767,333.14,190116,,*2b
$GPGSA,A,3,2,5,6,12,13,15,17,19,,24,28,,,,,*06
$GPGSV,3,1,13,2,78.0,12.0,33.0,5,21.0,7.0,33.0,6,50.0,132.0,33.0,12,12.0,215.0,40.0*77
$GPGSV,3,1,13,2,78.0,12.0,32.0,5,21.0,7.0,33.0,6,50.0,132.0,24.0,12,12.0,215.0,27.0*71
$GPGGA,130908,0550.6445,S,03512.5345,W,1,11,1.9,50.3,M,,,,*22
$GPGLL,0550.6445,S,03512.5345,W,130908,A*27
$GPGSV,3,1,13,2,79.0,14.0,39.0,5,21.0,7.0,42.0,6,50.0,132.0,34.0,12,12.0,215.0,37.0*7b
$GPGLL,0550.6327,S,03512.5374,W,130912,A*2d
$GPRMC,130912,A,0550.6327,S,03512.5374,W,14.158640549186911,335.85,190116,,*19
$GPGSA,A,3,2,5,6,12,13,15,17,19,,24,28,,,,,*06
$GPGSV,3,1,13,2,79.0,14.0,39.0,5,21.0,7.0,41.0,6,50.0,132.0,35.0,12,12.0,215.0,27.0*78
$GPGLL,0550.6290,S,03512.5390,W,130913,A*2b
$GPRMC,130913,A,0550.6290,S,03512.5390,W,15.630435718001461,334.58,190116,,*14
$GPGSV,3,2,13,18,55.0,202.0,43.0,20,11.0,147.0,14.0,21,30.0,178.0,34.0,22,23.0,295.0,26.0*73
$GPGSV,3,1,13,10,51.0,263.0,38.0,14,29.0,349.0,36.0,15,28.0,125.0,36.0,16,13.0,232.0,31.0*7c
$GPGLL,0550.1898,S,03512.9494,W,195131,A*26
$GPGSV,3,2,13,18,55.0,202.0,43.0,20,11.0,147.0,14.0,21,30.0,178.0,34.0,22,23.0,295.0,28.0*7d
$GPGSV,3,3,13,24,6.0,65.0,12.0,25,24.0,8.0,16.0,26,32.0,256.0,37.0,29,58.0,87.0,29.0*47
$GPGSA,A,3,10,14,15,16,18,,21,,,25,26,29,,,,*35
$GPGSV,3,1,13,10,51.0,263.0,39.0,14,29.0,349.0,34.0,15,28.0,125.0,19.0,16,13.0,232.0,28.0*7a
$GPGSV,3,2,13,18,55.0,202.0,42.0,20,11.0,147.0,15.0,21,30.0,178.0,35.0,22,23.0,295.0,27.0*73
$GPGLL,0550.1994,S,03512.9463,W,195133,A*21
$GPRMC,195133,A,0550.1994,S,03512.9463,W,18.019724796484432,163.94,200116,,*1e
$GPGSA,A,3,10,14,15,16,18,,21,,,25,26,29,,,,*35
$GPGSV,3,1,13,10,51.0,263.0,39.0,14,29.0,349.0,34.0,15,28.0,125.0,18.0,16,13.0,232.0,23.0*70
$GPGSV,3,2,13,18,55.0,202.0,42.0,20,11.0,147.0,16.0,21,30.0,178.0,36.0,22,23.0,295.0,28.0*7c
$GPGSV,3,3,13,24,6.0,65.0,12.0,25,24.0,8.0,13.0,26,32.0,256.0,37.0,29,58.0,87.0,27.0*4c
$GPGSV,3,2,11,12,2.0,258.0,0.0,13,55.0,260.0,38.0,15,19.0,238.0,32.0,17,45.0,167.0,39.0*72
$GPGSV,3,3,11,19,48.0,166.0,41.0,28,18.0,147.0,35.0,30,44.0,84.0,39.0*65
$GPGSA,A,3,2,5,6,7,,13,15,17,19,28,30,,,,,*37
$GPGSV,3,1,11,2,28.0,349.0,40.0,5,12.0,324.0,20.0,6,51.0,39.0,29.0,7,21.0,59.0,34.0*74
$GPGLL,0552.5359,S,03512.8679,W,112158,A*26
$GPGSV,3,2,11,12,2.0,258.0,0.0,13,55.0,260.0,38.0,15,19.0,238.0,30.0,17,45.0,167.0,41.0*7f
$GPGSV,3,1,11,2,28.0,349.0,30.0,5,12.0,324.0,11.0,6,51.0,39.0,30.0,7,21.0,59.0,33.0*7e
$GPGLL,0552.5417,S,03512.8584,W,112200,A*24
$GPGSV,3,1,11,2,28.0,349.0,41.0,5,12.0,324.0,10.0,6,51.0,39.0,30.0,7,21.0,59.0,33.0*79
$GPGSV,3,2,11,12,2.0,258.0,0.0,13,55.0,260.0,39.0,15,19.0,238.0,27.0,17,45.0,167.0,41.0*78
$GPGSV,3,3,11,19,48.0,166.0,43.0,28,18.0,147.0,32.0,30,44.0,84.0,39.0*60
$GPGSA,A,3,2,5,6,7,,13,15,17,19,28,30,,,,,*37
$GPGSV,3,1,11,2,28.0,349.0,40.0,5,12.0,324.0,14.0,6,51.0,39.0,31.0,7,21.0,59.0,33.0*7d
$GPGLL,0552.5475,S,03512.8481,W,112202,A*26
$GPGSV,3,1,13,10,51.0,267.0,38.0,14,27.0,349.0,35.0,15,29.0,124.0,40.0,16,12.0,230.0,30.0*76
$GPGLL,0549.2349,S,03512.4795,W,194651,A*25
$GPRMC,194651,A,0549.2349,S,03512.4795,W,0.0,202.5,200116,,*13
$GPGSA,A,3,10,14,15,16,18,20,21,,,25,26,29,,,,*37
$GPGSV,3,1,13,10,51.0,267.0,39.0,14,27.0,349.0,35.0,15,29.0,124.0,40.0,16,12.0,230.0,31.0*76
$GPGLL,0549.2349,S,03512.4795,W,194652,A*26
$GPGSV,3,2,13,18,57.0,205.0,37.0,20,12.0,147.0,26.0,21,30.0,179.0,31.0,22,22.0,296.0,0.0*45
$GPGLL,0549.2446,S,03512.4832,W,194657,A*29
$GPGSV,3,2,13,18,57.0,205.0,29.0,20,12.0,147.0,20.0,21,30.0,179.0,22.0,22,22.0,296.0,0.0*4e
$GPGSV,3,3,13,24,6.0,63.0,0.0,25,26.0,7.0,34.0,26,32.0,254.0,29.0,29,59.0,90.0,43.0*79
$GPGSA,A,3,10,14,15,16,18,20,21,,,25,26,29,,,,*37
$GPGSV,3,1,13,10,51.0,267.0,35.0,14,27.0,349.0,37.0,15,29.0,124.0,38.0,16,12.0,230.0,22.0*75
$GPGLL,0549.2530,S,03512.4863,W,194659,A*23
$GPGSV,3,2,13,18,57.0,205.0,31.0,20,12.0,147.0,17.0,21,30.0,179.0,30.0,22,22.0,296.0,0.0*40
$GPGLL,0549.3040,S,03512.5058,W,194709,A*25
$GPGSV,3,2,13,18,57.0,205.0,31.0,20,12.0,147.0,25.0,21,30.0,179.0,30.0,22,22.0,296.0,0.0*41
$GPGSV,3,1,13,10,51.0,267.0,40.0,14,27.0,349.0,39.0,15,29.0,124.0,25.0,16,12.0,230.0,18.0*7c
$GPGLL,0549.3159,S,03512.5102,W,194711,A*2b
$GPGSV,3,2,13,18,57.0,205.0,31.0,20,12.0,147.0,26.0,21,30.0,179.0,30.0,22,22.0,296.0,0.0*42
$GPGSV,3,3,13,24,6.0,63.0,0.0,25,26.0,7.0,28.0,26,32.0,254.0,29.0,29,59.0,90.0,41.0*76
$GPGSA,A,3,10,14,15,16,18,20,21,,,25,26,29,,,,*37
$GPGLL,0549.3283,S,03512.5146,W,194713,A*2d
$GPRMC,194713,A,0549.3283,S,03512.5146,W,23.935917356688023,199.59,200116,,*15
$GPGSA,A,3,10,14,15,16,18,20,21,,,25,26,29,,,,*37
$GPGSV,3,1,13,10,51.0,267.0,40.0,14,27.0,349.0,38.0,15,29.0,124.0,39.0,16,12.0,230.0,15.0*7d
$GPGSV,3,1,13,10,51.0,267.0,41.0,14,27.0,349.0,39.0,15,29.0,124.0,39.0,16,12.0,230.0,14.0*7c
$GPGLL,0549.3411,S,03512.5192,W,194715,A*2f
$GPRMC,194715,A,0549.3411,S,03512.5192,W,24.480211832771197,200.3,200116,,*22
$GPGSV,3,1,10,2,35.0,160.0,34.0,5,49.0,71.0,37.0,12,48.0,171.0,36.0,13,10.0,24.0,17.0*7a
$GPGLL,0549.9478,S,03512.5442,W,151018,A*21
$GPRMC,151018,A,0549.9478,S,03512.5442,W,6.044261957740488,154.26,200116,,*29
$GPGSA,A,3,2,5,12,13,15,20,,24,25,29,,,,,,*3a
$GPGSV,3,1,10,2,35.0,160.0,34.0,5,49.0,71.0,36.0,12,48.0,171.0,29.0,13,10.0,24.0,17.0*75
$GPGLL,0549.9496,S,03512.5437,W,151019,A*22
$GPGSV,3,2,10,15,17.0,348.0,23.0,20,38.0,357.0,37.0,21,6.0,312.0,18.0,24,57.0,309.0,35.0*4d
$GPGLL,0549.9547,S,03512.5448,W,151021,A*2c
$GPRMC,151021,A,0549.9547,S,03512.5448,W,10.67676202986589,199.98,200116,,*2b
$GPGSA,A,3,2,5,12,13,15,20,,24,25,29,,,,,,*3a
$GPGSV,3,1,10,2,35.0,160.0,31.0,5,49.0,71.0,30.0,12,48.0,171.0,34.0,13,10.0,24.0,29.0*77
$GPGSV,3,1,10,2,35.0,160.0,31.0,5,49.0,71.0,32.0,12,48.0,171.0,24.0,13,10.0,24.0,36.0*7a
$GPGLL,0549.9615,S,03512.5475,W,151023,A*24
$GPRMC,151023,A,0549.9615,S,03512.5475,W,13.947526716512714,198.74,200116,,*19
$GPGSV,1,1,1,10,0.0,0.0,34.0*50
$GPGSV,1,1,1,10,0.0,0.0,34.0*50
$GPGSV,1,1,1,10,0.0,0.0,35.0*51
$GPGSV,1,1,1,10,0.0,0.0,35.0*51
$GPGSV,1,1,1,10,0.0,0.0,35.0*51
$GPGSV,1,1,1,10,0.0,0.0,33.0*57
$GPGSV,1,1,1,10,0.0,0.0,34.0*50
$GPGSA,A,1,,,,,,,,,,,,,,,,*32
$GPGSV,1,1,1,10,0.0,0.0,35.0*51
$GPGSV,1,1,1,10,0.0,0.0,20.0*55
$GPGSV,1,1,1,10,0.0,0.0,19.0*5f
$GPGSV,1,1,1,10,0.0,0.0,19.0*5f
$GPGSV,1,1,1,10,0.0,0.0,18.0*5e
$GPGSV,1,1,1,10,0.0,0.0,18.0*5e
$GPGSV,1,1,1,10,0.0,0.0,30.0*54
$GPGSV,1,1,1,10,0.0,0.0,31.0*55
$GPGSV,1,1,1,10,0.0,0.0,32.0*56
$GPGSV,1,1,1,10,0.0,0.0,32.0*56
$GPGSV,1,1,1,10,0.0,0.0,33.0*57
$GPGSV,1,1,1,10,0.0,0.0,33.0*57
$GPGSV,1,1,1,10,0.0,0.0,32.0*56
$GPGSV,1,1,1,10,0.0,0.0,24.0*51
$GPGSV,1,1,1,10,0.0,0.0,22.0*57
$GPGSV,1,1,1,10,0.0,0.0,20.0*55
$GPGSV,1,1,1,10,0.0,0.0,18.0*5e
$GPGSV,1,1,1,10,0.0,0.0,18.0*5e
$GPGSA,A,1,,,,,,,,,,,,,,,,*32
$GPGSV,1,1,1,10,0.0,0.0,35.0*51
$GPGSV,3,2,12,13,36.0,333.0,41.0,15,27.0,289.0,40.0,17,7.0,146.0,20.0,19,10.0,148.0,30.0*4b
$GPGSV,3,3,12,24,33.0,215.0,27.0,28,13.0,99.0,13.0,29,3.0,298.0,20.0,30,16.0,39.0,35.0*44
$GPGSA,A,3,2,5,6,12,13,15,17,19,24,28,,30,,,,*05
$GPGSV,3,1,12,2,76.0,9.0,41.0,5,21.0,5.0,44.0,6,51.0,130.0,29.0,12,11.0,216.0,22.0*49
$GPGLL,0552.4219,S,03513.0478,W,130521,A*22
$GPRMC,130521,A,0552.4219,S,03513.0478,W,23.70379261641184,299.23,190116,,*28
$GPGSA,A,3,2,5,6,12,13,15,17,19,24,,,30,,,,*0f
$GPGSV,3,1,12,2,76.0,9.0,42.0,5,21.0,5.0,44.0,6,51.0,130.0,30.0,12,11.0,216.0,29.0*49
$GPGLL,0552.4152,S,03513.0592,W,130523,A*29
$GPRMC,130523,A,0552.4152,S,03513.0592,W,24.51623106117305,299.33,190116,,*21
$GPGSA,A,3,2,5,6,12,13,15,17,19,24,,,30,,,,*0f
$GPGSV,3,1,12,2,77.0,10.0,42.0,5,21.0,5.0,43.0,6,51.0,130.0,29.0,12,11.0,216.0,18.0*7d
$GPGLL,0552.4117,S,03513.0652,W,130524,A*20
$GPGSV,3,2,12,13,36.0,333.0,42.0,15,27.0,289.0,41.0,17,7.0,146.0,29.0,19,10.0,148.0,30.0*40
$GPGSV,3,1,13,10,51.0,267.0,36.0,14,27.0,349.0,32.0,15,29.0,124.0,41.0,16,11.0,230.0,19.0*76
$GPGSV,3,2,13,18,57.0,206.0,39.0,20,13.0,148.0,16.0,21,30.0,180.0,32.0,22,21.0,297.0,0.0*42
$GPGSV,3,3,13,24,6.0,62.0,0.0,25,26.0,7.0,25.0,26,31.0,253.0,24.0,29,59.0,92.0,35.0*72
$GPGSA,A,3,10,14,15,16,18,20,21,,,25,26,29,,,,*37
$GPGSV,3,1,13,10,51.0,267.0,37.0,14,27.0,349.0,31.0,15,29.0,124.0,40.0,16,12.0,230.0,18.0*77
$GPGLL,0549.0965,S,03512.4277,W,194555,A*2d
$GPGSV,3,2,13,18,57.0,206.0,29.0,20,13.0,148.0,13.0,21,30.0,180.0,31.0,22,21.0,297.0,0.0*45
$GPGSV,3,2,13,18,57.0,205.0,37.0,20,13.0,148.0,27.0,21,30.0,180.0,32.0,22,21.0,297.0,0.0*4d
$GPGSV,3,2,13,18,57.0,205.0,37.0,20,13.0,148.0,23.0,21,30.0,180.0,25.0,22,21.0,297.0,0.0*4f
$GPGSV,3,3,13,24,6.0,62.0,0.0,25,26.0,7.0,19.0,26,31.0,253.0,32.0,29,59.0,92.0,35.0*7a
$GPGSA,A,3,10,14,15,16,18,20,21,,,25,26,29,,,,*37
$GPGSV,3,1,13,10,51.0,267.0,30.0,14,27.0,349.0,19.0,15,29.0,124.0,18.0,16,12.0,230.0,27.0*7b
$GPGLL,0549.1186,S,03512.4355,W,194559,A*24
$GPGSV,3,2,13,18,57.0,205.0,35.0,20,12.0,147.0,15.0,21,30.0,179.0,27.0,22,21.0,297.0,0.0*42
$GPGSA,A,1,,,,,,,,,,,,,,,,*32
$GPGSV,3,1,13,10,50.0,270.0,0.0,14,26.0,348.0,0.0,15,30.0,122.0,0.0,16,11.0,229.0,0.0*7e
$GPGSV,3,2,13,18,58.0,208.0,0.0,20,14.0,148.0,0.0,21,30.0,181.0,0.0,22,21.0,298.0,0.0*76
$GPGSV,3,3,13,24,5.0,62.0,0.0,25,27.0,6.0,0.0,26,31.0,252.0,0.0,29,59.0,94.0,0.0*41
$GPGSV,3,2,13,18,58.0,208.0,0.0,20,14.0,148.0,0.0,21,30.0,181.0,0.0,22,21.0,298.0,0.0*76
$GPGSV,3,2,13,18,58.0,208.0,0.0,20,14.0,148.0,0.0,21,30.0,181.0,0.0,22,21.0,298.0,0.0*76
$GPGSV,3,2,13,18,58.0,208.0,0.0,20,14.0,148.0,0.0,21,30.0,181.0,0.0,22,21.0,298.0,0.0*76
$GPGSV,3,2,13,18,58.0,208.0,0.0,20,14.0,148.0,0.0,21,30.0,181.0,0.0,22,21.0,298.0,0.0*76
$GPRMC,193945,A,0548.7179,S,03512.4077,W,4.12522633695793,337.87,200116,,*1e
$GPGSV,3,3,13,24,5.0,62.0,0.0,25,27.0,6.0,0.0,26,31.0,252.0,0.0,29,59.0,94.0,0.0*41
$GPGSA,A,1,,,,,,,,,,,,,,,,*32
$GPGSV,3,2,13,18,58.0,208.0,0.0,20,14.0,148.0,0.0,21,30.0,181.0,0.0,22,21.0,298.0,0.0*76
$GPGSV,3,2,13,18,58.0,208.0,0.0,20,14.0,148.0,0.0,21,30.0,181.0,0.0,22,21.0,298.0,0.0*76
$GPGSV,3,2,13,18,58.0,208.0,0.0,20,14.0,148.0,0.0,21,30.0,181.0,0.0,22,21.0,298.0,0.0*76
$GPGLL,0553.1241,S,03512.0188,W,113426,A*27
$GPGSV,3,2,11,12,3.0,252.0,13.0,13,55.0,272.0,37.0,15,21.0,243.0,35.0,17,39.0,165.0,35.0*42
$GPGSV,3,3,11,19,42.0,165.0,32.0,28,17.0,141.0,38.0,30,43.0,76.0,30.0*6f
$GPGSA,A,3,2,5,6,7,,13,15,17,19,28,30,,,,,*37
$GPGSV,3,1,11,2,33.0,351.0,37.0,5,12.0,330.0,37.0,6,55.0,48.0,30.0,7,18.0,54.0,38.0*75
$GPGLL,0553.1241,S,03512.0188,W,113428,A*29
$GPGSV,3,2,11,12,3.0,252.0,15.0,13,55.0,272.0,37.0,15,21.0,243.0,35.0,17,39.0,165.0,38.0*49
$GPGLL,0553.1241,S,03512.0188,W,113430,A*20
$GPGSV,3,2,11,12,3.0,252.0,17.0,13,55.0,272.0,36.0,15,21.0,243.0,35.0,17,39.0,165.0,39.0*4b
$GPGSV,3,3,11,19,42.0,165.0,33.0,28,17.0,141.0,38.0,30,43.0,76.0,29.0*66
$GPGSA,A,3,2,5,6,7,,13,15,17,19,28,30,,,,,*37
$GPGSV,3,1,11,2,33.0,351.0,36.0,5,12.0,330.0,38.0,6,55.0,48.0,31.0,7,18.0,54.0,30.0*72
$GPGLL,0553.1241,S,03512.0188,W,113432,A*22
$GPGSV,3,1,11,2,33.0,351.0,36.0,5,12.0,330.0,38.0,6,55.0,48.0,29.0,7,18.0,54.0,31.0*7a
$GPGGA,125612,0553.1331,S,03512.0025,W,1,11,1.7,48.1,M,,,,*27
$GPGLL,0553.1331,S,03512.0025,W,125612,A*27
$GPRMC,125612,A,0553.1331,S,03512.0025,W,15.802527175078183,323.08,190116,,*1c
$GPGSA,A,3,2,5,6,12,13,15,17,19,24,28,,30,,,,*05
$GPGSV,3,1,12,2,72.0,5.0,40.0,5,19.0,2.0,39.0,6,54.0,125.0,35.0,12,10.0,219.0,20.0*46
$GPGLL,0553.1296,S,03512.0056,W,125613,A*2e
$GPGSV,3,2,12,13,38.0,330.0,38.0,15,27.0,285.0,33.0,17,9.0,148.0,32.0,19,12.0,150.0,40.0*4f
$GPGSV,3,2,12,13,38.0,330.0,40.0,15,27.0,285.0,33.0,17,9.0,148.0,33.0,19,12.0,150.0,39.0*4f
$GPGSV,3,2,12,13,38.0,330.0,40.0,15,27.0,285.0,34.0,17,9.0,148.0,34.0,19,12.0,150.0,38.0*4e
$GPGSV,3,3,12,24,30.0,214.0,34.0,28,14.0,104.0,25.0,29,1.0,302.0,0.0,30,19.0,41.0,20.0*45
$GPGSA,A,3,2,5,6,12,13,15,17,19,24,28,,30,,,,*05
$GPGSV,3,1,12,2,72.0,5.0,38.0,5,19.0,2.0,37.0,6,54.0,125.0,39.0,12,10.0,219.0,20.0*4b
$GPGGA,125617,0553.1173,S,03512.0191,W,1,11,1.7,47.5,M,,,,*23
$GPGLL,0553.1173,S,03512.0191,W,125617,A*28
$GPGLL,0549.9243,S,03512.7367,W,194846,A*27
$GPGSV,3,1,13,10,51.0,266.0,39.0,14,28.0,349.0,40.0,15,28.0,124.0,28.0,16,12.0,231.0,30.0*75
$GPGSV,3,2,13,18,56.0,204.0,24.0,20,12.0,147.0,27.0,21,30.0,179.0,28.0,22,22.0,296.0,32.0*7f
$GPGSV,3,1,13,10,51.0,266.0,39.0,14,28.0,349.0,40.0,15,28.0,124.0,29.0,16,12.0,231.0,29.0*7c
$GPGLL,0549.9321,S,03512.7384,W,194848,A*21
$GPGSV,3,2,13,18,56.0,204.0,29.0,20,12.0,147.0,21.0,21,30.0,179.0,23.0,22,22.0,296.0,32.0*7f
$GPGSV,3,1,13,10,51.0,266.0,38.0,14,28.0,349.0,40.0,15,28.0,124.0,28.0,16,12.0,231.0,28.0*7d
$GPGLL,0549.9416,S,03512.7406,W,194850,A*26
$GPGSV,3,2,13,18,56.0,204.0,30.0,20,12.0,147.0,23.0,21,30.0,179.0,25.0,22,22.0,296.0,31.0*70
$GPGSV,3,3,13,24,6.0,64.0,19.0,25,25.0,8.0,30.0,26,32.0,255.0,27.0,29,58.0,89.0,35.0*49
$GPGSA,A,3,10,14,15,16,18,,21,,,25,26,29,,,,*35
$GPGSV,3,1,13,10,51.0,266.0,39.0,14,28.0,349.0,38.0,15,28.0,124.0,27.0,16,12.0,231.0,27.0*73
$GPGLL,0549.9529,S,03512.7429,W,194852,A*24
$GPGSV,3,2,13,18,56.0,204.0,33.0,20,12.0,147.0,24.0,21,30.0,179.0,27.0,22,22.0,296.0,29.0*7f
$GPGLL,0550.4367,S,03513.0456,W,203636,A*22
$GPGSV,3,2,13,18,40.0,179.0,34.0,21,34.0,154.0,39.0,22,30.0,272.0,26.0,24,7.0,85.0,0.0*4d
$GPGSV,3,3,13,25,9.0,19.0,28.0,26,33.0,283.0,38.0,27,5.0,213.0,16.0,29,47.0,50.0,43.0*7c
$GPGGA,203638,0550.4353,S,03513.0463,W,1,10,2.0,75.4,M,,,,*23
$GPGLL,0550.4353,S,03513.0463,W,203638,A*2d
$GPGSV,3,2,13,18,40.0,179.0,32.0,21,34.0,154.0,39.0,22,30.0,272.0,37.0,24,7.0,85.0,0.0*4b
$GPGSV,3,3,13,25,9.0,19.0,27.0,26,33.0,283.0,38.0,27,5.0,213.0,16.0,29,47.0,50.0,43.0*73
$GPGSV,3,1,13,10,47.0,228.0,34.0,14,49.0,355.0,34.0,15,14.0,138.0,26.0,16,21.0,252.0,27.0*73
$GPGLL,0550.4329,S,03513.0463,W,203640,A*2f
$GPRMC,203640,A,0550.4329,S,03513.0463,W,6.79566746058295,17.31,200116,,*23
$GPGSA,A,3,10,14,,16,18,21,22,,25,26,,29,,,,*31
$GPGSV,3,1,13,10,47.0,228.0,34.0,14,49.0,355.0,36.0,15,14.0,138.0,24.0,16,21.0,252.0,27.0*73
$GPGLL,0550.4312,S,03513.0453,W,203641,A*25
$GPRMC,203641,A,0550.4312,S,03513.0453,W,7.312946588467453,39.85,200116,,*1f
$GPGSA,A,1,,,,,,,,,,,,,,,,*32
$GPGSV,3,1,12,1,9.0,100.0,0.0,5,17.0,277.0,0.0,6,18.0,356.0,0.0,7,32.0,114.0,0.0*4d
$GPGSV,3,2,12,9,38.0,30.0,0.0,11,9.0,121.0,0.0,13,21.0,214.0,0.0,17,79.0,1.0,0.0*4e
$GPGSV,3,3,12,19,76.0,9.0,0.0,23,5.0,34.0,0.0,28,37.0,195.0,0.0,30,37.0,154.0,0.0*7d
$GPGSA,A,1,,,,,,,,,,,,,,,,*32
$GPGSV,3,3,12,19,76.0,9.0,0.0,23,5.0,34.0,0.0,28,37.0,195.0,30.0,30,37.0,154.0,0.0*4e
$GPGSV,3,3,12,19,76.0,9.0,0.0,23,5.0,34.0,0.0,28,37.0,195.0,36.0,30,37.0,154.0,0.0*48
$GPGSV,3,3,12,19,76.0,9.0,0.0,23,5.0,34.0,0.0,28,37.0,195.0,34.0,30,37.0,154.0,0.0*4a
$GPGSV,3,3,12,19,76.0,9.0,0.0,23,5.0,34.0,0.0,28,37.0,195.0,34.0,30,37.0,154.0,0.0*4a
$GPGSV,3,3,12,19,76.0,9.0,0.0,23,5.0,34.0,0.0,28,37.0,195.0,36.0,30,37.0,154.0,0.0*48
$GPGSV,3,3,12,19,76.0,9.0,0.0,23,5.0,34.0,0.0,28,37.0,195.0,36.0,30,37.0,154.0,37.0*7c
$GPGSV,3,3,12,19,76.0,9.0,0.0,23,5.0,34.0,0.0,28,37.0,195.0,37.0,30,37.0,154.0,30.0*7a
$GPGSV,3,3,12,19,76.0,9.0,0.0,23,5.0,34.0,0.0,28,37.0,195.0,38.0,30,37.0,154.0,30.0*75
$GPGSV,3,3,12,19,76.0,9.0,0.0,23,5.0,34.0,0.0,28,37.0,195.0,38.0,30,37.0,154.0,28.0*7c
$GPGSV,3,2,13,13,34.0,336.0,43.0,15,26.0,292.0,32.0,17,5.0,144.0,25.0,19,8.0,147.0,34.0*76
$GPGSV,3,2,13,13,34.0,336.0,42.0,15,26.0,292.0,33.0,17,5.0,144.0,25.0,19,8.0,147.0,34.0*76
$GPGSV,3,1,13,2,79.0,14.0,36.0,5,22.0,8.0,27.0,6,49.0,133.0,39.0,12,12.0,214.0,16.0*7d
$GPGLL,0550.2122,S,03512.6816,W,131011,A*29
$GPRMC,131011,A,0550.2122,S,03512.6816,W,15.310262224159217,341.76,190116,,*1a
$GPGSA,A,3,2,5,6,12,13,15,17,19,,24,28,,,,,*06
$GPGSV,3,1,13,2,79.0,14.0,37.0,5,22.0,8.0,42.0,6,49.0,133.0,38.0,12,12.0,214.0,17.0*7f
$GPGSV,3,2,13,13,34.0,336.0,41.0,15,26.0,292.0,23.0,17,5.0,144.0,28.0,19,8.0,147.0,32.0*7f
$GPGSV,3,3,13,20,1.0,325.0,0.0,24,36.0,216.0,25.0,28,13.0,97.0,24.0,29,4.0,296.0,13.0*7d
$GPGGA,131013,0550.2074,S,03512.6855,W,1,11,1.8,50.9,M,,,,*20
$GPGLL,0550.2074,S,03512.6855,W,131013,A*2e
$GPRMC,131013,A,0550.2074,S,03512.6855,W,9.381062514388896,297.32,190116,,*29
$GPGSA,A,3,2,5,6,12,13,15,17,19,,24,28,,,,,*06
$GPGSV,3,1,13,2,79.0,14.0,39.0,5,22.0,8.0,40.0,6,49.0,133.0,37.0,12,12.0,214.0,17.0*7c
$GPGLL,0550.2071,S,03512.6915,W,131015,A*28
$GPRMC,131015,A,0550.2071,S,03512.6915,W,11.998474917579065,259.99,190116,,*17
$GPGSA,A,3,2,5,6,12,13,15,17,19,,24,28,,,,,*06
$GPGSV,3,1,13,2,79.0,14.0,19.0,5,22.0,8.0,30.0,6,49.0,133.0,22.0,12,12.0,214.0,16.0*7c
$GPGSV,3,2,13,13,34.0,336.0,17.0,15,26.0,292.0,20.0,17,5.0,144.0,29.0,19,8.0,147.0,35.0*79
$GPGSV,3,3,13,20,1.0,325.0,0.0,24,36.0,216.0,18.0,28,13.0,97.0,33.0,29,4.0,296.0,13.0*75
$GPGGA,131016,0550.2079,S,03512.6949,W,1,11,2.2,50.4,M,,,,*20
$GPGSV,3,2,13,13,34.0,336.0,16.0,15,26.0,292.0,18.0,17,5.0,144.0,18.0,19,8.0,147.0,17.0*71
$GPGSV,3,3,13,20,1.0,325.0,0.0,24,36.0,216.0,17.0,28,13.0,97.0,24.0,29,4.0,296.0,13.0*7c
$GPGSA,A,3,2,5,6,12,13,15,17,19,,24,28,,,,,*06
$GPGSV,3,1,13,2,79.0,14.0,13.0,5,22.0,8.0,14.0,6,49.0,133.0,13.0,12,12.0,214.0,28.0*7f
$GPGSV,3,2,13,13,34.0,336.0,13.0,15,26.0,292.0,17.0,17,5.0,144.0,17.0,19,8.0,147.0,16.0*75
$GPGSV,3,3,13,20,1.0,325.0,0.0,24,36.0,216.0,15.0,28,13.0,97.0,22.0,29,4.0,296.0,12.0*79
$GPGGA,131018,0550.2095,S,03512.7022,W,1,11,2.5,50.3,M,,,,*29
$GPGSV,3,1,11,2,33.0,351.0,37.0,5,12.0,330.0,37.0,6,55.0,48.0,26.0,7,18.0,54.0,36.0*7c
$GPGLL,0553.1241,S,03512.0188,W,113403,A*20
$GPGSV,3,1,11,2,33.0,351.0,37.0,5,12.0,330.0,37.0,6,55.0,48.0,25.0,7,18.0,54.0,36.0*7f
$GPGLL,0553.1241,S,03512.0188,W,113404,A*27
$GPGSV,3,1,11,2,33.0,351.0,37.0,5,12.0,330.0,37.0,6,55.0,48.0,24.0,7,18.0,54.0,36.0*7e
$GPGSV,3,1,11,2,33.0,351.0,37.0,5,12.0,330.0,37.0,6,55.0,48.0,24.0,7,18.0,54.0,36.0*7e
$GPGLL,0553.1241,S,03512.0188,W,113406,A*25
$GPGLL,0553.1241,S,03512.0188,W,113407,A*24
$GPGSV,3,2,11,12,3.0,252.0,16.0,13,55.0,272.0,37.0,15,21.0,243.0,31.0,17,39.0,165.0,34.0*42
$GPGSV,3,3,11,19,42.0,165.0,28.0,28,17.0,141.0,36.0,30,43.0,76.0,29.0*62
$GPGSA,A,3,2,5,6,7,,13,15,17,19,28,30,,,,,*37
$GPGSV,3,1,11,2,33.0,351.0,38.0,5,12.0,330.0,37.0,6,55.0,48.0,24.0,7,18.0,54.0,36.0*71
$GPGLL,0553.1241,S,03512.0188,W,113409,A*2a
$GPRMC,113409,A,0553.1241,S,03512.0188,W,0.0,143.51,190116,,*21
$GPGSV,3,2,11,12,3.0,250.0,15.0,13,55.0,276.0,25.0,15,22.0,245.0,30.0,17,37.0,164.0,41.0*4d
$GPGSV,3,3,11,19,41.0,164.0,40.0,28,17.0,139.0,35.0,30,42.0,73.0,37.0*69
$GPGSA,A,3,2,5,6,7,,13,15,17,19,28,30,,,,,*37
$GPGSV,3,1,11,2,35.0,351.0,40.0,5,12.0,331.0,28.0,6,56.0,51.0,31.0,7,17.0,53.0,36.0*70
$GPGLL,0553.8882,S,03511.9653,W,113837,A*2c
$GPGSV,3,2,11,12,3.0,250.0,17.0,13,55.0,276.0,34.0,15,22.0,245.0,31.0,17,37.0,164.0,41.0*4e
$GPGSV,3,1,11,2,35.0,351.0,41.0,5,12.0,331.0,28.0,6,56.0,51.0,28.0,7,17.0,53.0,34.0*7b
$GPGLL,0553.8862,S,03511.9677,W,113839,A*2a
$GPGSV,3,2,11,12,3.0,250.0,18.0,13,55.0,276.0,35.0,15,22.0,245.0,31.0,17,37.0,164.0,42.0*43
$GPGSV,3,3,11,19,41.0,164.0,40.0,28,17.0,139.0,36.0,30,42.0,73.0,40.0*6a
$GPGSA,A,3,2,5,6,7,,13,15,17,19,28,30,,,,,*37
$GPGSV,3,1,11,2,35.0,351.0,42.0,5,12.0,331.0,27.0,6,56.0,51.0,34.0,7,17.0,53.0,33.0*7d
$GPGLL,0553.8858,S,03511.9683,W,113841,A*27
$GPRMC,113841,A,0553.8858,S,03511.9683,W,0.0,311.57,190116,,*2f
$GPGSV,3,2,13,18,39.0,178.0,32.0,21,34.0,152.0,30.0,22,31.0,271.0,21.0,24,7.0,85.0,22.0*7e
$GPGSV,3,3,13,25,8.0,20.0,19.0,26,33.0,284.0,33.0,27,6.0,213.0,0.0,29,46.0,49.0,31.0*41
$GPGSA,A,3,10,14,15,16,18,21,22,,25,26,,29,,,,*35
$GPGSV,3,1,13,10,47.0,227.0,37.0,14,50.0,355.0,39.0,15,13.0,139.0,19.0,16,21.0,253.0,39.0*7e
$GPGSV,3,1,13,10,47.0,227.0,36.0,14,50.0,355.0,40.0,15,13.0,139.0,27.0,16,21.0,253.0,39.0*7c
$GPGLL,0550.3021,S,03512.7265,W,203824,A*29
$GPGSV,3,1,13,10,47.0,227.0,36.0,14,50.0,355.0,40.0,15,13.0,139.0,27.0,16,21.0,253.0,39.0*7c
$GPGGA,203825,0550.3017,S,03512.7235,W,1,10,2.6,43.4,M,,,,*25
$GPGLL,0550.3017,S,03512.7235,W,203825,A*28
$GPRMC,203825,A,0550.3017,S,03512.7235,W,9.678223002498736,83.24,200116,,*10
$GPGSA,A,3,10,14,15,16,18,21,22,,25,26,,29,,,,*35
$GPGSV,3,1,13,10,47.0,227.0,36.0,14,50.0,355.0,39.0,15,13.0,139.0,28.0,16,21.0,253.0,38.0*7c
$GPGSV,3,1,13,10,47.0,227.0,37.0,14,50.0,355.0,38.0,15,13.0,139.0,30.0,16,21.0,253.0,37.0*7a
$GPGGA,203827,0550.3003,S,03512.7202,W,1,10,2.4,47.0,M,,,,*24
$GPGSV,3,2,11,13,10.0,21.0,24.0,15,17.0,346.0,37.0,20,36.0,356.0,28.0,21,5.0,313.0,0.0*43
$GPGSV,3,3,11,24,59.0,304.0,35.0,25,17.0,206.0,20.0,29,14.0,244.0,23.0*56
$GPGSA,A,3,2,5,,12,13,15,20,,24,25,29,,,,,*3a
$GPGSV,3,1,11,2,38.0,161.0,25.0,5,48.0,67.0,32.0,6,2.0,146.0,0.0,12,46.0,173.0,26.0*7d
$GPGLL,0550.6212,S,03512.0331,W,150504,A*23
$GPRMC,150504,A,0550.6212,S,03512.0331,W,23.318583374735937,94.73,200116,,*20
$GPGSA,A,3,2,5,,12,13,15,20,,24,25,29,,,,,*3a
$GPGSV,3,1,11,2,38.0,161.0,23.0,5,48.0,67.0,30.0,6,2.0,146.0,0.0,12,46.0,173.0,28.0*77
$GPGLL,0550.6223,S,03512.0207,W,150506,A*27
$GPRMC,150506,A,0550.6223,S,03512.0207,W,21.84678913281867,94.89,200116,,*17
$GPGSA,A,3,2,5,,12,13,15,20,,24,25,29,,,,,*3a
$GPGSV,3,1,11,2,38.0,161.0,23.0,5,48.0,67.0,30.0,6,2.0,146.0,0.0,12,46.0,173.0,28.0*77
$GPGLL,0550.6228,S,03512.0153,W,150507,A*2f
$GPGSV,3,1,11,2,38.0,161.0,22.0,5,48.0,67.0,29.0,6,2.0,146.0,0.0,12,46.0,173.0,29.0*7f
$GPGLL,0549.2349,S,03512.4795,W,194646,A*23
$GPRMC,194646,A,0549.2349,S,03512.4795,W,0.0,202.5,200116,,*15
$GPGGA,194647,0549.2349,S,03512.4795,W,1,11,1.9,49.8,M,,,,*24
$GPGLL,0549.2349,S,03512.4795,W,194647,A*22
$GPGSV,3,2,13,18,57.0,205.0,39.0,20,12.0,147.0,26.0,21,30.0,179.0,28.0,22,22.0,296.0,0.0*43
