$GPGSV,3,2,11,12,3.0,252.0,15.0,13,55.0,272.0,39.0,15,21.0,243.0,27.0,17,40.0,165.0,39.0*4b
$GPGSV,3,3,11,19,43.0,165.0,33.0,28,17.0,142.0,37.0,30,43.0,77.0,26.0*65
$GPGSA,A,3,2,5,6,7,,13,15,17,19,28,30,,,,,*37
$GPGSV,3,1,11,2,33.0,351.0,36.0,5,12.0,330.0,37.0,6,55.0,48.0,28.0,7,18.0,54.0,36.0*73
$GPGSV,3,1,11,2,33.0,351.0,36.0,5,12.0,330.0,37.0,6,55.0,48.0,27.0,7,18.0,54.0,36.0*7c
$GPGGA,113351,0553.1241,S,03512.0188,W,1,10,1.8,42.1,M,,,,*24
$GPGLL,0553.1241,S,03512.0188,W,113351,A*20
$GPGLL,0553.1241,S,03512.0188,W,113352,A*23
$GPGSV,3,1,11,2,33.0,351.0,36.0,5,12.0,330.0,37.0,6,55.0,48.0,25.0,7,18.0,54.0,36.0*7e
$GPGSV,3,2,11,12,3.0,252.0,16.0,13,55.0,272.0,38.0,15,21.0,243.0,28.0,17,39.0,165.0,39.0*48
$GPGSV,3,3,11,19,42.0,165.0,33.0,28,17.0,142.0,37.0,30,43.0,77.0,27.0*65
$GPGGA,113354,0553.1241,S,03512.0188,W,1,10,1.8,42.1,M,,,,*21
$GPGLL,0553.1241,S,03512.0188,W,113354,A*25
$GPGSV,3,2,11,12,3.0,252.0,16.0,13,55.0,272.0,38.0,15,21.0,243.0,28.0,17,39.0,165.0,39.0*48
$GPGLL,0553.2770,S,03511.9765,W,113504,A*2d
$GPRMC,113504,A,0553.2770,S,03511.9765,W,25.408712647670498,170.87,190116,,*13
$GPGSA,A,3,2,5,6,7,,13,15,17,19,28,30,,,,,*37
$GPGSV,3,1,11,2,33.0,351.0,31.0,5,12.0,330.0,21.0,6,55.0,48.0,31.0,7,18.0,54.0,37.0*7a
$GPGLL,0553.2840,S,03511.9752,W,113505,A*24
$GPGSV,3,2,11,12,3.0,252.0,14.0,13,55.0,272.0,35.0,15,21.0,243.0,25.0,17,39.0,165.0,40.0*44
$GPGSV,3,3,11,19,42.0,165.0,41.0,28,17.0,141.0,22.0,30,43.0,76.0,33.0*63
$GPGLL,0553.2974,S,03511.9728,W,113507,A*2d
$GPRMC,113507,A,0553.2974,S,03511.9728,W,23.868880437621232,169.04,190116,,*1f
$GPGSA,A,3,2,5,6,7,,13,15,17,19,28,30,,,,,*37
$GPGSV,3,1,11,2,33.0,351.0,31.0,5,12.0,330.0,22.0,6,55.0,48.0,30.0,7,18.0,54.0,34.0*7b
$GPGSV,3,1,11,2,33.0,351.0,32.0,5,12.0,330.0,22.0,6,55.0,48.0,32.0,7,18.0,54.0,33.0*7d
$GPGSV,3,2,11,12,3.0,252.0,14.0,13,55.0,272.0,32.0,15,21.0,243.0,38.0,17,39.0,165.0,39.0*41
$GPGSV,3,3,11,19,42.0,165.0,41.0,28,17.0,141.0,23.0,30,43.0,76.0,33.0*62
$GPGSV,3,2,11,13,40.0,327.0,40.0,15,27.0,282.0,34.0,17,10.0,149.0,25.0,19,14.0,152.0,24.0*73
$GPGSV,3,3,11,24,28.0,213.0,26.0,28,14.0,105.0,39.0,30,21.0,42.0,28.0*62
$GPGSA,A,3,2,5,6,12,13,15,17,,24,28,30,,,,,*0d
$GPGSV,3,1,11,2,69.0,3.0,40.0,5,19.0,0.0,25.0,6,56.0,121.0,32.0,12,9.0,221.0,30.0*75
$GPGSV,3,2,11,13,40.0,327.0,41.0,15,27.0,282.0,34.0,17,10.0,149.0,25.0,19,14.0,152.0,23.0*75
$GPGSV,3,3,11,24,28.0,213.0,26.0,28,14.0,105.0,39.0,30,21.0,42.0,26.0*6c
$GPGSA,A,3,2,5,6,12,13,15,17,,24,28,30,,,,,*0d
$GPGLL,0553.9421,S,03511.8718,W,125203,A*2f
$GPGSV,3,2,11,13,40.0,327.0,40.0,15,27.0,282.0,28.0,17,10.0,149.0,23.0,19,14.0,152.0,21.0*7d
$GPGLL,0553.9489,S,03511.8597,W,125205,A*2e
$GPGSV,3,2,11,13,40.0,327.0,41.0,15,27.0,282.0,29.0,17,10.0,149.0,24.0,19,14.0,152.0,29.0*72
$GPGSV,3,3,11,24,28.0,213.0,20.0,28,14.0,105.0,37.0,30,21.0,42.0,34.0*67
$GPGSA,A,3,2,5,6,12,13,15,17,19,24,28,30,,,,,*05
$GPGSV,3,1,11,2,70.0,4.0,40.0,5,19.0,0.0,37.0,6,56.0,121.0,34.0,12,9.0,221.0,29.0*77
$GPGSV,3,1,13,2,79.0,14.0,39.0,5,22.0,8.0,40.0,6,49.0,133.0,37.0,12,12.0,214.0,32.0*7b
$GPGSV,3,2,13,13,34.0,336.0,42.0,15,26.0,292.0,24.0,17,5.0,144.0,19.0,19,9.0,147.0,22.0*79
$GPGSV,3,3,13,20,1.0,324.0,0.0,24,35.0,215.0,41.0,28,13.0,97.0,25.0,29,4.0,297.0,12.0*7f
$GPGGA,130927,0550.5498,S,03512.5760,W,1,11,1.7,58.2,M,,,,*28
$GPGLL,0550.5498,S,03512.5760,W,130927,A*2a
$GPRMC,130927,A,0550.5498,S,03512.5760,W,26.246164342499963,334.83,190116,,*16
$GPGSA,A,3,2,5,6,12,13,15,17,19,,24,,,,,,*0c
$GPGSV,3,2,13,13,34.0,336.0,42.0,15,26.0,292.0,26.0,17,5.0,144.0,19.0,19,8.0,147.0,32.0*7b
$GPGSV,3,3,13,20,1.0,325.0,0.0,24,35.0,215.0,41.0,28,13.0,97.0,23.0,29,4.0,297.0,0.0*4b
$GPGGA,130932,0550.5153,S,03512.5919,W,1,11,1.7,61.4,M,,,,*22
$GPGLL,0550.5153,S,03512.5919,W,130932,A*2c
$GPRMC,130932,A,0550.5153,S,03512.5919,W,26.247165391565172,334.85,190116,,*12
$GPGSA,A,3,2,5,6,12,13,15,17,19,,24,28,,,,,*06
$GPGSV,3,1,13,2,79.0,14.0,37.0,5,22.0,8.0,37.0,6,49.0,133.0,38.0,12,12.0,214.0,36.0*7e
$GPGSV,3,1,13,2,79.0,14.0,40.0,5,22.0,8.0,32.0,6,49.0,133.0,37.0,12,12.0,214.0,31.0*73
$GPGSV,3,2,13,13,34.0,336.0,37.0,15,26.0,292.0,25.0,17,5.0,144.0,18.0,19,8.0,147.0,22.0*7a
$GPGSV,3,3,13,20,1.0,325.0,0.0,24,36.0,216.0,32.0,28,13.0,97.0,25.0,29,4.0,296.0,16.0*7f
$GPGGA,130944,0550.4405,S,03512.6205,W,1,11,1.8,63.0,M,,,,*28
$GPGLL,0550.4405,S,03512.6205,W,130944,A*2f
$GPRMC,130944,A,0550.4405,S,03512.6205,W,27.80700560635665,343.59,190116,,*22
$GPGSA,A,3,2,5,6,12,13,15,17,19,,24,28,,,,,*06
$GPGLL,0550.4329,S,03512.6228,W,130945,A*28
$GPGSV,3,2,13,13,34.0,336.0,37.0,15,26.0,292.0,17.0,17,5.0,144.0,18.0,19,8.0,147.0,22.0*7b
$GPGSV,3,3,13,20,1.0,325.0,0.0,24,36.0,216.0,41.0,28,13.0,97.0,24.0,29,4.0,296.0,17.0*7b
$GPGGA,130947,0550.4170,S,03512.6274,W,1,11,1.8,62.3,M,,,,*28
$GPGLL,0550.4170,S,03512.6274,W,130947,A*2d
$GPRMC,130947,A,0550.4170,S,03512.6274,W,30.30435422383974,344.06,190116,,*25
$GPGSA,A,3,2,5,6,12,13,15,17,19,,24,28,,,,,*06
$GPGSV,3,1,13,10,51.0,263.0,24.0,14,29.0,350.0,36.0,15,27.0,126.0,34.0,16,13.0,232.0,27.0*70
$GPGLL,0550.3671,S,03512.9946,W,195243,A*29
$GPRMC,195243,A,0550.3671,S,03512.9946,W,12.526760023797165,159.81,200116,,*17
$GPGSA,A,3,10,14,15,16,18,,21,,,25,26,29,,,,*35
$GPGSV,3,1,13,10,51.0,263.0,37.0,14,29.0,350.0,35.0,15,27.0,126.0,35.0,16,13.0,232.0,34.0*72
$GPGLL,0550.3703,S,03512.9933,W,195244,A*28
$GPGSV,3,2,13,18,55.0,201.0,34.0,20,11.0,146.0,29.0,21,30.0,177.0,32.0,22,23.0,294.0,24.0*75
$GPGLL,0550.3767,S,03512.9915,W,195246,A*2c
$GPGSV,3,2,13,18,55.0,201.0,27.0,20,11.0,146.0,20.0,21,30.0,177.0,32.0,22,23.0,294.0,26.0*7c
$GPGSV,3,3,13,24,6.0,66.0,17.0,25,23.0,8.0,26.0,26,32.0,257.0,27.0,29,58.0,85.0,35.0*4a
$GPGSA,A,3,10,14,15,16,18,,21,,,25,26,29,,,,*35
$GPGSV,3,1,13,10,51.0,263.0,38.0,14,29.0,350.0,27.0,15,27.0,126.0,35.0,16,13.0,232.0,33.0*79
$GPGLL,0550.3825,S,03512.9924,W,195248,A*29
$GPGSV,3,1,13,10,51.0,263.0,31.0,14,29.0,350.0,37.0,15,27.0,126.0,26.0,16,13.0,232.0,32.0*72
$GPGLL,0550.3869,S,03512.9962,W,195250,A*2a
$GPGSV,3,2,13,18,55.0,201.0,28.0,20,11.0,146.0,16.0,21,30.0,177.0,28.0,22,23.0,294.0,37.0*7d
$GPGSV,3,3,13,24,6.0,66.0,15.0,25,23.0,8.0,33.0,26,32.0,257.0,26.0,29,58.0,85.0,37.0*4f
$GPGGA,195252,0550.3917,S,03513.0014,W,1,9,2.2,81.2,M,,,,*19
$GPGLL,0550.3917,S,03513.0014,W,195252,A*20
$GPGSV,3,2,13,18,55.0,201.0,28.0,20,11.0,146.0,16.0,21,30.0,177.0,29.0,22,23.0,294.0,35.0*7e
$GPGSV,3,2,13,18,55.0,201.0,28.0,20,11.0,146.0,17.0,21,30.0,177.0,29.0,22,23.0,294.0,34.0*7e
$GPGLL,0550.3968,S,03513.0074,W,195254,A*28
$GPGSV,3,2,13,18,55.0,201.0,30.0,20,11.0,146.0,18.0,21,30.0,177.0,32.0,22,23.0,294.0,33.0*75
$GPGSV,3,1,13,10,51.0,263.0,29.0,14,29.0,350.0,27.0,15,27.0,126.0,23.0,16,13.0,232.0,25.0*79
$GPGLL,0550.4026,S,03513.0135,W,195256,A*2a
$GPGSV,3,2,13,18,55.0,201.0,31.0,20,11.0,146.0,18.0,21,30.0,177.0,22.0,22,23.0,294.0,30.0*76
$GPGSV,3,3,13,24,6.0,66.0,16.0,25,23.0,8.0,32.0,26,32.0,257.0,25.0,29,58.0,85.0,37.0*4e
$GPGSA,A,3,10,14,15,16,18,,21,,,25,26,29,,,,*35
$GPGSV,3,1,13,10,47.0,228.0,33.0,14,49.0,355.0,27.0,15,14.0,138.0,25.0,16,21.0,252.0,32.0*71
$GPGGA,203727,0550.3501,S,03512.9699,W,1,10,2.3,72.6,M,,,,*23
$GPGSV,3,1,13,10,47.0,228.0,35.0,14,49.0,355.0,27.0,15,14.0,138.0,20.0,16,21.0,252.0,39.0*79
$GPGSV,3,2,13,18,40.0,179.0,39.0,21,34.0,154.0,34.0,22,30.0,272.0,38.0,24,7.0,85.0,0.0*42
$GPGSV,3,3,13,25,9.0,19.0,17.0,26,33.0,283.0,36.0,27,5.0,213.0,14.0,29,47.0,50.0,30.0*78
$GPGGA,203728,0550.3492,S,03512.9660,W,1,10,2.3,72.2,M,,,,*25
$GPGSV,3,1,13,10,47.0,228.0,36.0,14,49.0,355.0,28.0,15,14.0,138.0,21.0,16,21.0,252.0,37.0*7a
$GPGLL,0550.3479,S,03512.9618,W,203729,A*22
$GPGSV,3,1,13,10,47.0,228.0,36.0,14,49.0,355.0,28.0,15,14.0,138.0,25.0,16,21.0,252.0,36.0*7f
$GPGLL,0550.3469,S,03512.9575,W,203730,A*23
$GPGSV,3,1,13,10,47.0,228.0,36.0,14,49.0,355.0,29.0,15,14.0,138.0,25.0,16,21.0,252.0,35.0*7d
$GPGSV,3,2,13,18,40.0,179.0,38.0,21,34.0,154.0,34.0,22,30.0,272.0,32.0,24,7.0,85.0,0.0*49
$GPGSV,3,3,13,25,9.0,19.0,16.0,26,33.0,283.0,23.0,27,5.0,213.0,16.0,29,47.0,50.0,39.0*76
$GPGSA,A,3,10,14,15,16,18,21,22,,25,26,,29,,,,*35
