$GPGLL,0550.5281,S,03512.6118,W,102013,A*21
$GPRMC,102013,A,0550.5281,S,03512.6118,W,11.503207746361756,146.21,180116,,*1f
$GPGSA,A,3,1,,,6,7,9,13,17,19,28,30,,,,,*3c
$GPGSV,3,1,11,1,6.0,118.0,20.0,2,7.0,335.0,29.0,5,15.0,296.0,13.0,6,29.0,10.0,34.0*48
$GPGSV,3,1,11,1,6.0,118.0,29.0,2,7.0,335.0,23.0,5,15.0,296.0,12.0,6,29.0,10.0,33.0*4d
$GPGLL,0550.5349,S,03512.6080,W,102015,A*22
$GPRMC,102015,A,0550.5349,S,03512.6080,W,14.074595991881685,154.24,180116,,*18
$GPGSV,3,2,11,7,31.0,90.0,36.0,9,20.0,26.0,37.0,13,37.0,222.0,39.0,17,78.0,169.0,36.0*76
$GPGSV,3,1,11,1,6.0,118.0,26.0,2,7.0,335.0,22.0,5,15.0,296.0,15.0,6,29.0,10.0,32.0*45
$GPGGA,102018,0550.5478,S,03512.6019,W,1,9,2.4,65.3,M,,,,*1e
$GPGLL,0550.5478,S,03512.6019,W,102018,A*2a
$GPRMC,102018,A,0550.5478,S,03512.6019,W,17.707556914472008,153.83,180116,,*1b
$GPGSA,A,3,1,,,6,7,9,13,17,19,28,30,,,,,*3c
$GPGSV,3,1,11,1,6.0,118.0,19.0,2,7.0,335.0,21.0,5,15.0,296.0,15.0,6,29.0,10.0,33.0*4b
$GPGLL,0549.9681,S,03513.0650,W,103331,A*2f
$GPGSV,3,2,12,7,30.0,83.0,27.0,9,15.0,27.0,21.0,13,42.0,227.0,37.0,15,4.0,223.0,20.0*4c
$GPGSV,3,1,12,1,4.0,123.0,23.0,2,11.0,339.0,0.0,5,14.0,302.0,27.0,6,33.0,15.0,38.0*4a
$GPGLL,0549.9641,S,03513.0650,W,103333,A*21
$GPRMC,103333,A,0549.9641,S,03513.0650,W,3.893101133233104,12.51,180116,,*19
$GPGSA,A,3,,,5,6,7,9,13,,17,19,28,30,,,,*38
$GPGSV,3,1,12,1,4.0,123.0,21.0,2,11.0,339.0,0.0,5,14.0,302.0,26.0,6,33.0,15.0,31.0*40
$GPGSV,3,1,12,1,4.0,123.0,20.0,2,11.0,339.0,0.0,5,14.0,302.0,26.0,6,33.0,15.0,38.0*48
$GPGSV,3,2,12,7,30.0,83.0,36.0,9,15.0,27.0,24.0,13,42.0,227.0,32.0,15,4.0,223.0,17.0*48
$GPGSV,3,3,12,17,71.0,170.0,30.0,19,72.0,162.0,32.0,28,25.0,170.0,25.0,30,45.0,121.0,36.0*7f
$GPGGA,103335,0549.9595,S,03513.0634,W,1,9,2.9,60.2,M,,,,*12
$GPGLL,0549.9595,S,03513.0634,W,103335,A*2f
$GPRMC,103335,A,0549.9595,S,03513.0634,W,11.26207819898511,23.96,180116,,*14
$GPGSV,3,1,12,1,4.0,123.0,19.0,2,11.0,339.0,0.0,5,14.0,302.0,25.0,6,33.0,15.0,38.0*41
$GPGLL,0549.9561,S,03513.0620,W,103336,A*22
$GPGSA,A,3,,,5,6,7,9,13,,17,19,28,30,,,,*38
$GPGSV,3,2,12,7,30.0,83.0,35.0,9,15.0,27.0,26.0,13,42.0,227.0,33.0,15,4.0,223.0,15.0*4a
$GPGLL,0549.9489,S,03513.0592,W,103338,A*21
$GPGSV,3,2,12,7,30.0,83.0,35.0,9,15.0,27.0,26.0,13,42.0,227.0,25.0,15,4.0,223.0,15.0*4d
$GPGSV,3,3,12,17,71.0,170.0,23.0,19,72.0,162.0,33.0,28,25.0,170.0,34.0,30,45.0,121.0,38.0*72
$GPGSA,A,3,,,,6,7,9,13,,17,19,28,30,,,,*0d
$GPGSA,A,3,,,,6,7,9,13,,17,19,28,30,,,,*0d
$GPGSV,3,1,12,1,4.0,123.0,18.0,2,11.0,339.0,0.0,5,14.0,302.0,17.0,6,33.0,15.0,37.0*4e
$GPGSV,3,2,12,7,30.0,83.0,25.0,9,15.0,27.0,26.0,13,42.0,227.0,26.0,15,4.0,223.0,14.0*4e
$GPGSV,3,3,12,17,71.0,170.0,24.0,19,72.0,162.0,32.0,28,25.0,170.0,33.0,30,45.0,121.0,38.0*73
$GPGGA,103340,0549.9403,S,03513.0563,W,1,8,2.6,59.8,M,,,,*11
$GPGSV,3,1,12,1,4.0,123.0,17.0,2,11.0,339.0,19.0,5,14.0,302.0,17.0,6,33.0,15.0,37.0*79
$GPGLL,0549.9365,S,03513.0548,W,103341,A*2d
$GPGSV,3,2,12,7,30.0,83.0,35.0,9,15.0,27.0,28.0,13,42.0,227.0,37.0,15,4.0,223.0,0.0*74
$GPGSV,3,3,12,17,71.0,170.0,22.0,19,72.0,162.0,22.0,28,25.0,170.0,24.0,30,45.0,121.0,35.0*7f
$GPGSA,A,3,,,5,6,7,9,13,,17,19,28,30,,,,*38
$GPGSV,3,1,12,1,4.0,123.0,21.0,2,11.0,339.0,35.0,5,14.0,302.0,36.0,6,33.0,15.0,33.0*75
$GPGLL,0549.9674,S,03512.9105,W,103416,A*28
$GPRMC,103416,A,0549.9674,S,03512.9105,W,8.218434861082994,119.48,180116,,*24
$GPGSA,A,3,,,5,6,7,9,13,,17,19,28,30,,,,*38
$GPGSV,3,1,12,1,4.0,123.0,20.0,2,11.0,339.0,24.0,5,14.0,302.0,35.0,6,33.0,15.0,35.0*71
$GPGSV,3,2,12,7,30.0,83.0,36.0,9,15.0,27.0,27.0,13,42.0,227.0,38.0,15,4.0,223.0,0.0*77
$GPGSV,3,3,12,17,71.0,170.0,30.0,19,72.0,162.0,29.0,28,25.0,170.0,24.0,30,45.0,121.0,35.0*77
$GPGGA,103418,0549.9684,S,03512.9083,W,1,9,2.7,51.4,M,,,,*11
$GPGSV,3,1,12,1,4.0,123.0,19.0,2,11.0,339.0,26.0,5,14.0,302.0,35.0,6,33.0,15.0,36.0*7a
$GPGLL,0549.9692,S,03512.9067,W,103419,A*2a
$GPRMC,103419,A,0549.9692,S,03512.9067,W,7.703156904431625,114.95,180116,,*21
$GPGSV,3,2,12,7,30.0,85.0,24.0,9,16.0,26.0,27.0,13,40.0,225.0,26.0,15,3.0,222.0,17.0*4f
$GPGSV,3,1,12,1,5.0,121.0,0.0,2,10.0,338.0,21.0,5,15.0,300.0,37.0,6,32.0,14.0,27.0*47
$GPGLL,0550.4157,S,03513.0299,W,103048,A*2a
$GPRMC,103048,A,0550.4157,S,03513.0299,W,18.108771818423854,46.16,180116,,*2b
$GPGSA,A,3,,,5,6,7,9,13,,17,19,28,30,,,,*38
$GPGSV,3,1,12,1,5.0,121.0,0.0,2,10.0,338.0,21.0,5,15.0,300.0,32.0,6,32.0,14.0,20.0*45
$GPGSV,3,1,12,1,5.0,121.0,0.0,2,10.0,338.0,21.0,5,15.0,300.0,25.0,6,32.0,14.0,28.0*4b
$GPGLL,0550.4090,S,03513.0225,W,103050,A*2e
$GPGSV,3,1,12,1,5.0,121.0,0.0,2,10.0,338.0,20.0,5,15.0,300.0,27.0,6,32.0,14.0,30.0*41
$GPGLL,0550.4058,S,03513.0193,W,103051,A*25
$GPRMC,103051,A,0550.4058,S,03513.0193,W,16.998172763384876,48.61,180116,,*29
$GPGSA,A,3,,,5,6,7,9,13,,17,19,28,30,,,,*38
$GPGSV,3,1,12,1,5.0,121.0,0.0,2,10.0,338.0,21.0,5,15.0,300.0,28.0,6,32.0,14.0,37.0*48
$GPGSV,3,1,12,1,5.0,121.0,0.0,2,10.0,338.0,32.0,5,15.0,300.0,20.0,6,32.0,14.0,37.0*42
$GPGLL,0550.6282,S,03512.6803,W,101928,A*20
$GPRMC,101928,A,0550.6282,S,03512.6803,W,9.2760061225844,268.1,180116,,*15
$GPGSA,A,3,1,,5,6,7,9,,13,17,19,28,30,,,,*09
$GPGSV,3,1,12,1,6.0,117.0,25.0,2,7.0,335.0,18.0,5,15.0,295.0,28.0,6,29.0,10.0,33.0*4f
$GPGSV,3,2,12,7,31.0,92.0,25.0,9,21.0,27.0,31.0,11,1.0,132.0,13.0,13,36.0,221.0,38.0*41
$GPGSV,3,3,12,17,79.0,169.0,37.0,19,80.0,153.0,25.0,28,28.0,177.0,38.0,30,43.0,131.0,29.0*7e
$GPGSA,A,3,1,,5,6,7,9,,13,17,19,28,30,,,,*09
$GPGLL,0550.6269,S,03512.6849,W,101930,A*22
$GPRMC,101930,A,0550.6269,S,03512.6849,W,6.998777071773253,295.9,180116,,*15
$GPGSA,A,3,1,,5,6,7,9,,13,17,19,28,30,,,,*09
$GPGSV,3,1,12,1,6.0,117.0,29.0,2,7.0,335.0,19.0,5,15.0,295.0,28.0,6,29.0,10.0,36.0*47
$GPGLL,0550.6253,S,03512.6876,W,101932,A*25
$GPGSV,3,2,12,7,31.0,92.0,28.0,9,21.0,27.0,33.0,11,1.0,132.0,12.0,13,36.0,221.0,25.0*43
$GPGSV,3,3,12,17,79.0,169.0,36.0,19,80.0,153.0,26.0,28,28.0,177.0,40.0,30,43.0,131.0,33.0*78
$GPGSA,A,1,,,,,,,,,,,,,,,,*32
$GPGSV,3,1,12,1,6.0,117.0,0.0,2,7.0,335.0,0.0,5,15.0,295.0,0.0,6,29.0,10.0,0.0*4b
$GPGSV,3,2,12,7,31.0,92.0,0.0,9,21.0,27.0,0.0,11,1.0,132.0,0.0,13,36.0,221.0,0.0*4d
$GPGSV,3,3,12,17,79.0,169.0,0.0,19,80.0,152.0,0.0,28,28.0,177.0,0.0,30,43.0,131.0,0.0*7c
$GPGSA,A,1,,,,,,,,,,,,,,,,*32
$GPGSV,3,1,12,1,6.0,117.0,0.0,2,7.0,335.0,0.0,5,15.0,295.0,0.0,6,29.0,10.0,0.0*4b
$GPGSV,3,3,12,17,79.0,169.0,0.0,19,80.0,152.0,0.0,28,28.0,177.0,0.0,30,43.0,131.0,0.0*7c
$GPGSV,3,3,12,17,79.0,169.0,0.0,19,80.0,152.0,0.0,28,28.0,177.0,0.0,30,43.0,131.0,0.0*7c
$GPGSV,3,3,12,17,79.0,169.0,0.0,19,80.0,152.0,0.0,28,28.0,177.0,0.0,30,43.0,131.0,0.0*7c
$GPGSV,3,3,12,17,79.0,169.0,0.0,19,80.0,152.0,0.0,28,28.0,177.0,0.0,30,43.0,131.0,0.0*7c
$GPGSV,3,3,12,17,79.0,169.0,0.0,19,80.0,152.0,0.0,28,28.0,177.0,0.0,30,43.0,131.0,0.0*7c
$GPGSV,3,3,12,17,79.0,169.0,0.0,19,80.0,152.0,0.0,28,28.0,177.0,0.0,30,43.0,131.0,0.0*7c
$GPGSV,3,3,12,17,79.0,169.0,0.0,19,80.0,152.0,0.0,28,28.0,177.0,0.0,30,43.0,131.0,0.0*7c
$GPGSV,3,3,12,17,79.0,169.0,0.0,19,80.0,152.0,0.0,28,28.0,177.0,0.0,30,43.0,131.0,0.0*7c
$GPGSV,3,3,12,17,79.0,169.0,0.0,19,80.0,152.0,0.0,28,28.0,177.0,0.0,30,43.0,131.0,0.0*7c
$GPGSV,3,3,12,17,79.0,169.0,0.0,19,80.0,152.0,0.0,28,28.0,177.0,0.0,30,43.0,131.0,0.0*7c
$GPGSV,3,3,12,17,79.0,169.0,0.0,19,80.0,152.0,0.0,28,28.0,177.0,0.0,30,43.0,131.0,0.0*7c
$GPGSV,3,3,12,17,79.0,169.0,0.0,19,80.0,152.0,0.0,28,28.0,177.0,0.0,30,43.0,131.0,0.0*7c
$GPGSV,3,3,12,17,79.0,169.0,0.0,19,80.0,152.0,0.0,28,28.0,177.0,0.0,30,43.0,131.0,0.0*7c
$GPGSV,3,3,12,17,79.0,169.0,0.0,19,80.0,152.0,0.0,28,28.0,177.0,0.0,30,43.0,131.0,0.0*7c
$GPGSV,3,3,12,17,79.0,169.0,0.0,19,80.0,152.0,0.0,28,28.0,177.0,0.0,30,43.0,131.0,0.0*7c
$GPGSV,3,2,12,7,31.0,92.0,35.0,9,21.0,27.0,0.0,11,1.0,132.0,0.0,13,36.0,221.0,0.0*7b
$GPGSV,3,1,12,1,6.0,117.0,27.0,2,7.0,335.0,0.0,5,15.0,295.0,20.0,6,29.0,10.0,22.0*7c
$GPGSV,3,1,12,1,6.0,117.0,22.0,2,7.0,335.0,0.0,5,15.0,295.0,20.0,6,29.0,10.0,23.0*78
$GPGLL,0550.7033,S,03512.6003,W,101800,A*2a
$GPRMC,101800,A,0550.7033,S,03512.6003,W,0.0,107.26,180116,,*20
$GPGSA,A,3,1,,5,6,7,9,,13,17,19,28,30,,,,*09
$GPGSV,3,1,12,1,6.0,117.0,23.0,2,7.0,335.0,0.0,5,15.0,295.0,29.0,6,29.0,10.0,22.0*71
$GPGSV,3,1,12,1,4.0,123.0,20.0,2,11.0,339.0,0.0,5,14.0,302.0,28.0,6,33.0,15.0,36.0*48
$GPGLL,0549.9124,S,03513.0363,W,103353,A*26
$GPGSV,3,1,12,1,4.0,123.0,19.0,2,11.0,339.0,20.0,5,14.0,302.0,28.0,6,33.0,15.0,36.0*70
$GPGLL,0549.9148,S,03513.0320,W,103354,A*2c
$GPGSV,3,2,12,7,30.0,83.0,21.0,9,15.0,27.0,21.0,13,42.0,227.0,30.0,15,4.0,223.0,13.0*4d
$GPGSV,3,3,12,17,71.0,170.0,29.0,19,72.0,162.0,26.0,28,25.0,170.0,26.0,30,45.0,121.0,32.0*75
$GPGSA,A,3,,,5,6,7,9,13,,17,19,28,30,,,,*38
$GPGLL,0549.9190,S,03513.0230,W,103356,A*2b
$GPRMC,103356,A,0549.9190,S,03513.0230,W,18.666072517176477,113.58,180116,,*10
$GPGSA,A,3,,,5,6,7,9,13,,17,19,28,30,,,,*38
$GPGSV,3,1,12,1,4.0,123.0,27.0,2,11.0,339.0,26.0,5,14.0,302.0,30.0,6,33.0,15.0,37.0*73
$GPGSV,3,1,12,1,4.0,123.0,20.0,2,11.0,339.0,28.0,5,14.0,302.0,30.0,6,33.0,15.0,37.0*7a
$GPGGA,103358,0549.9235,S,03513.0132,W,1,9,2.4,60.4,M,,,,*1e
$GPGLL,0549.9235,S,03513.0132,W,103358,A*28
$GPGLL,0549.9258,S,03513.0079,W,103359,A*2c
$GPRMC,103359,A,0549.9258,S,03513.0079,W,20.592113164172286,114.05,180116,,*11
$GPGSA,A,3,,,5,6,7,9,13,,17,19,28,30,,,,*38
$GPGSV,3,1,12,1,4.0,123.0,22.0,2,11.0,339.0,25.0,5,14.0,302.0,31.0,6,33.0,15.0,38.0*7b
$GPGLL,0549.9307,S,03512.9971,W,103401,A*24
$GPRMC,103401,A,0549.9307,S,03512.9971,W,21.888812801817206,113.01,180116,,*1d
$GPGSA,A,3,,,5,6,7,9,13,,17,19,28,30,,,,*38
$GPGLL,0549.9330,S,03512.9912,W,103402,A*26
$GPGSV,3,2,12,7,30.0,83.0,28.0,9,15.0,27.0,25.0,13,42.0,227.0,19.0,15,4.0,223.0,0.0*79
$GPGSV,3,3,12,17,71.0,170.0,32.0,19,72.0,162.0,27.0,28,25.0,170.0,18.0,30,45.0,121.0,37.0*76
$GPGGA,103404,0549.9383,S,03512.9780,W,1,9,2.3,60.5,M,,,,*1d
$GPGLL,0549.9383,S,03512.9780,W,103404,A*2d
$GPGSV,3,2,12,7,30.0,83.0,28.0,9,15.0,27.0,26.0,13,42.0,227.0,21.0,15,4.0,223.0,0.0*71
$GPGSV,3,2,12,7,30.0,83.0,29.0,9,15.0,27.0,26.0,13,42.0,227.0,22.0,15,4.0,223.0,0.0*73
$GPGSV,3,2,12,7,31.0,92.0,30.0,9,21.0,27.0,23.0,11,1.0,132.0,0.0,13,36.0,221.0,41.0*7a
$GPGSV,3,3,12,17,79.0,169.0,30.0,19,80.0,153.0,36.0,28,28.0,177.0,24.0,30,43.0,131.0,24.0*7b
$GPGSA,A,3,1,,5,6,7,9,,13,17,19,28,30,,,,*09
$GPGSV,3,1,12,1,6.0,117.0,26.0,2,7.0,335.0,28.0,5,15.0,295.0,27.0,6,29.0,10.0,23.0*41
$GPGSV,3,1,12,1,6.0,117.0,24.0,2,7.0,335.0,28.0,5,15.0,295.0,26.0,6,29.0,10.0,23.0*42
$GPGLL,0550.6404,S,03512.6121,W,101848,A*26
$GPRMC,101848,A,0550.6404,S,03512.6121,W,8.52760237659164,341.51,180116,,*1d
$GPGLL,0550.6382,S,03512.6129,W,101849,A*26
$GPGSV,3,2,12,7,31.0,92.0,31.0,9,21.0,27.0,30.0,11,1.0,132.0,0.0,13,36.0,221.0,40.0*78
$GPGSV,3,1,12,1,6.0,117.0,30.0,2,7.0,335.0,30.0,5,15.0,295.0,37.0,6,29.0,10.0,32.0*4e
$GPGLL,0550.6330,S,03512.6146,W,101851,A*2f
$GPGSV,3,2,12,7,31.0,92.0,32.0,9,21.0,27.0,30.0,11,1.0,132.0,0.0,13,36.0,221.0,29.0*74
$GPGSV,3,3,12,17,79.0,169.0,33.0,19,80.0,153.0,37.0,28,28.0,177.0,36.0,30,43.0,131.0,28.0*76
$GPGSA,A,3,1,,5,6,7,9,,13,17,19,28,30,,,,*09
$GPGSV,3,2,12,7,31.0,89.0,33.0,9,19.0,26.0,31.0,13,38.0,222.0,26.0,15,1.0,221.0,14.0*46
$GPGSV,3,3,12,17,77.0,169.0,36.0,19,78.0,156.0,39.0,28,28.0,176.0,32.0,30,43.0,129.0,34.0*70
$GPGGA,102154,0551.0596,S,03512.5985,W,1,10,2.3,53.4,M,,,,*20
$GPGLL,0551.0596,S,03512.5985,W,102154,A*29
$GPRMC,102154,A,0551.0596,S,03512.5985,W,20.91128468205204,207.99,180116,,*2e
$GPGSA,A,3,1,,5,6,7,9,13,,17,19,28,30,,,,*09
$GPGSV,3,1,12,1,6.0,118.0,18.0,2,8.0,336.0,15.0,5,15.0,297.0,18.0,6,30.0,11.0,28.0*4d
$GPGLL,0551.0702,S,03512.6036,W,102156,A*26
$GPGSV,3,1,12,1,6.0,118.0,20.0,2,8.0,336.0,16.0,5,15.0,297.0,18.0,6,30.0,11.0,28.0*45
$GPGSV,3,2,12,7,31.0,89.0,35.0,9,19.0,26.0,31.0,13,38.0,222.0,28.0,15,1.0,221.0,17.0*4d
$GPGSV,3,3,12,17,77.0,169.0,36.0,19,78.0,156.0,39.0,28,28.0,176.0,33.0,30,43.0,129.0,36.0*73
$GPGGA,102157,0551.0755,S,03512.6063,W,1,10,2.3,52.8,M,,,,*21
$GPGLL,0551.0755,S,03512.6063,W,102157,A*25
$GPGSV,3,2,12,7,31.0,89.0,35.0,9,19.0,26.0,31.0,13,38.0,222.0,29.0,15,1.0,221.0,17.0*4c
$GPGSV,3,2,12,18,14.0,136.0,21.0,21,38.0,88.0,27.0,22,32.0,210.0,42.0,26,19.0,336.0,35.0*45
$GPGSV,3,1,12,8,18.0,225.0,32.0,10,28.0,171.0,40.0,14,71.0,168.0,34.0,16,17.0,308.0,18.0*4d
$GPGLL,0551.2604,S,03512.3581,W,224002,A*28
$GPGLL,0551.2649,S,03512.3574,W,224003,A*2a
$GPGSV,3,2,12,18,14.0,136.0,22.0,21,38.0,88.0,37.0,22,32.0,210.0,43.0,26,19.0,336.0,22.0*40
$GPGSV,3,2,12,18,14.0,136.0,22.0,21,38.0,87.0,35.0,22,32.0,210.0,43.0,26,19.0,336.0,22.0*4d
$GPGSV,3,1,12,8,18.0,225.0,24.0,10,28.0,171.0,39.0,14,71.0,168.0,32.0,16,17.0,308.0,26.0*4f
$GPGLL,0551.2740,S,03512.3557,W,224005,A*25
$GPRMC,224005,A,0551.2740,S,03512.3557,W,15.724486131472359,170.35,170116,,*10
$GPGSA,A,3,8,10,14,16,18,21,22,26,27,,31,32,,,,*03
$GPGSV,3,1,12,8,18.0,225.0,35.0,10,28.0,171.0,39.0,14,71.0,168.0,31.0,16,17.0,308.0,25.0*4f
$GPGSV,3,1,12,8,18.0,225.0,35.0,10,28.0,171.0,39.0,14,71.0,168.0,31.0,16,17.0,308.0,25.0*4f
$GPGLL,0551.2829,S,03512.3539,W,224007,A*2f
$GPRMC,224007,A,0551.2829,S,03512.3539,W,17.073214367384207,168.44,170116,,*1a
$GPGSV,3,2,11,18,12.0,131.0,33.0,21,36.0,80.0,33.0,22,31.0,203.0,42.0,26,18.0,343.0,33.0*43
$GPGSV,3,3,11,27,49.0,248.0,30.0,31,36.0,18.0,45.0,32,14.0,256.0,27.0*6d
$GPGSA,A,3,8,10,14,,18,21,22,26,27,31,32,,,,,*04
$GPGSV,3,1,11,8,22.0,229.0,39.0,10,26.0,164.0,36.0,14,65.0,168.0,38.0,16,16.0,314.0,21.0*44
$GPGLL,0550.4823,S,03512.6042,W,225436,A*29
$GPGSV,3,1,11,8,22.0,229.0,40.0,10,26.0,164.0,25.0,14,65.0,168.0,37.0,16,16.0,314.0,21.0*47
$GPGSV,3,2,11,18,12.0,131.0,33.0,21,36.0,80.0,31.0,22,31.0,203.0,43.0,26,18.0,343.0,42.0*46
$GPGLL,0550.4675,S,03512.6095,W,225438,A*20
$GPGSV,3,1,11,8,22.0,229.0,42.0,10,26.0,164.0,35.0,14,63.0,168.0,36.0,16,16.0,314.0,23.0*41
$GPGLL,0550.4529,S,03512.6142,W,225440,A*2e
$GPGSV,3,1,11,8,22.0,229.0,41.0,10,26.0,164.0,24.0,14,63.0,168.0,35.0,16,15.0,314.0,24.0*45
$GPGSV,3,1,11,8,22.0,229.0,42.0,10,26.0,164.0,38.0,14,63.0,168.0,36.0,16,15.0,314.0,24.0*48
$GPGLL,0550.4466,S,03512.6161,W,225441,A*24
$GPGSV,3,1,11,8,22.0,229.0,42.0,10,26.0,164.0,37.0,14,63.0,168.0,36.0,16,15.0,314.0,24.0*47
$GPGSV,3,2,11,13,12.0,14.0,26.0,15,18.0,338.0,23.0,20,29.0,352.0,28.0,24,62.0,286.0,30.0*46
$GPGGA,145527,0549.8794,S,03512.7420,W,1,10,2.5,58.2,M,,,,*29
$GPGLL,0549.8794,S,03512.7420,W,145527,A*2b
$GPGSV,3,2,11,13,12.0,14.0,28.0,15,18.0,338.0,22.0,20,29.0,352.0,29.0,24,62.0,286.0,39.0*41
$GPGSV,3,3,11,25,11.0,209.0,29.0,28,1.0,55.0,0.0,29,13.0,252.0,21.0*64
$GPGSA,A,3,2,5,6,12,13,15,20,24,25,,,,,,,*07
$GPGSV,3,1,11,2,46.0,162.0,44.0,5,45.0,55.0,38.0,6,9.0,148.0,25.0,12,39.0,180.0,46.0*46
$GPGLL,0549.8871,S,03512.7441,W,145529,A*26
$GPGSV,3,2,11,13,12.0,14.0,30.0,15,18.0,338.0,23.0,20,29.0,352.0,27.0,24,62.0,286.0,40.0*49
$GPGSV,3,3,11,25,11.0,209.0,29.0,28,1.0,55.0,0.0,29,13.0,252.0,21.0*64
$GPGSA,A,3,2,5,6,12,13,,20,24,25,,29,,,,,*08
$GPGSV,3,1,11,2,46.0,162.0,44.0,5,45.0,55.0,38.0,6,9.0,148.0,33.0,12,39.0,180.0,46.0*41
$GPGLL,0549.8959,S,03512.7467,W,145531,A*20
$GPGSV,3,2,11,13,12.0,14.0,31.0,15,18.0,338.0,22.0,20,29.0,352.0,27.0,24,62.0,286.0,39.0*47
$GPGSV,3,1,12,1,8.0,110.0,21.0,2,3.0,330.0,0.0,5,16.0,287.0,16.0,6,24.0,4.0,31.0*4d
$GPGLL,0550.6751,S,03512.7163,W,100127,A*23
$GPGSV,3,1,12,1,8.0,110.0,20.0,2,3.0,330.0,0.0,5,16.0,287.0,26.0,6,24.0,4.0,32.0*4c
$GPGLL,0550.6702,S,03512.7143,W,100128,A*28
$GPGSV,3,2,12,7,32.0,101.0,36.0,9,28.0,27.0,33.0,11,5.0,128.0,20.0,13,30.0,217.0,30.0*74
$GPGSV,3,3,12,17,88.0,137.0,33.0,19,86.0,89.0,37.0,28,32.0,184.0,36.0,30,41.0,141.0,38.0*40
$GPGSA,A,3,1,,5,6,7,9,11,13,17,19,28,30,,,,*09
$GPGLL,0550.6608,S,03512.7100,W,100130,A*2d
$GPGSV,3,2,12,7,32.0,101.0,37.0,9,28.0,27.0,34.0,11,5.0,128.0,20.0,13,30.0,217.0,31.0*73
$GPGSV,3,1,12,1,8.0,110.0,20.0,2,3.0,330.0,0.0,5,16.0,287.0,25.0,6,24.0,4.0,37.0*4a
$GPGLL,0550.6516,S,03512.7057,W,100132,A*20
$GPRMC,100132,A,0550.6516,S,03512.7057,W,17.562477098004827,26.76,180116,,*26
$GPGSA,A,3,1,,5,6,7,9,11,13,17,19,28,30,,,,*09
$GPGSV,3,1,12,1,8.0,110.0,20.0,2,3.0,330.0,0.0,5,16.0,287.0,28.0,6,24.0,4.0,37.0*47
$GPGSV,3,1,11,8,22.0,229.0,38.0,10,26.0,165.0,40.0,14,65.0,168.0,37.0,16,16.0,314.0,40.0*4d
$GPGLL,0550.5829,S,03512.5578,W,225422,A*28
$GPGSV,3,1,11,8,22.0,229.0,36.0,10,26.0,165.0,41.0,14,65.0,168.0,37.0,16,16.0,314.0,40.0*42
$GPGLL,0550.5759,S,03512.5612,W,225423,A*2e
$GPRMC,225423,A,0550.5759,S,03512.5612,W,28.358303718307152,334.83,170116,,*1e
$GPGSA,A,3,8,10,14,16,18,21,22,26,27,31,32,,,,,*03
$GPGSV,3,1,11,8,22.0,229.0,37.0,10,26.0,165.0,41.0,14,65.0,168.0,36.0,16,16.0,314.0,39.0*4c
$GPGSV,3,2,11,18,12.0,131.0,19.0,21,36.0,80.0,25.0,22,31.0,203.0,42.0,26,18.0,343.0,39.0*46
$GPGSV,3,3,11,27,49.0,248.0,33.0,31,36.0,18.0,45.0,32,14.0,256.0,35.0*6d
$GPGSA,A,3,8,10,14,16,18,21,22,26,27,31,32,,,,,*03
$GPGSV,3,1,11,8,22.0,229.0,38.0,10,26.0,165.0,42.0,14,65.0,168.0,36.0,16,16.0,314.0,38.0*41
$GPGSV,3,2,11,18,12.0,131.0,18.0,21,36.0,80.0,27.0,22,31.0,203.0,42.0,26,18.0,343.0,38.0*44
$GPGSV,3,3,11,27,49.0,248.0,34.0,31,36.0,18.0,45.0,32,14.0,256.0,36.0*69
$GPGLL,0550.5614,S,03512.5680,W,225425,A*2b
$GPGLL,0550.5539,S,03512.5713,W,225426,A*2f
$GPGSV,3,2,11,18,12.0,131.0,28.0,21,36.0,80.0,26.0,22,31.0,203.0,43.0,26,18.0,343.0,37.0*48
$GPGSV,3,1,11,8,22.0,229.0,38.0,10,26.0,165.0,41.0,14,65.0,168.0,37.0,16,16.0,314.0,40.0*4c
$GPGLL,0550.5390,S,03512.5784,W,225428,A*2a
$GPRMC,225428,A,0550.5390,S,03512.5784,W,29.995187635228376,334.63,170116,,*16
$GPGSA,A,3,8,10,14,16,18,21,22,26,27,31,32,,,,,*03
$GPGSV,3,1,11,8,22.0,229.0,38.0,10,26.0,165.0,40.0,14,65.0,168.0,38.0,16,16.0,314.0,40.0*42
$GPGSV,3,1,11,8,22.0,229.0,36.0,10,26.0,165.0,33.0,14,65.0,168.0,36.0,16,16.0,314.0,38.0*49
$GPGSV,3,2,11,18,12.0,131.0,19.0,21,36.0,80.0,27.0,22,31.0,203.0,41.0,26,18.0,343.0,25.0*4a
$GPGSV,3,3,11,27,49.0,248.0,28.0,31,36.0,18.0,43.0,32,14.0,256.0,27.0*62
$GPGGA,225430,0550.5240,S,03512.5856,W,1,11,1.6,61.7,M,,,,*23
$GPGSV,3,1,11,8,22.0,229.0,37.0,10,26.0,165.0,35.0,14,65.0,168.0,37.0,16,16.0,314.0,39.0*4e
$GPGSV,3,2,11,18,12.0,131.0,29.0,21,36.0,80.0,28.0,22,31.0,203.0,42.0,26,18.0,343.0,27.0*47
$GPGSV,3,3,11,27,49.0,248.0,35.0,31,36.0,18.0,43.0,32,14.0,256.0,29.0*60
$GPGSV,3,2,10,13,12.0,15.0,38.0,15,18.0,339.0,21.0,20,30.0,352.0,35.0,24,62.0,288.0,36.0*46
$GPGSV,3,2,10,13,12.0,15.0,29.0,15,18.0,339.0,21.0,20,30.0,352.0,28.0,24,62.0,288.0,27.0*4a
$GPGSV,3,3,10,25,12.0,209.0,0.0,29,14.0,251.0,0.0*7f
$GPGSA,A,3,2,5,6,12,13,15,20,24,,,,,,,,*00
$GPGSV,3,1,10,2,45.0,162.0,49.0,5,46.0,56.0,32.0,6,8.0,148.0,22.0,12,40.0,179.0,45.0*4e
$GPGSV,3,2,10,13,12.0,15.0,36.0,15,18.0,339.0,21.0,20,30.0,352.0,29.0,24,62.0,288.0,35.0*46
$GPGGA,145640,0550.2983,S,03512.6833,W,1,8,2.6,50.0,M,,,,*1e
$GPGSV,3,2,10,13,12.0,15.0,35.0,15,18.0,339.0,22.0,20,30.0,352.0,31.0,24,62.0,288.0,35.0*4f
$GPGSV,3,1,10,2,45.0,162.0,49.0,5,46.0,56.0,33.0,6,8.0,148.0,33.0,12,40.0,179.0,47.0*4d
$GPGLL,0550.3040,S,03512.6819,W,145642,A*21
$GPRMC,145642,A,0550.3040,S,03512.6819,W,9.11892113251298,164.82,180116,,*1c
$GPGSA,A,3,2,5,6,12,13,15,20,24,,,,,,,,*00
$GPGSV,3,1,10,2,45.0,162.0,49.0,5,46.0,56.0,34.0,6,8.0,148.0,32.0,12,40.0,179.0,48.0*44
$GPGSV,3,2,10,13,12.0,15.0,34.0,15,18.0,339.0,30.0,20,30.0,352.0,33.0,24,62.0,288.0,36.0*4c
$GPGSA,A,1,,,,,,,,,,,,,,,,*32
$GPGSV,3,1,12,1,5.0,121.0,0.0,2,10.0,338.0,0.0,5,15.0,300.0,0.0,6,32.0,14.0,0.0*75
$GPGSV,3,2,12,7,30.0,85.0,0.0,9,16.0,26.0,0.0,13,40.0,225.0,0.0,15,3.0,222.0,0.0*4e
$GPGSV,3,3,12,17,73.0,170.0,0.0,19,74.0,161.0,0.0,28,26.0,172.0,0.0,30,44.0,123.0,0.0*7a
$GPGSA,A,3,,,,6,7,,13,,17,19,28,30,,,,*34
$GPGSV,3,1,12,1,5.0,121.0,0.0,2,10.0,338.0,0.0,5,15.0,300.0,0.0,6,32.0,14.0,24.0*43
$GPGSV,3,2,12,7,30.0,85.0,30.0,9,16.0,26.0,0.0,13,40.0,225.0,38.0,15,3.0,222.0,0.0*46
$GPRMC,102912,A,0550.7128,S,03513.0270,W,13.81545590340683,303.8,180116,,*18
$GPGGA,102913,0550.7059,S,03513.0293,W,1,7,6.4,54.3,M,,,,*16
$GPGLL,0550.7059,S,03513.0293,W,102913,A*2a
$GPGSV,3,2,12,7,30.0,85.0,25.0,9,16.0,26.0,0.0,13,40.0,225.0,39.0,15,3.0,222.0,0.0*43
$GPGSV,3,3,12,17,73.0,170.0,28.0,19,74.0,161.0,31.0,28,26.0,172.0,32.0,30,44.0,123.0,40.0*77
$GPGSA,A,3,,,5,6,7,,13,,17,19,28,30,,,,*01
$GPGSV,3,1,12,1,5.0,121.0,0.0,2,10.0,338.0,0.0,5,15.0,300.0,35.0,6,32.0,14.0,25.0*74
$GPGLL,0550.6289,S,03512.8393,W,145820,A*2e
$GPRMC,145820,A,0550.6289,S,03512.8393,W,19.619588435938596,245.32,180116,,*1d
$GPGSA,A,3,2,5,6,12,,15,20,24,25,29,,,,,,*0e
$GPGSV,3,1,10,2,45.0,162.0,33.0,5,46.0,57.0,36.0,6,7.0,147.0,21.0,12,40.0,179.0,43.0*43
$GPGLL,0550.6310,S,03512.8440,W,145821,A*27
$GPGSV,3,2,10,13,12.0,16.0,0.0,15,18.0,340.0,18.0,20,30.0,353.0,19.0,24,61.0,290.0,19.0*72
$GPGSV,3,3,10,25,12.0,209.0,26.0,29,14.0,250.0,37.0*7e
$GPGSV,3,2,10,13,12.0,16.0,0.0,15,18.0,340.0,18.0,20,30.0,353.0,20.0,24,61.0,290.0,19.0*78
$GPGSV,3,3,10,25,12.0,209.0,25.0,29,14.0,250.0,38.0*72
$GPGGA,145823,0550.6359,S,03512.8537,W,1,9,2.4,66.3,M,,,,*1e
$GPGLL,0550.6359,S,03512.8537,W,145823,A*29
$GPRMC,145823,A,0550.6359,S,03512.8537,W,19.24138468392459,244.19,180116,,*25
$GPGSA,A,3,2,5,6,12,,15,20,24,25,29,,,,,,*0e
$GPGSV,3,1,10,2,45.0,162.0,32.0,5,46.0,57.0,39.0,6,7.0,147.0,22.0,12,40.0,179.0,37.0*4d
$GPGLL,0550.7234,S,03512.5048,W,225402,A*28
$GPGSV,3,1,11,8,22.0,229.0,39.0,10,26.0,165.0,33.0,14,65.0,168.0,33.0,16,16.0,314.0,24.0*4e
$GPGSV,3,1,11,8,22.0,229.0,40.0,10,26.0,165.0,33.0,14,65.0,168.0,32.0,16,16.0,314.0,24.0*41
$GPGLL,0550.7057,S,03512.5098,W,225404,A*24
$GPRMC,225404,A,0550.7057,S,03512.5098,W,32.681638128718475,343.46,170116,,*15
$GPGSA,A,3,8,10,14,16,18,21,22,26,27,31,32,,,,,*03
$GPGSV,3,1,11,8,22.0,229.0,40.0,10,26.0,165.0,26.0,14,65.0,168.0,33.0,16,16.0,314.0,26.0*46
$GPGLL,0550.6971,S,03512.5126,W,225405,A*2d
$GPGSV,3,1,11,8,22.0,229.0,40.0,10,26.0,165.0,27.0,14,65.0,168.0,34.0,16,16.0,314.0,26.0*40
$GPGSV,3,2,11,18,12.0,131.0,35.0,21,36.0,80.0,29.0,22,31.0,203.0,44.0,26,18.0,343.0,36.0*4d
$GPGSV,3,3,11,27,49.0,248.0,36.0,31,36.0,18.0,40.0,32,14.0,256.0,24.0*6d
$GPGSA,A,3,8,10,14,,18,21,22,26,27,31,32,,,,,*04
$GPGSV,3,1,11,8,22.0,229.0,38.0,10,26.0,165.0,36.0,14,65.0,168.0,35.0,16,16.0,314.0,24.0*4c
$GPGLL,0550.6799,S,03512.5189,W,225407,A*22
$GPGSV,3,1,11,8,22.0,229.0,28.0,10,26.0,165.0,37.0,14,65.0,168.0,36.0,16,16.0,314.0,24.0*4f
$GPGSV,3,2,11,18,12.0,131.0,33.0,21,36.0,80.0,31.0,22,31.0,203.0,42.0,26,18.0,343.0,36.0*44
$GPGSV,3,3,11,27,49.0,248.0,37.0,31,36.0,18.0,42.0,32,14.0,256.0,26.0*6c
$GPGGA,225409,0550.6640,S,03512.5252,W,1,11,1.8,53.6,M,,,,*2e
$GPGLL,0550.6640,S,03512.5252,W,225409,A*2c
$GPGSV,3,2,11,18,12.0,131.0,34.0,21,36.0,80.0,30.0,22,31.0,203.0,41.0,26,18.0,343.0,36.0*41
$GPGSV,3,3,11,27,49.0,248.0,36.0,31,36.0,18.0,42.0,32,14.0,256.0,27.0*6c
$GPGLL,0550.6508,S,03512.5299,W,225411,A*2d
$GPGSV,3,2,11,18,12.0,131.0,24.0,21,36.0,80.0,33.0,22,31.0,203.0,39.0,26,18.0,343.0,33.0*49
$GPGSV,3,1,11,8,22.0,229.0,32.0,10,26.0,165.0,37.0,14,65.0,168.0,37.0,16,16.0,314.0,22.0*43
$GPGLL,0550.6446,S,03512.5314,W,225412,A*21
$GPGSV,3,2,11,18,12.0,131.0,31.0,21,36.0,80.0,35.0,22,31.0,203.0,39.0,26,18.0,343.0,19.0*43
$GPGSV,3,3,11,27,49.0,248.0,37.0,31,36.0,18.0,40.0,32,14.0,256.0,26.0*6e
$GPGSA,A,3,8,10,14,16,18,21,22,,27,31,32,,,,,*07
$GPGLL,0551.4329,S,03512.3442,W,224036,A*2d
$GPGSV,3,1,12,8,18.0,225.0,26.0,10,28.0,171.0,42.0,14,71.0,168.0,34.0,16,17.0,308.0,24.0*45
$GPGLL,0551.4382,S,03512.3440,W,224037,A*2f
$GPGSV,3,2,12,18,14.0,136.0,23.0,21,38.0,87.0,40.0,22,32.0,209.0,31.0,26,19.0,337.0,21.0*41
$GPGSV,3,1,12,8,18.0,225.0,36.0,10,28.0,171.0,40.0,14,71.0,168.0,34.0,16,17.0,308.0,24.0*46
$GPGLL,0551.4489,S,03512.3440,W,224039,A*2d
$GPGSV,3,1,12,8,18.0,225.0,37.0,10,28.0,171.0,40.0,14,71.0,168.0,33.0,16,17.0,308.0,24.0*40
$GPGSV,3,1,12,8,18.0,225.0,35.0,10,28.0,171.0,41.0,14,71.0,168.0,33.0,16,17.0,308.0,24.0*43
$GPGLL,0551.4602,S,03512.3437,W,224041,A*23
$GPGSV,3,1,12,8,18.0,225.0,34.0,10,28.0,171.0,41.0,14,71.0,168.0,33.0,16,17.0,308.0,24.0*42
$GPGLL,0551.4661,S,03512.3433,W,224042,A*21
$GPGSV,3,1,12,8,18.0,225.0,25.0,10,28.0,171.0,41.0,14,71.0,168.0,33.0,16,17.0,308.0,24.0*42
$GPGSV,3,2,12,18,14.0,136.0,24.0,21,38.0,87.0,38.0,22,32.0,209.0,40.0,26,19.0,337.0,25.0*4b
$GPGSV,3,1,12,8,18.0,225.0,35.0,10,28.0,171.0,40.0,14,71.0,168.0,32.0,16,17.0,308.0,24.0*43
$GPGGA,225708,0550.5752,S,03512.7284,W,1,11,2.1,52.0,M,,,,*29
$GPGLL,0550.5752,S,03512.7284,W,225708,A*26
$GPRMC,225708,A,0550.5752,S,03512.7284,W,12.298636699089966,241.31,170116,,*19
$GPGSA,A,3,8,10,14,16,18,21,22,26,27,31,32,,,,,*03
$GPGSV,3,1,11,8,23.0,230.0,34.0,10,26.0,163.0,30.0,14,63.0,168.0,34.0,16,15.0,315.0,19.0*42
$GPGSV,3,1,11,8,23.0,230.0,36.0,10,26.0,163.0,29.0,14,63.0,168.0,34.0,16,15.0,315.0,20.0*42
$GPGSV,3,2,11,18,12.0,130.0,26.0,21,36.0,77.0,32.0,22,31.0,201.0,26.0,26,17.0,344.0,19.0*4f
$GPGLL,0550.5807,S,03512.7383,W,225711,A*27
$GPGSV,3,1,11,8,23.0,230.0,43.0,10,26.0,163.0,39.0,14,63.0,168.0,32.0,16,15.0,315.0,22.0*45
$GPGSV,3,1,11,8,23.0,230.0,44.0,10,26.0,163.0,38.0,14,63.0,168.0,32.0,16,15.0,315.0,30.0*40
$GPGGA,225712,0550.5832,S,03512.7417,W,1,11,2.0,54.7,M,,,,*27
$GPGSV,3,1,11,8,23.0,230.0,44.0,10,26.0,163.0,37.0,14,63.0,168.0,30.0,16,15.0,315.0,29.0*45
$GPGLL,0550.5850,S,03512.7453,W,225713,A*2d
$GPGSV,3,2,11,18,12.0,130.0,36.0,21,36.0,77.0,32.0,22,31.0,201.0,30.0,26,17.0,344.0,22.0*41
$GPGSV,3,2,11,13,12.0,15.0,26.0,15,18.0,339.0,23.0,20,30.0,352.0,26.0,24,62.0,288.0,35.0*4b
$GPGSV,3,3,11,25,12.0,209.0,0.0,28,1.0,55.0,0.0,29,13.0,252.0,0.0*6f
$GPGSA,A,3,2,5,6,12,13,,20,24,,,,,,,,*04
$GPGSV,3,1,11,2,45.0,162.0,49.0,5,46.0,56.0,35.0,6,8.0,148.0,19.0,12,40.0,179.0,49.0*4c
$GPGLL,0550.1535,S,03512.7264,W,145612,A*20
$GPRMC,145612,A,0550.1535,S,03512.7264,W,23.38762053813858,167.29,180116,,*23
$GPGSA,A,3,2,5,6,12,13,,20,24,,,,,,,,*04
$GPGLL,0550.1665,S,03512.7234,W,145614,A*25
$GPGSV,3,2,10,13,12.0,15.0,27.0,15,18.0,339.0,23.0,20,30.0,352.0,29.0,24,62.0,288.0,35.0*44
$GPGSV,3,3,10,25,12.0,209.0,0.0,29,14.0,251.0,0.0*7f
$GPGSA,A,3,2,5,6,12,13,,20,24,,,,,,,,*04
$GPGSV,3,1,10,2,45.0,162.0,49.0,5,46.0,56.0,35.0,6,8.0,148.0,21.0,12,40.0,179.0,49.0*46
$GPGLL,0550.1793,S,03512.7205,W,145616,A*2d
$GPRMC,145616,A,0550.1793,S,03512.7205,W,23.206523347064113,168.96,180116,,*15
$GPGSV,3,1,12,1,6.0,117.0,29.0,2,7.0,335.0,19.0,5,15.0,295.0,30.0,6,29.0,10.0,25.0*4c
$GPGLL,0550.6625,S,03512.6033,W,101839,A*23
$GPRMC,101839,A,0550.6625,S,03512.6033,W,10.75680517160213,338.71,180116,,*2c
$GPGGA,101840,0550.6598,S,03512.6045,W,1,10,2.3,65.5,M,,,,*24
$GPGLL,0550.6598,S,03512.6045,W,101840,A*29
$GPGSV,3,2,12,7,31.0,92.0,24.0,9,21.0,27.0,23.0,11,1.0,132.0,0.0,13,36.0,221.0,36.0*7f
$GPGSV,3,2,12,7,31.0,92.0,25.0,9,21.0,27.0,33.0,11,1.0,132.0,0.0,13,36.0,221.0,36.0*7f
$GPGLL,0550.6544,S,03512.6066,W,101842,A*2b
$GPGSV,3,1,12,1,6.0,117.0,22.0,2,7.0,335.0,29.0,5,15.0,295.0,27.0,6,29.0,10.0,24.0*43
$GPGSV,3,1,12,1,6.0,117.0,24.0,2,7.0,335.0,29.0,5,15.0,295.0,28.0,6,29.0,10.0,22.0*4c
$GPGLL,0550.6490,S,03512.6088,W,101844,A*25
$GPGSV,3,2,12,7,31.0,92.0,29.0,9,21.0,27.0,23.0,11,1.0,132.0,0.0,13,36.0,221.0,40.0*73
$GPGSV,3,3,12,17,79.0,169.0,31.0,19,80.0,153.0,36.0,28,28.0,177.0,22.0,30,43.0,131.0,25.0*7d
$GPGGA,101846,0550.6446,S,03512.6104,W,1,10,2.4,64.4,M,,,,*23
$GPGLL,0550.2716,S,03512.9713,W,103140,A*29
$GPGSV,3,2,12,7,30.0,84.0,34.0,9,15.0,27.0,25.0,13,41.0,226.0,29.0,15,4.0,222.0,0.0*73
$GPGSV,3,3,12,17,72.0,170.0,32.0,19,73.0,162.0,31.0,28,25.0,171.0,29.0,30,44.0,122.0,38.0*7d
$GPGGA,103142,0550.2652,S,03512.9689,W,1,9,2.3,67.5,M,,,,*1f
$GPGLL,0550.2652,S,03512.9689,W,103142,A*28
$GPGSV,3,2,12,7,30.0,84.0,41.0,9,15.0,27.0,24.0,13,41.0,226.0,30.0,15,4.0,222.0,0.0*78
$GPGSV,3,3,12,17,72.0,170.0,31.0,19,73.0,162.0,30.0,28,25.0,171.0,37.0,30,44.0,122.0,38.0*70
$GPGSV,3,1,12,1,4.0,122.0,0.0,2,10.0,338.0,20.0,5,15.0,301.0,22.0,6,33.0,15.0,38.0*4f
$GPGLL,0550.2587,S,03512.9666,W,103144,A*24
$GPRMC,103144,A,0550.2587,S,03512.9666,W,12.76188698437169,20.69,180116,,*1b
$GPGSA,A,3,,,5,6,7,9,13,,17,19,28,30,,,,*38
$GPGSV,3,1,12,1,4.0,122.0,0.0,2,10.0,338.0,19.0,5,15.0,301.0,21.0,6,33.0,15.0,38.0*46
$GPGLL,0550.2555,S,03512.9653,W,103145,A*2c
$GPGSV,3,2,12,7,30.0,84.0,39.0,9,15.0,27.0,21.0,13,41.0,226.0,30.0,15,4.0,222.0,0.0*72
$GPGSV,3,1,11,8,22.0,229.0,28.0,10,26.0,164.0,38.0,14,63.0,168.0,37.0,16,15.0,314.0,23.0*42
$GPGLL,0550.2856,S,03512.6879,W,225543,A*2e
$GPGSV,3,1,11,8,22.0,229.0,37.0,10,26.0,164.0,39.0,14,63.0,168.0,37.0,16,15.0,314.0,24.0*4a
$GPGLL,0550.2911,S,03512.6864,W,225544,A*27
$GPRMC,225544,A,0550.2911,S,03512.6864,W,20.34698034743209,165.61,170116,,*2b
$GPGSA,A,3,8,10,14,16,18,21,22,26,27,31,32,,,,,*03
$GPGSV,3,1,11,8,22.0,229.0,39.0,10,26.0,164.0,39.0,14,63.0,168.0,38.0,16,15.0,314.0,24.0*4b
$GPGSV,3,1,11,8,22.0,229.0,23.0,10,26.0,164.0,39.0,14,63.0,168.0,38.0,16,15.0,314.0,26.0*42
$GPGLL,0550.3021,S,03512.6830,W,225546,A*2f
$GPRMC,225546,A,0550.3021,S,03512.6830,W,21.15241515632597,163.56,170116,,*22
$GPGSA,A,3,8,10,14,16,18,21,22,26,27,31,32,,,,,*03
$GPGSV,3,1,11,8,22.0,229.0,21.0,10,26.0,164.0,39.0,14,63.0,168.0,38.0,16,15.0,314.0,33.0*44
$GPGLL,0550.3078,S,03512.6814,W,225547,A*24
$GPRMC,225547,A,0550.3078,S,03512.6814,W,21.414556538201886,163.81,170116,,*11
$GPGSV,3,2,11,18,12.0,132.0,32.0,21,37.0,81.0,32.0,22,31.0,204.0,29.0,26,18.0,342.0,20.0*49
$GPGSV,3,1,11,8,21.0,228.0,25.0,10,26.0,166.0,29.0,14,66.0,168.0,30.0,16,16.0,313.0,19.0*40
$GPGLL,0551.4777,S,03512.6256,W,225113,A*23
$GPGSV,3,2,11,18,12.0,132.0,30.0,21,37.0,81.0,31.0,22,31.0,204.0,29.0,26,18.0,342.0,18.0*43
$GPGSV,3,3,11,27,49.0,247.0,30.0,31,35.0,17.0,26.0,32,14.0,257.0,28.0*65
$GPGSA,A,3,8,10,14,16,18,21,22,26,27,31,32,,,,,*03
$GPGSV,3,1,11,8,21.0,228.0,37.0,10,26.0,166.0,29.0,14,66.0,168.0,29.0,16,16.0,313.0,18.0*4a
$GPGGA,225115,0551.4760,S,03512.6302,W,1,11,2.2,48.6,M,,,,*22
$GPGLL,0551.4760,S,03512.6302,W,225115,A*23
$GPRMC,225115,A,0551.4760,S,03512.6302,W,7.2459101328493025,291.81,170116,,*1a
$GPGSA,A,3,8,10,14,16,18,21,22,26,27,31,32,,,,,*03
$GPGSV,3,1,11,8,21.0,228.0,37.0,10,26.0,166.0,29.0,14,66.0,168.0,29.0,16,16.0,313.0,20.0*41
$GPGSV,3,1,11,8,21.0,228.0,37.0,10,26.0,166.0,28.0,14,66.0,168.0,29.0,16,16.0,313.0,20.0*40
$GPGLL,0551.4747,S,03512.6340,W,225117,A*22
$GPGSV,3,1,11,8,22.0,229.0,30.0,10,26.0,165.0,24.0,14,65.0,168.0,37.0,16,16.0,314.0,38.0*48
$GPGLL,0551.1921,S,03512.6326,W,225304,A*29
$GPRMC,225304,A,0551.1921,S,03512.6326,W,16.911125985781307,24.24,170116,,*28
$GPGSA,A,3,8,10,14,16,,21,22,26,27,31,32,,,,,*0a
$GPGSV,3,1,11,8,22.0,229.0,30.0,10,26.0,165.0,25.0,14,65.0,168.0,37.0,16,16.0,314.0,37.0*46
$GPGLL,0551.1876,S,03512.6308,W,225305,A*27
$GPGSV,3,2,11,18,12.0,131.0,18.0,21,36.0,80.0,42.0,22,31.0,203.0,34.0,26,18.0,343.0,29.0*46
$GPGLL,0551.1784,S,03512.6266,W,225307,A*2e
$GPGSV,3,1,11,8,22.0,229.0,29.0,10,26.0,165.0,26.0,14,65.0,168.0,36.0,16,16.0,314.0,35.0*4e
$GPGSV,3,1,11,8,22.0,229.0,29.0,10,26.0,165.0,26.0,14,65.0,168.0,36.0,16,16.0,314.0,34.0*4f
$GPGLL,0551.1678,S,03512.6220,W,225309,A*20
$GPRMC,225309,A,0551.1678,S,03512.6220,W,21.842788644146967,25.0,170116,,*17
$GPGSA,A,3,8,10,14,16,,21,22,26,27,31,32,,,,,*0a
$GPGSV,3,1,11,8,22.0,229.0,31.0,10,26.0,165.0,28.0,14,65.0,168.0,37.0,16,16.0,314.0,33.0*4e
$GPGLL,0550.4578,S,03512.6388,W,225612,A*2b
$GPRMC,225612,A,0550.4578,S,03512.6388,W,18.373916347495395,165.75,170116,,*1b
$GPGSA,A,3,8,10,14,,18,21,22,26,27,31,32,,,,,*04
$GPGSV,3,1,11,8,22.0,229.0,26.0,10,26.0,164.0,30.0,14,63.0,168.0,32.0,16,15.0,314.0,16.0*47
$GPGLL,0550.4625,S,03512.6374,W,225613,A*22
$GPGSV,3,1,11,8,22.0,229.0,25.0,10,26.0,164.0,40.0,14,63.0,168.0,23.0,16,15.0,314.0,18.0*4d
$GPGSV,3,2,11,18,12.0,130.0,26.0,21,36.0,79.0,36.0,22,31.0,202.0,31.0,26,17.0,343.0,22.0*4f
$GPGLL,0550.4710,S,03512.6353,W,225615,A*26
$GPGSV,3,1,11,8,22.0,229.0,24.0,10,26.0,164.0,39.0,14,63.0,168.0,32.0,16,15.0,314.0,30.0*48
$GPGLL,0550.4788,S,03512.6327,W,225617,A*26
$GPGSV,3,2,11,18,12.0,130.0,25.0,21,36.0,79.0,37.0,22,31.0,202.0,33.0,26,17.0,343.0,20.0*4d
$GPGSV,3,1,11,8,22.0,229.0,20.0,10,26.0,164.0,37.0,14,63.0,168.0,33.0,16,15.0,314.0,31.0*42
$GPGLL,0550.4827,S,03512.6314,W,225618,A*23
$GPRMC,225618,A,0550.4827,S,03512.6314,W,14.875027409244089,161.27,170116,,*13
$GPGSV,3,2,11,18,12.0,132.0,27.0,21,37.0,81.0,37.0,22,31.0,204.0,30.0,26,18.0,342.0,35.0*44
$GPGSV,3,1,11,8,21.0,228.0,23.0,10,26.0,166.0,35.0,14,66.0,168.0,33.0,16,16.0,313.0,22.0*40
$GPGLL,0551.3669,S,03512.6936,W,225213,A*24
$GPGSV,3,1,11,8,21.0,228.0,22.0,10,26.0,166.0,24.0,14,66.0,168.0,32.0,16,16.0,313.0,21.0*43
$GPGSV,3,1,11,8,21.0,228.0,36.0,10,26.0,166.0,24.0,14,66.0,168.0,34.0,16,16.0,313.0,21.0*40
$GPGSV,3,2,11,18,12.0,132.0,23.0,21,37.0,81.0,35.0,22,31.0,204.0,29.0,26,18.0,342.0,29.0*47
$GPGSV,3,3,11,27,49.0,247.0,22.0,31,35.0,17.0,35.0,32,14.0,257.0,26.0*6a
$GPGSA,A,3,8,10,14,16,18,21,22,26,27,31,32,,,,,*03
$GPGSV,3,1,11,8,21.0,228.0,34.0,10,26.0,166.0,26.0,14,66.0,168.0,36.0,16,16.0,313.0,29.0*4a
$GPGSV,3,2,11,18,12.0,132.0,22.0,21,37.0,81.0,36.0,22,31.0,204.0,29.0,26,18.0,342.0,32.0*4f
$GPGSV,3,3,11,27,49.0,247.0,37.0,31,35.0,17.0,43.0,32,14.0,257.0,34.0*6c
$GPGGA,225216,0551.3622,S,03512.6884,W,1,11,2.5,50.3,M,,,,*2c
$GPGSV,3,1,11,8,21.0,228.0,23.0,10,26.0,166.0,26.0,14,66.0,168.0,35.0,16,16.0,313.0,28.0*4e
$GPGLL,0551.3592,S,03512.6873,W,225217,A*27
$GPGLL,0550.4950,S,03513.1138,W,103024,A*26
$GPRMC,103024,A,0550.4950,S,03513.1138,W,9.478115148158135,49.22,180116,,*12
$GPGSA,A,3,,,5,6,7,9,13,,17,19,28,30,,,,*38
$GPGSV,3,1,12,1,5.0,121.0,16.0,2,10.0,338.0,0.0,5,15.0,300.0,23.0,6,32.0,14.0,35.0*45
$GPGSV,3,1,12,1,5.0,121.0,16.0,2,10.0,338.0,0.0,5,15.0,300.0,24.0,6,32.0,14.0,27.0*41
$GPGLL,0550.4909,S,03513.1089,W,103026,A*23
$GPRMC,103026,A,0550.4909,S,03513.1089,W,12.28462942735531,51.97,180116,,*11
$GPGLL,0550.4885,S,03513.1062,W,103027,A*22
$GPGSV,3,2,12,7,30.0,85.0,21.0,9,16.0,26.0,21.0,13,40.0,225.0,26.0,15,3.0,222.0,26.0*4e
$GPGSV,3,1,12,1,5.0,121.0,12.0,2,10.0,338.0,21.0,5,15.0,300.0,26.0,6,32.0,14.0,30.0*72
$GPGLL,0550.4838,S,03513.1009,W,103029,A*27
$GPGSV,3,1,12,1,5.0,121.0,15.0,2,10.0,338.0,26.0,5,15.0,300.0,27.0,6,32.0,14.0,22.0*70
$GPGSV,3,1,12,1,5.0,121.0,17.0,2,10.0,338.0,24.0,5,15.0,300.0,28.0,6,32.0,14.0,29.0*74
$GPGSV,3,2,12,7,30.0,85.0,31.0,9,16.0,26.0,20.0,13,40.0,225.0,37.0,15,3.0,222.0,28.0*40
$GPRMC,145648,A,0550.3221,S,03512.6762,W,15.590414147133341,159.99,180116,,*14
$GPGSA,A,3,2,5,6,12,13,15,20,24,,,,,,,,*00
$GPGSV,3,1,10,2,45.0,162.0,51.0,5,46.0,56.0,35.0,6,8.0,148.0,29.0,12,40.0,179.0,44.0*4a
$GPGSV,3,1,10,2,45.0,162.0,51.0,5,46.0,56.0,35.0,6,8.0,148.0,21.0,12,40.0,179.0,45.0*43
$GPGLL,0550.3314,S,03512.6735,W,145650,A*21
$GPGSV,3,2,10,13,12.0,15.0,32.0,15,18.0,339.0,25.0,20,30.0,352.0,33.0,24,62.0,288.0,36.0*4e
$GPGSV,3,3,10,25,12.0,209.0,0.0,29,14.0,251.0,0.0*7f
$GPGSV,3,2,10,13,12.0,15.0,33.0,15,18.0,339.0,26.0,20,30.0,352.0,33.0,24,62.0,288.0,36.0*4c
$GPGSV,3,3,10,25,12.0,209.0,0.0,29,14.0,251.0,0.0*7f
$GPGSA,A,3,2,5,6,12,13,15,20,24,,,,,,,,*00
$GPGSV,3,1,10,2,45.0,162.0,51.0,5,46.0,56.0,36.0,6,8.0,148.0,24.0,12,40.0,179.0,46.0*46
$GPGSV,3,2,10,13,12.0,15.0,34.0,15,18.0,339.0,25.0,20,30.0,352.0,32.0,24,62.0,288.0,37.0*48
$GPGSV,3,3,10,25,12.0,209.0,0.0,29,14.0,251.0,0.0*7f
$GPGSA,A,3,2,5,6,12,13,,20,24,,,,,,,,*04
$GPGLL,0550.7540,S,03512.7776,W,100058,A*2b
$GPGSV,3,1,12,1,8.0,110.0,0.0,2,3.0,330.0,0.0,5,16.0,287.0,32.0,6,24.0,4.0,24.0*7c
$GPGLL,0550.7553,S,03512.7750,W,100059,A*2c
$GPGSV,3,1,12,1,8.0,110.0,0.0,2,3.0,330.0,0.0,5,16.0,287.0,31.0,6,24.0,4.0,25.0*7e
$GPGSV,3,2,12,7,32.0,101.0,39.0,9,28.0,27.0,30.0,11,5.0,128.0,13.0,13,30.0,217.0,26.0*7f
$GPGSV,3,3,12,17,88.0,137.0,25.0,19,86.0,75.0,22.0,28,32.0,185.0,38.0,30,40.0,142.0,40.0*42
$GPGSA,A,3,,,5,6,7,9,,13,17,19,28,30,,,,*38
$GPGLL,0550.7586,S,03512.7692,W,100101,A*27
$GPGSV,3,2,12,7,32.0,101.0,41.0,9,28.0,27.0,21.0,11,5.0,128.0,13.0,13,30.0,217.0,27.0*71
$GPGSV,3,3,12,17,88.0,137.0,23.0,19,86.0,89.0,25.0,28,32.0,185.0,39.0,30,40.0,142.0,41.0*40
$GPGGA,100103,0550.7618,S,03512.7635,W,1,8,2.4,50.2,M,,,,*1e
$GPGLL,0550.7618,S,03512.7635,W,100103,A*2c
$GPGSV,3,2,12,7,32.0,101.0,41.0,9,28.0,27.0,23.0,11,5.0,128.0,13.0,13,30.0,217.0,34.0*71
$GPGSV,3,3,12,17,88.0,137.0,23.0,19,86.0,89.0,27.0,28,32.0,185.0,39.0,30,40.0,142.0,41.0*42
$GPGLL,0550.8171,S,03512.5507,W,221312,A*29
$GPRMC,221312,A,0550.8171,S,03512.5507,W,,,170116,,*1e
$GPGGA,221312,0550.8171,S,03512.5507,W,1,1,1899.999,,,,,,*70
$GPGLL,0550.8171,S,03512.5507,W,221312,A*29
$GPRMC,221312,A,0550.8171,S,03512.5507,W,,,170116,,*1e
$GPGGA,221312,0550.8171,S,03512.5507,W,1,1,1899.999,,,,,,*70
$GPGLL,0550.8171,S,03512.5507,W,221312,A*29
$GPGLL,0550.8171,S,03512.5507,W,221312,A*29
$GPGLL,0551.2159,S,03512.0767,W,221353,A*2c
$GPRMC,221353,A,0551.2159,S,03512.0767,W,,,170116,,*1b
$GPGGA,221353,0551.2159,S,03512.0767,W,1,1,1700.0,,,,,,*73
$GPGLL,0551.2159,S,03512.0767,W,221353,A*2c
$GPRMC,221353,A,0551.2159,S,03512.0767,W,,,170116,,*1b
$GPGGA,221353,0551.2159,S,03512.0767,W,1,1,1700.0,,,,,,*73
$GPRMC,221353,A,0551.2159,S,03512.0767,W,,,170116,,*1b
$GPGLL,0551.2159,S,03512.0767,W,221353,A*2c
$GPGLL,0551.2159,S,03512.0767,W,221353,A*2c
$GPRMC,221353,A,0551.2159,S,03512.0767,W,,,170116,,*1b
$GPGGA,221353,0551.2159,S,03512.0767,W,1,1,1700.0,,,,,,*73
$GPGLL,0551.2159,S,03512.0767,W,221353,A*2c
$GPRMC,221353,A,0551.2159,S,03512.0767,W,,,170116,,*1b
$GPRMC,221353,A,0551.2159,S,03512.0767,W,,,170116,,*1b
$GPGGA,221353,0551.2159,S,03512.0767,W,1,1,1700.0,,,,,,*73
$GPGLL,0551.2159,S,03512.0767,W,221353,A*2c
$GPRMC,221353,A,0551.2159,S,03512.0767,W,,,170116,,*1b
$GPGGA,221353,0551.2159,S,03512.0767,W,1,1,1700.0,,,,,,*73
$GPGLL,0551.2159,S,03512.0767,W,221353,A*2c
$GPGLL,0551.2159,S,03512.0767,W,221433,A*2d
$GPGSV,3,2,12,18,14.0,137.0,37.0,21,38.0,88.0,29.0,22,32.0,210.0,41.0,26,19.0,336.0,27.0*4d
$GPGSV,3,3,12,27,45.0,238.0,36.0,29,4.0,29.0,15.0,31,31.0,13.0,35.0,32,13.0,262.0,25.0*44
$GPGGA,223833,0550.9964,S,03512.3615,W,1,11,1.8,76.6,M,,,,*2d
$GPGSV,3,1,12,8,17.0,224.0,33.0,10,28.0,171.0,37.0,14,72.0,167.0,36.0,16,17.0,307.0,31.0*48
$GPGSV,3,1,12,8,17.0,224.0,32.0,10,28.0,171.0,37.0,14,72.0,167.0,36.0,16,17.0,307.0,30.0*48
$GPGLL,0550.9964,S,03512.3615,W,223835,A*2e
$GPGLL,0550.9964,S,03512.3615,W,223836,A*2d
$GPGSV,3,2,12,18,14.0,137.0,38.0,21,38.0,88.0,30.0,22,32.0,210.0,41.0,26,19.0,336.0,28.0*45
$GPGSV,3,1,12,8,17.0,224.0,33.0,10,28.0,171.0,37.0,14,72.0,167.0,36.0,16,17.0,307.0,30.0*49
$GPGSV,3,1,12,8,17.0,224.0,33.0,10,28.0,171.0,37.0,14,72.0,167.0,36.0,16,17.0,307.0,30.0*49
$GPGSV,3,2,12,18,14.0,137.0,38.0,21,38.0,88.0,32.0,22,32.0,210.0,41.0,26,19.0,336.0,26.0*49
$GPGSV,3,3,12,27,45.0,238.0,31.0,29,4.0,29.0,19.0,31,31.0,13.0,35.0,32,13.0,262.0,30.0*4b
$GPGGA,223838,0550.9964,S,03512.3615,W,1,11,1.7,76.6,M,,,,*29
$GPGSV,3,1,12,8,17.0,224.0,32.0,10,28.0,171.0,37.0,14,72.0,167.0,35.0,16,17.0,307.0,30.0*4b
$GPGGA,223839,0550.9964,S,03512.3615,W,1,11,1.7,76.6,M,,,,*28
$GPGLL,0550.9964,S,03512.3615,W,223839,A*22
$GPRMC,223839,A,0550.9964,S,03512.3615,W,0.0,305.16,170116,,*24
$GPGSA,A,3,8,10,14,16,18,21,22,26,27,,31,32,,,,*03
$GPGSV,3,1,12,8,17.0,224.0,31.0,10,28.0,171.0,37.0,14,72.0,167.0,36.0,16,17.0,307.0,29.0*43
$GPGGA,223840,0550.9964,S,03512.3615,W,1,11,1.7,76.6,M,,,,*26
$GPGLL,0550.9964,S,03512.3615,W,223840,A*2c
$GPGLL,0550.9964,S,03512.3615,W,223842,A*2e
$GPGSV,3,2,12,18,14.0,137.0,38.0,21,38.0,88.0,36.0,22,32.0,210.0,42.0,26,19.0,336.0,24.0*4c
$GPGLL,0550.9964,S,03512.3615,W,223843,A*2f
$GPGSV,3,2,12,18,14.0,137.0,38.0,21,38.0,88.0,36.0,22,32.0,210.0,42.0,26,19.0,336.0,24.0*4c
$GPGSV,3,3,12,27,45.0,238.0,28.0,29,4.0,29.0,16.0,31,31.0,13.0,35.0,32,13.0,262.0,32.0*4e
$GPGSA,A,3,8,10,14,16,18,21,22,26,27,,31,32,,,,*03
$GPGSV,3,1,12,8,17.0,224.0,31.0,10,28.0,171.0,39.0,14,72.0,167.0,37.0,16,17.0,307.0,26.0*43
$GPGGA,145628,0550.2431,S,03512.7004,W,1,8,3.5,50.2,M,,,,*19
$GPGLL,0550.2431,S,03512.7004,W,145628,A*2b
$GPRMC,145628,A,0550.2431,S,03512.7004,W,16.17772963369113,159.8,180116,,*16
$GPGGA,145629,0550.2472,S,03512.6988,W,1,8,3.3,50.1,M,,,,*16
$GPGLL,0550.2472,S,03512.6988,W,145629,A*21
$GPGSV,3,1,10,2,45.0,162.0,51.0,5,46.0,56.0,36.0,6,8.0,148.0,29.0,12,40.0,179.0,43.0*4e
$GPGSV,3,2,10,13,12.0,15.0,26.0,15,18.0,339.0,31.0,20,30.0,352.0,35.0,24,62.0,288.0,36.0*48
$GPGLL,0550.2555,S,03512.6960,W,145631,A*2a
$GPRMC,145631,A,0550.2555,S,03512.6960,W,16.965154828384087,160.49,180116,,*17
$GPGSA,A,3,2,5,6,12,13,15,20,24,,,,,,,,*00
$GPGSV,3,1,10,2,45.0,162.0,51.0,5,46.0,56.0,39.0,6,8.0,148.0,24.0,12,40.0,179.0,41.0*4e
$GPGSV,3,2,10,13,12.0,15.0,25.0,15,18.0,339.0,32.0,20,30.0,352.0,36.0,24,62.0,288.0,35.0*48
$GPGSV,3,3,10,25,12.0,209.0,0.0,29,14.0,251.0,0.0*7f
$GPGGA,145632,0550.2602,S,03512.6945,W,1,8,2.9,49.6,M,,,,*1c
$GPGGA,100011,0550.6481,S,03512.8779,W,1,11,2.7,69.4,M,,,,*2e
$GPGLL,0550.6481,S,03512.8779,W,100011,A*2b
$GPRMC,100011,A,0550.6481,S,03512.8779,W,17.018184475716218,240.23,180116,,*1b
$GPGGA,100012,0550.6504,S,03512.8822,W,1,11,2.7,69.2,M,,,,*26
$GPGLL,0550.6504,S,03512.8822,W,100012,A*25
$GPGSV,3,1,12,1,8.0,109.0,23.0,2,2.0,330.0,0.0,5,16.0,286.0,19.0,6,23.0,3.0,20.0*48
$GPGSV,3,2,12,7,32.0,102.0,28.0,9,29.0,28.0,32.0,11,5.0,127.0,16.0,13,29.0,217.0,35.0*70
$GPGSV,3,1,12,1,8.0,109.0,20.0,2,2.0,330.0,0.0,5,16.0,286.0,21.0,6,23.0,3.0,18.0*4b
$GPGSV,3,2,12,7,32.0,102.0,29.0,9,29.0,28.0,31.0,11,5.0,127.0,16.0,13,29.0,217.0,35.0*72
$GPGSV,3,3,12,17,89.0,102.0,36.0,19,86.0,75.0,29.0,28,32.0,185.0,29.0,30,40.0,142.0,25.0*4f
$GPGGA,100014,0550.6558,S,03512.8909,W,1,11,2.7,68.5,M,,,,*27
$GPGLL,0550.6581,S,03512.8955,W,100015,A*2e
$GPGSV,3,2,12,7,32.0,102.0,29.0,9,29.0,28.0,29.0,11,5.0,127.0,16.0,13,29.0,217.0,25.0*7a
$GPGSV,3,3,12,17,89.0,102.0,36.0,19,86.0,75.0,29.0,28,32.0,185.0,29.0,30,40.0,142.0,27.0*4d
$GPGLL,0551.0288,S,03512.5599,W,225329,A*2e
$GPGSV,3,2,11,18,12.0,131.0,28.0,21,36.0,80.0,42.0,22,31.0,203.0,31.0,26,18.0,343.0,24.0*4d
$GPGSV,3,1,11,8,22.0,229.0,31.0,10,26.0,165.0,29.0,14,65.0,168.0,38.0,16,16.0,314.0,33.0*40
$GPGLL,0551.0117,S,03512.5522,W,225331,A*22
$GPGSV,3,1,11,8,22.0,229.0,31.0,10,26.0,165.0,30.0,14,65.0,168.0,38.0,16,16.0,314.0,33.0*48
$GPGSV,3,1,11,8,22.0,229.0,30.0,10,26.0,165.0,30.0,14,65.0,168.0,37.0,16,16.0,314.0,24.0*40
$GPGLL,0550.9942,S,03512.5442,W,225333,A*27
$GPGLL,0550.9854,S,03512.5401,W,225334,A*21
$GPRMC,225334,A,0550.9854,S,03512.5401,W,34.42958102424631,25.92,170116,,*1a
$GPGSA,A,3,8,10,14,16,18,21,22,,27,31,32,,,,,*07
$GPGSV,3,1,11,8,22.0,229.0,29.0,10,26.0,165.0,32.0,14,65.0,168.0,37.0,16,16.0,314.0,32.0*4d
$GPGSV,3,1,11,8,22.0,229.0,28.0,10,26.0,165.0,31.0,14,65.0,168.0,37.0,16,16.0,314.0,32.0*4f
$GPGGA,225336,0550.9674,S,03512.5322,W,1,10,1.7,56.1,M,,,,*27
$GPGSV,3,1,11,8,22.0,229.0,28.0,10,26.0,165.0,31.0,14,65.0,168.0,37.0,16,16.0,314.0,33.0*4e
$GPGSV,3,1,11,2,46.0,162.0,31.0,5,45.0,55.0,33.0,6,9.0,148.0,16.0,12,39.0,180.0,35.0*4b
$GPGSV,3,2,11,13,12.0,14.0,0.0,15,18.0,338.0,0.0,20,29.0,352.0,0.0,24,62.0,285.0,33.0*79
$GPGSV,3,3,11,25,11.0,210.0,23.0,28,1.0,55.0,0.0,29,13.0,252.0,0.0*55
$GPGGA,145404,0549.8846,S,03512.8574,W,1,6,5.0,60.5,M,,,,*1f
$GPGLL,0549.8846,S,03512.8574,W,145404,A*24
$GPGSA,A,3,2,5,6,12,,,20,24,25,,,,,,,*01
$GPGSV,3,1,11,2,46.0,162.0,31.0,5,45.0,55.0,41.0,6,9.0,148.0,16.0,12,39.0,180.0,33.0*48
$GPGSV,3,1,11,2,46.0,162.0,30.0,5,45.0,55.0,41.0,6,9.0,148.0,15.0,12,39.0,180.0,26.0*4e
$GPGLL,0549.8837,S,03512.8526,W,145406,A*27
$GPRMC,145406,A,0549.8837,S,03512.8526,W,6.73563510428077,47.87,180116,,*2b
$GPGGA,145407,0549.8827,S,03512.8503,W,1,7,4.2,73.7,M,,,,*19
$GPGLL,0549.8827,S,03512.8503,W,145407,A*20
$GPRMC,145407,A,0549.8827,S,03512.8503,W,7.488041192739799,45.06,180116,,*19
$GPGSV,3,2,11,13,12.0,14.0,0.0,15,18.0,338.0,0.0,20,29.0,352.0,32.0,24,62.0,285.0,32.0*49
$GPGSV,3,2,11,13,12.0,14.0,30.0,15,18.0,338.0,29.0,20,29.0,352.0,23.0,24,62.0,286.0,38.0*48
$GPGSV,3,3,11,25,11.0,209.0,19.0,28,1.0,55.0,0.0,29,13.0,252.0,0.0*54
$GPGGA,145543,0549.9682,S,03512.7604,W,1,9,2.5,51.9,M,,,,*12
$GPGLL,0549.9682,S,03512.7604,W,145543,A*2a
$GPGSV,3,2,11,13,12.0,14.0,30.0,15,18.0,338.0,29.0,20,29.0,352.0,23.0,24,62.0,286.0,37.0*47
$GPGSV,3,1,11,2,46.0,162.0,45.0,5,45.0,55.0,27.0,6,9.0,148.0,31.0,12,39.0,180.0,45.0*4f
$GPGSV,3,2,11,13,12.0,14.0,29.0,15,18.0,338.0,29.0,20,29.0,352.0,21.0,24,62.0,286.0,37.0*4d
$GPGSV,3,1,11,2,45.0,162.0,45.0,5,45.0,55.0,35.0,6,9.0,148.0,28.0,12,39.0,180.0,45.0*47
$GPGSV,3,2,11,13,12.0,14.0,20.0,15,18.0,338.0,28.0,20,29.0,352.0,25.0,24,62.0,286.0,19.0*4d
$GPGSV,3,3,11,25,11.0,209.0,12.0,28,1.0,55.0,0.0,29,13.0,252.0,0.0*5f
$GPGGA,145547,0549.9968,S,03512.7635,W,1,8,2.5,51.2,M,,,,*15
$GPGLL,0549.9968,S,03512.7635,W,145547,A*27
$GPRMC,145547,A,0549.9968,S,03512.7635,W,25.69886857301573,182.85,180116,,*2e
$GPGSV,3,1,11,2,45.0,162.0,45.0,5,45.0,55.0,34.0,6,9.0,148.0,29.0,12,39.0,180.0,45.0*47
$GPGSV,3,2,11,18,12.0,131.0,32.0,21,36.0,80.0,35.0,22,31.0,203.0,41.0,26,18.0,343.0,27.0*42
$GPGSV,3,1,11,8,22.0,229.0,39.0,10,26.0,165.0,39.0,14,65.0,168.0,38.0,16,16.0,314.0,41.0*4c
$GPGLL,0550.6217,S,03512.5395,W,225416,A*2e
$GPGSV,3,1,11,8,22.0,229.0,38.0,10,26.0,165.0,39.0,14,65.0,168.0,38.0,16,16.0,314.0,41.0*4d
$GPGSV,3,1,11,8,22.0,229.0,38.0,10,26.0,165.0,39.0,14,65.0,168.0,37.0,16,16.0,314.0,41.0*42
$GPGLL,0550.6096,S,03512.5453,W,225418,A*26
$GPGSV,3,1,11,8,22.0,229.0,37.0,10,26.0,165.0,40.0,14,65.0,168.0,37.0,16,16.0,314.0,40.0*42
$GPGLL,0550.6033,S,03512.5482,W,225419,A*24
$GPGSV,3,1,11,8,22.0,229.0,37.0,10,26.0,165.0,41.0,14,65.0,168.0,37.0,16,16.0,314.0,38.0*4c
$GPGSV,3,2,11,18,12.0,131.0,30.0,21,36.0,80.0,32.0,22,31.0,203.0,41.0,26,18.0,343.0,35.0*44
$GPGSV,3,3,11,27,49.0,248.0,33.0,31,36.0,18.0,46.0,32,14.0,256.0,34.0*6f
$GPGSV,3,1,11,8,22.0,229.0,37.0,10,26.0,165.0,41.0,14,65.0,168.0,37.0,16,16.0,314.0,39.0*4d
$GPGSV,3,2,11,18,12.0,131.0,31.0,21,36.0,80.0,32.0,22,31.0,203.0,42.0,26,18.0,343.0,44.0*40
$GPGSV,3,3,11,27,49.0,248.0,32.0,31,36.0,18.0,37.0,32,14.0,256.0,34.0*68
$GPGLL,0550.3429,S,03512.6707,W,225553,A*2c
$GPRMC,225553,A,0550.3429,S,03512.6707,W,21.8768057744184,163.32,170116,,*14
$GPGSA,A,3,8,10,14,16,18,21,22,26,27,31,32,,,,,*03
$GPGSV,3,1,11,8,22.0,229.0,23.0,10,26.0,164.0,38.0,14,63.0,168.0,33.0,16,15.0,314.0,34.0*4b
$GPGSV,3,2,11,18,12.0,130.0,23.0,21,36.0,79.0,34.0,22,31.0,202.0,24.0,26,17.0,343.0,39.0*46
$GPGGA,225555,0550.3549,S,03512.6674,W,1,11,1.8,56.1,M,,,,*28
$GPGLL,0550.3549,S,03512.6674,W,225555,A*28
$GPGLL,0550.3610,S,03512.6658,W,225556,A*2a
$GPGSV,3,2,11,18,12.0,130.0,26.0,21,36.0,79.0,33.0,22,31.0,202.0,43.0,26,17.0,343.0,38.0*44
$GPGSV,3,3,11,27,49.0,249.0,36.0,31,37.0,19.0,42.0,32,14.0,255.0,17.0*6d
$GPGSA,A,3,8,10,14,16,18,21,22,26,27,31,32,,,,,*03
$GPGSV,3,1,11,8,22.0,229.0,15.0,10,26.0,164.0,38.0,14,63.0,168.0,32.0,16,15.0,314.0,22.0*48
$GPGLL,0550.3732,S,03512.6626,W,225558,A*2c
$GPGSV,3,1,11,8,22.0,229.0,16.0,10,26.0,164.0,38.0,14,63.0,168.0,32.0,16,15.0,314.0,23.0*4a
$GPGSV,3,1,12,8,17.0,224.0,26.0,10,28.0,171.0,38.0,14,72.0,167.0,33.0,16,17.0,307.0,39.0*4e
$GPGSV,3,2,12,18,14.0,137.0,36.0,21,38.0,88.0,37.0,22,32.0,210.0,38.0,26,19.0,336.0,22.0*48
$GPGSV,3,3,12,27,45.0,238.0,42.0,29,4.0,29.0,19.0,31,31.0,13.0,40.0,32,13.0,262.0,32.0*4f
$GPGSA,A,3,8,10,14,16,18,21,22,26,27,,31,32,,,,*03
$GPGSV,3,1,12,8,17.0,224.0,27.0,10,28.0,171.0,38.0,14,72.0,167.0,34.0,16,17.0,307.0,29.0*49
$GPGLL,0551.0063,S,03512.3714,W,223901,A*2e
$GPGSV,3,2,12,18,14.0,137.0,28.0,21,38.0,88.0,37.0,22,32.0,210.0,39.0,26,19.0,336.0,25.0*41
$GPGSV,3,2,12,18,14.0,137.0,28.0,21,38.0,88.0,38.0,22,32.0,210.0,39.0,26,19.0,336.0,33.0*49
$GPGSV,3,2,12,18,14.0,137.0,28.0,21,38.0,88.0,38.0,22,32.0,210.0,40.0,26,19.0,336.0,33.0*47
$GPGSV,3,1,12,8,17.0,224.0,26.0,10,28.0,171.0,38.0,14,72.0,167.0,33.0,16,17.0,307.0,23.0*45
$GPGLL,0551.0203,S,03512.3697,W,223905,A*24
$GPGSV,3,2,12,18,14.0,137.0,27.0,21,38.0,88.0,38.0,22,32.0,210.0,41.0,26,19.0,336.0,24.0*4f
$GPGSV,3,1,12,8,17.0,224.0,40.0,10,28.0,171.0,39.0,14,72.0,167.0,34.0,16,17.0,307.0,22.0*42
$GPGLL,0551.0295,S,03512.3690,W,223907,A*2e
$GPGLL,0551.0958,S,03512.3667,W,223924,A*2d
$GPGSV,3,2,12,18,14.0,137.0,26.0,21,38.0,88.0,30.0,22,32.0,210.0,37.0,26,19.0,336.0,24.0*47
$GPGSV,3,3,12,27,45.0,238.0,43.0,29,4.0,29.0,20.0,31,31.0,13.0,38.0,32,13.0,262.0,21.0*49
$GPGSA,A,3,8,10,14,16,18,21,22,26,27,,31,32,,,,*03
$GPGSV,3,1,12,8,17.0,224.0,35.0,10,28.0,171.0,38.0,14,72.0,167.0,35.0,16,17.0,307.0,28.0*4a
$GPGLL,0551.1010,S,03512.3665,W,223926,A*29
$GPGSV,3,2,12,18,14.0,137.0,24.0,21,38.0,88.0,29.0,22,32.0,210.0,38.0,26,19.0,336.0,23.0*45
$GPGLL,0551.1073,S,03512.3661,W,223928,A*26
$GPGSV,3,2,12,18,14.0,137.0,35.0,21,38.0,88.0,32.0,22,32.0,210.0,39.0,26,19.0,336.0,22.0*4f
$GPGSV,3,3,12,27,45.0,238.0,43.0,29,4.0,29.0,21.0,31,31.0,13.0,37.0,32,13.0,262.0,19.0*4c
$GPGSA,A,3,8,10,14,16,18,21,22,26,27,,31,32,,,,*03
$GPGSV,3,1,12,8,17.0,224.0,31.0,10,28.0,171.0,39.0,14,72.0,167.0,37.0,16,17.0,307.0,28.0*4d
$GPGLL,0551.1145,S,03512.3656,W,223930,A*2f
$GPGSV,3,2,12,18,14.0,137.0,25.0,21,38.0,88.0,32.0,22,32.0,210.0,39.0,26,19.0,336.0,20.0*4c
$GPGSV,3,1,12,8,17.0,224.0,20.0,10,28.0,171.0,38.0,14,72.0,167.0,38.0,16,17.0,307.0,20.0*4b
$GPGLL,0551.1577,S,03512.3631,W,223940,A*2c
$GPRMC,223940,A,0551.1577,S,03512.3631,W,18.87718820364524,178.18,170116,,*2c
$GPGGA,223941,0551.1631,S,03512.3630,W,1,11,2.0,59.5,M,,,,*2d
$GPGLL,0551.1631,S,03512.3630,W,223941,A*2d
$GPGSV,3,2,12,18,14.0,137.0,19.0,21,38.0,88.0,38.0,22,32.0,210.0,29.0,26,19.0,336.0,22.0*4a
$GPGSV,3,1,12,8,17.0,224.0,21.0,10,28.0,171.0,38.0,14,72.0,167.0,38.0,16,17.0,307.0,18.0*41
$GPGLL,0551.1742,S,03512.3626,W,223943,A*2d
$GPGSV,3,1,12,8,17.0,224.0,34.0,10,28.0,171.0,38.0,14,72.0,167.0,38.0,16,17.0,307.0,16.0*4b
$GPGLL,0551.1853,S,03512.3618,W,223945,A*29
$GPRMC,223945,A,0551.1853,S,03512.3618,W,19.218371678192188,177.39,170116,,*11
$GPGSA,A,3,8,10,14,16,,21,22,,27,,31,32,,,,*0e
$GPGSV,3,1,12,8,17.0,224.0,33.0,10,28.0,171.0,39.0,14,72.0,167.0,38.0,16,17.0,307.0,15.0*4e
$GPGSV,3,1,12,8,17.0,224.0,22.0,10,28.0,171.0,40.0,14,72.0,167.0,38.0,16,17.0,307.0,17.0*42
$GPGSV,3,1,11,8,23.0,230.0,40.0,10,26.0,163.0,42.0,14,63.0,168.0,26.0,16,15.0,315.0,18.0*46
$GPGLL,0550.5639,S,03512.7073,W,225700,A*28
$GPRMC,225700,A,0550.5639,S,03512.7073,W,9.799288764168306,244.99,170116,,*2e
$GPGSA,A,3,8,10,14,16,18,21,22,,27,31,32,,,,,*07
$GPGSV,3,1,11,8,23.0,230.0,41.0,10,26.0,163.0,40.0,14,63.0,168.0,26.0,16,15.0,315.0,18.0*45
$GPGSV,3,2,11,18,12.0,130.0,29.0,21,36.0,77.0,30.0,22,31.0,201.0,27.0,26,17.0,344.0,18.0*42
$GPGSV,3,3,11,27,50.0,251.0,36.0,31,37.0,20.0,30.0,32,14.0,254.0,34.0*63
$GPGSV,3,2,11,18,12.0,130.0,39.0,21,36.0,77.0,29.0,22,31.0,201.0,27.0,26,17.0,344.0,18.0*4b
$GPGSV,3,1,11,8,23.0,230.0,42.0,10,26.0,163.0,40.0,14,63.0,168.0,27.0,16,15.0,315.0,18.0*47
$GPGLL,0550.5676,S,03512.7149,W,225703,A*28
$GPGSV,3,1,11,8,23.0,230.0,43.0,10,26.0,163.0,40.0,14,63.0,168.0,28.0,16,15.0,315.0,18.0*49
$GPGSV,3,1,11,8,23.0,230.0,43.0,10,26.0,163.0,39.0,14,63.0,168.0,28.0,16,15.0,315.0,18.0*47
$GPGLL,0550.5706,S,03512.7198,W,225705,A*24
$GPRMC,225705,A,0550.5706,S,03512.7198,W,10.831845848704177,241.63,170116,,*15
$GPGSV,3,1,12,8,18.0,225.0,24.0,10,28.0,171.0,34.0,14,71.0,168.0,35.0,16,17.0,308.0,32.0*40
$GPGSV,3,1,12,8,18.0,225.0,24.0,10,28.0,171.0,35.0,14,71.0,168.0,35.0,16,17.0,308.0,30.0*43
$GPGLL,0551.5580,S,03512.3707,W,224110,A*2e
$GPGSV,3,2,12,18,14.0,136.0,26.0,21,38.0,87.0,32.0,22,32.0,209.0,33.0,26,19.0,337.0,37.0*44
$GPGLL,0551.5553,S,03512.3788,W,224112,A*25
$GPRMC,224112,A,0551.5553,S,03512.3788,W,14.874027287076164,285.6,170116,,*2f
$GPGSV,3,2,12,18,14.0,136.0,24.0,21,38.0,87.0,32.0,22,32.0,209.0,31.0,26,19.0,337.0,30.0*43
$GPGSV,3,1,12,8,18.0,225.0,33.0,10,28.0,171.0,27.0,14,71.0,168.0,32.0,16,17.0,308.0,22.0*42
$GPGSV,3,2,12,18,14.0,136.0,23.0,21,38.0,87.0,30.0,22,32.0,209.0,30.0,26,19.0,337.0,32.0*45
$GPGSV,3,3,12,27,46.0,240.0,38.0,29,3.0,29.0,12.0,31,32.0,14.0,39.0,32,13.0,262.0,34.0*4e
$GPGGA,224114,0551.5526,S,03512.3881,W,1,11,2.1,50.9,M,,,,*23
$GPGSV,3,1,12,8,18.0,225.0,34.0,10,28.0,171.0,38.0,14,71.0,168.0,32.0,16,17.0,308.0,21.0*48
$GPGLL,0551.5512,S,03512.3927,W,224115,A*2c
$GPRMC,224115,A,0551.5512,S,03512.3927,W,16.86009843657959,287.83,170116,,*23
$GPGSV,3,1,11,8,23.0,230.0,37.0,10,26.0,163.0,46.0,14,63.0,168.0,44.0,16,15.0,315.0,13.0*4d
$GPGSV,3,2,11,18,12.0,130.0,35.0,21,36.0,77.0,34.0,22,31.0,201.0,43.0,26,17.0,343.0,15.0*43
$GPGSV,3,3,11,27,49.0,249.0,38.0,31,37.0,19.0,17.0,32,14.0,255.0,21.0*66
$GPGGA,225641,0550.5339,S,03512.6457,W,1,10,2.1,64.7,M,,,,*26
$GPGLL,0550.5339,S,03512.6457,W,225641,A*2a
$GPRMC,225641,A,0550.5339,S,03512.6457,W,14.259695525422421,240.69,170116,,*14
$GPGSA,A,3,8,10,14,,18,21,22,26,27,,32,,,,,*06
$GPGLL,0550.5356,S,03512.6493,W,225642,A*28
$GPGSV,3,1,11,8,23.0,230.0,40.0,10,26.0,163.0,45.0,14,63.0,168.0,45.0,16,15.0,315.0,11.0*4d
$GPGSV,3,1,11,8,23.0,230.0,40.0,10,26.0,163.0,43.0,14,63.0,168.0,45.0,16,15.0,315.0,14.0*4e
$GPGLL,0550.5392,S,03512.6568,W,225644,A*23
$GPRMC,225644,A,0550.5392,S,03512.6568,W,15.860560213941794,241.52,170116,,*1b
$GPGSA,A,3,8,10,14,,18,21,22,26,27,31,32,,,,,*04
$GPGSV,3,1,11,8,23.0,230.0,40.0,10,26.0,163.0,43.0,14,63.0,168.0,38.0,16,15.0,315.0,0.0*71
$GPGSV,3,2,11,13,12.0,14.0,31.0,15,18.0,338.0,28.0,20,29.0,352.0,26.0,24,62.0,286.0,39.0*4c
$GPGSV,3,1,11,2,46.0,162.0,43.0,5,45.0,55.0,34.0,6,9.0,148.0,29.0,12,39.0,180.0,44.0*43
$GPGLL,0549.9171,S,03512.7512,W,145535,A*24
$GPGSV,3,1,11,2,46.0,162.0,44.0,5,45.0,55.0,35.0,6,9.0,148.0,31.0,12,39.0,180.0,44.0*4c
$GPGSV,3,1,11,2,46.0,162.0,45.0,5,45.0,55.0,35.0,6,9.0,148.0,30.0,12,39.0,180.0,45.0*4d
$GPGLL,0549.9287,S,03512.7538,W,145537,A*24
$GPGSV,3,1,11,2,46.0,162.0,46.0,5,45.0,55.0,33.0,6,9.0,148.0,30.0,12,39.0,180.0,45.0*48
$GPGLL,0549.9348,S,03512.7550,W,145538,A*27
$GPGSV,3,2,11,13,12.0,14.0,31.0,15,18.0,338.0,28.0,20,29.0,352.0,28.0,24,62.0,286.0,41.0*4d
$GPGSV,3,2,11,13,12.0,14.0,32.0,15,18.0,338.0,28.0,20,29.0,352.0,27.0,24,62.0,286.0,41.0*41
$GPGSV,3,3,11,25,11.0,209.0,20.0,28,1.0,55.0,0.0,29,13.0,252.0,0.0*5e
$GPGGA,145540,0549.9475,S,03512.7574,W,1,9,2.5,53.1,M,,,,*15
$GPGLL,0549.9475,S,03512.7574,W,145540,A*27
$GPRMC,145540,A,0549.9475,S,03512.7574,W,23.958930362420425,189.03,180116,,*11
$GPGLL,0550.6112,S,03512.8071,W,225729,A*23
$GPGSV,3,1,11,8,23.0,230.0,42.0,10,26.0,163.0,45.0,14,63.0,168.0,30.0,16,15.0,315.0,22.0*4d
$GPGSV,3,3,11,27,50.0,251.0,38.0,31,37.0,20.0,27.0,32,14.0,254.0,36.0*69
$GPGSV,3,1,11,8,23.0,230.0,41.0,10,26.0,163.0,34.0,14,63.0,168.0,30.0,16,15.0,315.0,31.0*4a
$GPGSV,3,2,11,18,12.0,130.0,29.0,21,36.0,77.0,26.0,22,31.0,201.0,36.0,26,17.0,344.0,22.0*4c
$GPGSV,3,3,11,27,50.0,251.0,38.0,31,37.0,20.0,28.0,32,14.0,254.0,36.0*66
$GPGGA,225731,0550.6158,S,03512.8171,W,1,11,2.2,65.3,M,,,,*2e
$GPGLL,0550.6185,S,03512.8223,W,225732,A*22
$GPGSV,3,2,11,18,12.0,130.0,27.0,21,36.0,77.0,28.0,22,31.0,201.0,34.0,26,17.0,344.0,21.0*4d
$GPGSV,3,1,11,8,23.0,230.0,33.0,10,26.0,163.0,33.0,14,63.0,168.0,32.0,16,15.0,315.0,19.0*40
$GPGLL,0550.6232,S,03512.8331,W,225734,A*29
$GPRMC,225734,A,0550.6232,S,03512.8331,W,21.1484128138597,245.36,170116,,*18
$GPGSA,A,3,8,10,14,16,18,21,22,26,27,31,32,,,,,*03
$GPGSV,3,1,11,8,23.0,230.0,40.0,10,26.0,163.0,35.0,14,63.0,168.0,31.0,16,15.0,315.0,29.0*42
$GPGLL,0551.0693,S,03512.3673,W,223915,A*22
$GPGSV,3,2,12,18,14.0,137.0,25.0,21,38.0,88.0,38.0,22,32.0,210.0,40.0,26,19.0,336.0,25.0*4d
$GPGSV,3,1,12,8,17.0,224.0,37.0,10,28.0,171.0,42.0,14,72.0,167.0,33.0,16,17.0,307.0,24.0*4f
$GPGLL,0551.0779,S,03512.3667,W,223917,A*20
$GPGSV,3,2,12,18,14.0,137.0,21.0,21,38.0,88.0,38.0,22,32.0,210.0,39.0,26,19.0,336.0,22.0*40
$GPGSV,3,1,12,8,17.0,224.0,27.0,10,28.0,171.0,41.0,14,72.0,167.0,34.0,16,17.0,307.0,27.0*49
$GPGLL,0551.0851,S,03512.3665,W,223919,A*29
$GPGSV,3,1,12,8,17.0,224.0,28.0,10,28.0,171.0,40.0,14,72.0,167.0,33.0,16,17.0,307.0,33.0*45
$GPGLL,0551.0896,S,03512.3665,W,223921,A*29
$GPRMC,223921,A,0551.0896,S,03512.3665,W,6.626575906561365,178.07,170116,,*29
$GPGSA,A,3,8,10,14,16,18,21,22,26,27,,31,32,,,,*03
$GPGSV,3,1,12,8,17.0,224.0,27.0,10,28.0,171.0,40.0,14,72.0,167.0,34.0,16,17.0,307.0,25.0*4a
$GPGLL,0551.0915,S,03512.3665,W,223922,A*20
$GPGSV,3,2,12,18,14.0,137.0,37.0,21,38.0,88.0,46.0,22,32.0,210.0,37.0,26,19.0,336.0,22.0*40
$GPGLL,0551.1223,S,03512.3651,W,223932,A*29
$GPRMC,223932,A,0551.1223,S,03512.3651,W,13.765428476373039,176.44,170116,,*1e
$GPGSA,A,3,8,10,14,16,18,21,22,26,27,,31,32,,,,*03
$GPGSV,3,1,12,8,17.0,224.0,21.0,10,28.0,171.0,38.0,14,72.0,167.0,34.0,16,17.0,307.0,25.0*43
$GPGSV,3,1,12,8,17.0,224.0,22.0,10,28.0,171.0,38.0,14,72.0,167.0,35.0,16,17.0,307.0,24.0*40
$GPGLL,0551.1305,S,03512.3647,W,223934,A*2d
$GPGSV,3,1,12,8,17.0,224.0,39.0,10,28.0,171.0,38.0,14,72.0,167.0,36.0,16,17.0,307.0,24.0*49
$GPGSV,3,2,12,18,14.0,137.0,24.0,21,38.0,88.0,34.0,22,32.0,210.0,40.0,26,19.0,336.0,20.0*45
$GPGLL,0551.1346,S,03512.3643,W,223935,A*2f
$GPGSV,3,2,12,18,14.0,137.0,24.0,21,38.0,88.0,41.0,22,32.0,210.0,40.0,26,19.0,336.0,20.0*47
$GPGSV,3,1,12,8,17.0,224.0,21.0,10,28.0,171.0,39.0,14,72.0,167.0,35.0,16,17.0,307.0,22.0*44
$GPGLL,0551.1434,S,03512.3638,W,223937,A*23
$GPGSV,3,1,12,8,17.0,224.0,20.0,10,28.0,171.0,38.0,14,72.0,167.0,36.0,16,17.0,307.0,21.0*44
$GPGSA,A,3,8,10,14,16,18,21,22,26,27,,31,32,,,,*03
$GPGLL,0551.0759,S,03512.2703,W,223746,A*2a
$GPGSV,3,1,12,8,16.0,224.0,35.0,10,28.0,172.0,37.0,14,73.0,167.0,34.0,16,17.0,306.0,33.0*4c
$GPGLL,0551.0721,S,03512.2751,W,223747,A*23
$GPGSV,3,2,12,18,14.0,138.0,34.0,21,38.0,89.0,29.0,22,32.0,211.0,35.0,26,19.0,336.0,23.0*46
$GPGSV,3,1,12,8,16.0,224.0,35.0,10,28.0,172.0,28.0,14,73.0,167.0,32.0,16,17.0,306.0,31.0*46
$GPGLL,0551.0646,S,03512.2842,W,223749,A*20
$GPRMC,223749,A,0551.0646,S,03512.2842,W,21.484594750669736,309.21,170116,,*14
$GPGSV,3,1,12,8,16.0,224.0,32.0,10,28.0,172.0,29.0,14,73.0,167.0,33.0,16,17.0,306.0,31.0*41
$GPGGA,223751,0551.0567,S,03512.2936,W,1,12,2.0,57.3,M,,,,*20
$GPGLL,0551.0567,S,03512.2936,W,223751,A*2b
$GPRMC,223751,A,0551.0567,S,03512.2936,W,21.35052276633072,308.92,170116,,*2e
$GPGSA,A,3,8,10,14,16,18,21,22,26,27,29,31,32,,,,*08
$GPGSV,3,1,12,8,16.0,224.0,30.0,10,28.0,172.0,40.0,14,73.0,167.0,34.0,16,17.0,306.0,31.0*4b
$GPGLL,0551.0529,S,03512.2983,W,223752,A*2c
$GPGLL,0551.0449,S,03512.3075,W,223754,A*2c
$GPGSV,3,2,12,18,14.0,138.0,23.0,21,38.0,89.0,29.0,22,32.0,211.0,39.0,26,19.0,336.0,21.0*4e
$GPGSV,3,1,12,8,16.0,224.0,28.0,10,28.0,172.0,40.0,14,73.0,167.0,32.0,16,17.0,306.0,33.0*46
$GPGLL,0551.0408,S,03512.3122,W,223755,A*2b
$GPGSV,3,1,12,8,16.0,224.0,28.0,10,28.0,172.0,40.0,14,73.0,167.0,32.0,16,17.0,306.0,34.0*41
$GPGSV,3,2,12,18,14.0,138.0,31.0,21,38.0,89.0,29.0,22,32.0,211.0,40.0,26,19.0,336.0,21.0*43
$GPGSA,A,3,8,10,14,16,18,21,22,26,27,29,31,32,,,,*08
$GPGLL,0551.0329,S,03512.3217,W,223757,A*28
$GPRMC,223757,A,0551.0329,S,03512.3217,W,22.52415639797022,309.17,170116,,*21
$GPGSA,A,3,8,10,14,16,18,21,22,26,27,29,31,32,,,,*08
$GPGSV,3,1,12,8,17.0,224.0,30.0,10,28.0,172.0,42.0,14,73.0,167.0,29.0,16,17.0,306.0,34.0*41
$GPGLL,0551.0290,S,03512.3264,W,223758,A*20
$GPGSV,3,2,12,18,14.0,138.0,34.0,21,38.0,89.0,29.0,22,32.0,211.0,38.0,26,19.0,336.0,25.0*4d
$GPGSV,3,1,12,8,17.0,224.0,22.0,10,28.0,171.0,42.0,14,73.0,167.0,29.0,16,17.0,306.0,33.0*46
$GPGGA,223946,0551.1907,S,03512.3617,W,1,9,2.0,56.9,M,,,,*1f
$GPGLL,0551.1907,S,03512.3617,W,223946,A*25
$GPRMC,223946,A,0551.1907,S,03512.3617,W,19.48851774500064,180.09,170116,,*29
$GPGSA,A,3,8,10,14,16,18,21,22,,27,,31,32,,,,*07
$GPGSV,3,1,12,8,17.0,224.0,22.0,10,28.0,171.0,40.0,14,72.0,167.0,38.0,16,17.0,307.0,27.0*41
$GPGLL,0551.1960,S,03512.3617,W,223947,A*25
$GPGSV,3,2,12,18,14.0,137.0,27.0,21,38.0,88.0,38.0,22,32.0,210.0,38.0,26,19.0,336.0,25.0*40
$GPGSV,3,2,12,18,14.0,137.0,27.0,21,38.0,88.0,37.0,22,32.0,210.0,38.0,26,19.0,336.0,23.0*49
$GPGSV,3,3,12,27,45.0,238.0,42.0,29,4.0,29.0,12.0,31,31.0,13.0,37.0,32,13.0,262.0,19.0*4d
$GPGSA,A,3,8,10,14,16,18,21,22,26,27,,31,32,,,,*03
$GPGSV,3,1,12,8,17.0,224.0,27.0,10,28.0,171.0,40.0,14,72.0,167.0,39.0,16,17.0,307.0,20.0*42
$GPGSV,3,1,12,8,18.0,225.0,17.0,10,28.0,171.0,40.0,14,72.0,167.0,39.0,16,17.0,307.0,23.0*4c
$GPGLL,0551.2140,S,03512.3613,W,223951,A*2f
$GPGSV,3,1,12,8,18.0,225.0,17.0,10,28.0,171.0,40.0,14,72.0,167.0,39.0,16,17.0,307.0,19.0*45
$GPGLL,0551.2168,S,03512.3612,W,223952,A*27
$GPGSV,3,1,12,8,18.0,225.0,16.0,10,28.0,171.0,40.0,14,72.0,167.0,38.0,16,17.0,307.0,18.0*44
$GPGSV,3,1,12,8,18.0,225.0,16.0,10,28.0,171.0,40.0,14,72.0,167.0,37.0,16,17.0,307.0,17.0*44
$GPGLL,0551.2236,S,03512.3610,W,223954,A*2b
$GPGSV,3,1,12,8,18.0,225.0,17.0,10,28.0,171.0,39.0,14,72.0,167.0,37.0,16,17.0,307.0,18.0*44
$GPGLL,0551.2276,S,03512.3607,W,223955,A*28
