$GPGSA,A,1,,,,,,,,,,,,,,,,*32
$GPGSV,3,1,12,1,2.0,126.0,0.0,2,14.0,341.0,0.0,5,14.0,306.0,0.0,6,37.0,19.0,0.0*70
$GPGSV,3,2,12,7,29.0,78.0,0.0,9,11.0,27.0,0.0,13,45.0,231.0,0.0,15,7.0,225.0,0.0*41
$GPGSV,3,3,12,17,65.0,170.0,0.0,19,74.0,174.0,0.0,28,23.0,165.0,0.0,30,45.0,114.0,0.0*7f
$GPGSA,A,1,,,,,,,,,,,,,,,,*32
$GPGSV,3,1,12,1,2.0,126.0,0.0,2,14.0,341.0,0.0,5,14.0,306.0,0.0,6,37.0,19.0,36.0*45
$GPGSV,3,2,12,7,29.0,78.0,0.0,9,11.0,27.0,0.0,13,45.0,231.0,39.0,15,7.0,225.0,0.0*7b
$GPGSV,3,2,12,7,29.0,78.0,0.0,9,11.0,27.0,35.0,13,45.0,231.0,37.0,15,7.0,225.0,30.0*70
$GPGLL,0550.6814,S,03512.9439,W,100619,A*23
$GPRMC,100619,A,0550.6814,S,03512.9439,W,3.380824469982796,27.04,270116,,*10
$GPGSA,A,3,,2,,6,7,9,13,,17,19,,30,,,,*35
$GPGSV,3,1,12,1,2.0,126.0,0.0,2,14.0,341.0,38.0,5,14.0,306.0,0.0,6,37.0,19.0,42.0*7d
$GPGLL,0550.6888,S,03512.9305,W,100620,A*24
$GPRMC,100620,A,0550.6888,S,03512.9305,W,6.367436281535151,21.76,270116,,*1a
$GPGSA,A,1,,,,,,,,,,,,,,,,*32
$GPGSV,1,1,1,13,0.0,0.0,37.0*50
$GPGSA,A,1,,,,,,,,,,,,,,,,*32
$GPGSV,1,1,1,13,0.0,0.0,32.0*55
$GPGSA,A,1,,,,,,,,,,,,,,,,*32
$GPGSV,1,1,1,13,0.0,0.0,31.0*56
$GPGSA,A,1,,,,,,,,,,,,,,,,*32
$GPGSV,1,1,1,13,0.0,0.0,27.0*51
$GPGSA,A,1,,,,,,,,,,,,,,,,*32
$GPGSV,1,1,1,13,0.0,0.0,29.0*5f
$GPGSA,A,1,,,,,,,,,,,,,,,,*32
$GPGSV,1,1,1,13,0.0,0.0,34.0*53
$GPGSA,A,1,,,,,,,,,,,,,,,,*32
$GPGSV,1,1,1,13,0.0,0.0,34.0*53
$GPGSA,A,1,,,,,,,,,,,,,,,,*32
$GPGSV,1,1,1,13,0.0,0.0,34.0*53
$GPGSV,1,1,2,13,0.0,0.0,34.0,29,0.0,0.0,24.0*43
$GPGSV,1,1,3,13,0.0,0.0,34.0,20,0.0,0.0,39.0,29,0.0,0.0,27.0*57
$GPGSV,1,1,3,13,0.0,0.0,35.0,20,0.0,0.0,38.0,29,0.0,0.0,25.0*55
$GPGSV,1,1,4,12,0.0,0.0,36.0,13,0.0,0.0,35.0,20,0.0,0.0,34.0,29,0.0,0.0,26.0*45
$GPGSV,1,1,4,12,0.0,0.0,37.0,13,0.0,0.0,35.0,20,0.0,0.0,33.0,29,0.0,0.0,25.0*40
$GPGSV,1,1,4,12,0.0,0.0,36.0,13,0.0,0.0,35.0,20,0.0,0.0,37.0,29,0.0,0.0,26.0*46
$GPGSV,1,1,4,12,0.0,0.0,36.0,13,0.0,0.0,35.0,20,0.0,0.0,37.0,29,0.0,0.0,26.0*46
$GPGSV,1,1,1,20,0.0,0.0,36.0*51
$GPGSA,A,1,,,,,,,,,,,,,,,,*32
$GPGSV,1,1,2,12,0.0,0.0,40.0,20,0.0,0.0,37.0*4a
$GPGSV,1,1,3,12,0.0,0.0,40.0,13,0.0,0.0,35.0,20,0.0,0.0,36.0*50
$GPGSV,1,1,3,12,0.0,0.0,37.0,13,0.0,0.0,37.0,20,0.0,0.0,33.0*57
$GPGSV,1,1,3,12,0.0,0.0,38.0,13,0.0,0.0,36.0,20,0.0,0.0,35.0*5f
$GPGSV,1,1,3,12,0.0,0.0,38.0,13,0.0,0.0,38.0,20,0.0,0.0,35.0*51
$GPGSV,1,1,3,12,0.0,0.0,38.0,13,0.0,0.0,35.0,20,0.0,0.0,35.0*5c
$GPGSV,1,1,3,12,0.0,0.0,37.0,13,0.0,0.0,36.0,20,0.0,0.0,35.0*50
$GPGSV,1,1,3,12,0.0,0.0,37.0,13,0.0,0.0,36.0,20,0.0,0.0,35.0*50
$GPGSV,1,1,3,12,0.0,0.0,37.0,13,0.0,0.0,36.0,20,0.0,0.0,35.0*50
$GPGSA,A,1,,,,,,,,,,,,,,,,*32
$GPGSV,1,1,3,12,0.0,0.0,36.0,13,0.0,0.0,36.0,20,0.0,0.0,35.0*51
$GPGSA,A,1,,,,,,,,,,,,,,,,*32
$GPGSV,1,1,3,12,0.0,0.0,36.0,13,0.0,0.0,38.0,20,0.0,0.0,36.0*5c
$GPGSA,A,1,,,,,,,,,,,,,,,,*32
$GPGSA,A,1,,,,,,,,,,,,,,,,*32
$GPGSV,2,2,5,20,0.0,0.0,38.0*5b
$GPGSA,A,1,,,,,,,,,,,,,,,,*32
$GPGSA,A,1,,,,,,,,,,,,,,,,*32
$GPGSV,2,2,5,20,0.0,0.0,36.0*55
$GPGSV,2,1,5,5,0.0,0.0,22.0,12,0.0,0.0,28.0,13,0.0,0.0,24.0,15,0.0,0.0,22.0*73
$GPGSA,A,1,,,,,,,,,,,,,,,,*32
$GPGSV,2,2,5,20,0.0,0.0,29.0*5b
$GPGSV,1,1,1,2,0.0,0.0,30.0*67
$GPGSA,A,1,,,,,,,,,,,,,,,,*32
$GPGSA,A,1,,,,,,,,,,,,,,,,*32
$GPGSA,A,1,,,,,,,,,,,,,,,,*32
$GPGSA,A,1,,,,,,,,,,,,,,,,*32
$GPGSA,A,1,,,,,,,,,,,,,,,,*32
$GPGSA,A,1,,,,,,,,,,,,,,,,*32
$GPGSV,1,1,1,2,0.0,0.0,31.0*66
$GPRMC,152953,A,0549.9327,S,03512.7397,W,,,270116,,*10
$GPGLL,0549.4104,S,03512.5442,W,154633,A*28
$GPGSV,3,2,11,15,21.0,14.0,22.0,18,12.0,331.0,18.0,20,67.0,17.0,22.0,21,22.0,290.0,22.0*75
$GPGSV,3,3,11,24,36.0,344.0,25.0,25,46.0,199.0,21.0,29,19.0,213.0,36.0*51
$GPGGA,154634,0549.4176,S,03512.5468,W,1,9,2.6,42.1,M,,,,*13
$GPGLL,0549.4176,S,03512.5468,W,154634,A*22
$GPGSV,3,2,11,15,21.0,14.0,24.0,18,12.0,331.0,18.0,20,67.0,17.0,21.0,21,22.0,290.0,21.0*73
$GPGSV,3,2,11,15,21.0,14.0,24.0,18,12.0,331.0,18.0,20,67.0,17.0,21.0,21,22.0,290.0,22.0*70
$GPGLL,0549.4319,S,03512.5520,W,154636,A*26
$GPGSV,3,2,11,15,21.0,14.0,22.0,18,12.0,331.0,20.0,20,67.0,17.0,22.0,21,22.0,290.0,22.0*7e
$GPGSV,3,3,11,24,36.0,344.0,27.0,25,46.0,199.0,20.0,29,19.0,213.0,35.0*51
$GPGSA,A,3,2,5,12,,15,,20,21,24,25,29,,,,,*3b
$GPGSV,3,1,11,2,12.0,148.0,11.0,5,44.0,118.0,20.0,12,71.0,119.0,26.0,13,9.0,50.0,21.0*7d
$GPGLL,0549.4459,S,03512.5574,W,154638,A*2a
$GPGSV,3,2,11,15,21.0,14.0,20.0,18,12.0,331.0,20.0,20,67.0,17.0,21.0,21,22.0,290.0,20.0*7d
