$GPGSV,3,2,14,15,38.0,93.0,37.0,18,67.0,272.0,37.0,20,34.0,156.0,30.0,21,29.0,210.0,29.0*43
$GPGSV,3,3,14,22,2.0,316.0,0.0,24,6.0,39.0,14.0,25,52.0,355.0,35.0,26,18.0,228.0,25.0*72
$GPGSA,A,3,10,12,,,15,18,20,21,,24,25,26,,,,*3b
$GPGSV,3,1,14,10,39.0,306.0,46.0,12,17.0,22.0,27.0,13,8.0,118.0,29.0,14,7.0,337.0,24.0*48
$GPGLL,0547.5626,S,03511.8625,W,183030,A*22
$GPGSV,3,2,14,15,38.0,93.0,36.0,18,67.0,272.0,37.0,20,34.0,156.0,31.0,21,29.0,210.0,29.0*43
$GPGSV,3,3,14,22,2.0,316.0,0.0,24,6.0,39.0,16.0,25,52.0,355.0,34.0,26,18.0,228.0,27.0*73
$GPGLL,0547.5592,S,03511.8612,W,183032,A*28
$GPGSV,3,1,14,10,39.0,306.0,45.0,12,17.0,22.0,26.0,13,8.0,118.0,23.0,14,7.0,337.0,20.0*44
$GPGSV,3,1,14,10,39.0,306.0,37.0,12,17.0,22.0,28.0,13,8.0,118.0,23.0,14,7.0,337.0,19.0*45
$GPGSV,3,2,14,15,38.0,93.0,37.0,18,67.0,270.0,44.0,20,34.0,156.0,40.0,21,29.0,210.0,28.0*43
$GPGSV,3,3,14,22,2.0,316.0,0.0,24,6.0,39.0,15.0,25,52.0,355.0,39.0,26,18.0,228.0,32.0*79
$GPGGA,183034,0547.5552,S,03511.8622,W,1,10,2.1,33.2,M,,,,*2a
$GPGSV,3,1,14,10,39.0,306.0,37.0,12,17.0,22.0,28.0,13,8.0,118.0,24.0,14,7.0,337.0,18.0*43
$GPGLL,0550.7070,S,03512.6082,W,153607,A*2a
$GPGSV,3,1,11,2,19.0,153.0,24.0,5,49.0,104.0,41.0,12,65.0,146.0,40.0,13,9.0,41.0,25.0*76
$GPGSV,3,1,11,2,19.0,153.0,26.0,5,49.0,104.0,32.0,12,65.0,146.0,32.0,13,9.0,41.0,37.0*76
$GPGSV,3,2,11,15,19.0,6.0,29.0,18,4.0,329.0,0.0,20,57.0,8.0,27.0,21,17.0,299.0,22.0*76
$GPGSV,3,3,11,24,43.0,335.0,27.0,25,36.0,200.0,36.0,29,17.0,222.0,26.0*58
$GPGGA,153609,0550.7043,S,03512.6070,W,1,9,2.3,65.8,M,,,,*11
$GPGSV,3,1,11,2,19.0,153.0,27.0,5,49.0,104.0,30.0,12,65.0,146.0,31.0,13,9.0,41.0,27.0*77
$GPGLL,0550.7038,S,03512.6065,W,153610,A*29
$GPRMC,153610,A,0550.7038,S,03512.6065,W,1.1986468817077542,125.82,240116,,*12
$GPGSV,3,1,11,2,19.0,153.0,29.0,5,49.0,104.0,29.0,12,65.0,146.0,32.0,13,9.0,41.0,28.0*7d
$GPGSV,3,2,11,15,19.0,6.0,27.0,18,4.0,329.0,0.0,20,57.0,8.0,25.0,21,17.0,299.0,24.0*7c
$GPGLL,0550.7033,S,03512.6066,W,153611,A*20
$GPGSV,3,1,11,2,19.0,153.0,28.0,5,49.0,104.0,30.0,12,65.0,146.0,31.0,13,9.0,41.0,19.0*75
$GPGLL,0550.7028,S,03512.6064,W,153612,A*2b
$GPGLL,0550.2365,S,03513.1750,W,193528,A*24
$GPGSV,3,2,13,18,55.0,202.0,39.0,20,11.0,147.0,27.0,21,30.0,177.0,36.0,22,21.0,296.0,22.0*76
$GPGSV,3,3,13,24,6.0,65.0,21.0,25,24.0,8.0,34.0,26,32.0,257.0,40.0,29,58.0,86.0,38.0*47
$GPGSA,A,3,10,14,15,,18,20,21,22,24,25,26,29,,,,*36
$GPGSV,3,1,13,10,51.0,264.0,34.0,14,29.0,349.0,34.0,15,28.0,125.0,28.0,16,13.0,232.0,19.0*70
$GPGLL,0550.2381,S,03513.1741,W,193529,A*2f
$GPRMC,193529,A,0550.2381,S,03513.1741,W,6.094288921325639,143.0,240116,,*15
$GPGSV,3,1,13,10,51.0,264.0,34.0,14,29.0,349.0,29.0,15,28.0,125.0,31.0,16,13.0,232.0,23.0*7d
$GPGSV,3,2,13,18,55.0,202.0,40.0,20,11.0,147.0,27.0,21,30.0,177.0,25.0,22,21.0,296.0,32.0*7b
$GPGSV,3,3,13,24,6.0,65.0,19.0,25,24.0,8.0,29.0,26,32.0,257.0,37.0,29,58.0,86.0,38.0*40
$GPGGA,193531,0550.2405,S,03513.1710,W,1,11,1.9,90.6,M,,,,*25
$GPGSV,3,1,13,10,51.0,264.0,33.0,14,29.0,349.0,29.0,15,28.0,125.0,42.0,16,13.0,232.0,25.0*78
$GPGLL,0550.2418,S,03513.1685,W,193532,A*2b
$GPGSV,3,1,13,10,51.0,264.0,32.0,14,29.0,349.0,28.0,15,28.0,125.0,32.0,16,13.0,232.0,26.0*7c
$GPGSA,A,1,,,,,,,,,,,,,,,,*32
$GPGSV,3,1,11,2,62.0,163.0,0.0,5,38.0,38.0,0.0,6,20.0,148.0,0.0,12,29.0,190.0,0.0*75
$GPGSV,3,2,11,13,17.0,3.0,0.0,15,20.0,325.0,0.0,20,18.0,345.0,0.0,24,60.0,252.0,0.0*71
$GPGSV,3,3,11,25,3.0,217.0,0.0,28,6.0,66.0,0.0,29,12.0,266.0,0.0*51
$GPGSA,A,1,,,,,,,,,,,,,,,,*32
$GPGSV,3,3,11,25,3.0,217.0,0.0,28,6.0,66.0,0.0,29,12.0,266.0,0.0*51
$GPGSV,3,3,11,25,3.0,217.0,0.0,28,6.0,66.0,0.0,29,12.0,266.0,0.0*51
$GPGSV,3,2,11,13,17.0,3.0,0.0,15,20.0,325.0,0.0,20,18.0,345.0,0.0,24,60.0,252.0,0.0*71
$GPGSV,3,3,11,25,3.0,217.0,0.0,28,6.0,66.0,0.0,29,12.0,266.0,0.0*51
$GPGSV,3,3,11,25,3.0,217.0,0.0,28,6.0,66.0,0.0,29,12.0,266.0,0.0*51
$GPGSV,3,3,11,25,3.0,217.0,0.0,28,6.0,66.0,0.0,29,12.0,266.0,0.0*51
$GPGSV,3,3,11,25,3.0,217.0,0.0,28,6.0,66.0,0.0,29,12.0,266.0,0.0*51
$GPGSV,3,3,11,25,3.0,217.0,0.0,28,6.0,66.0,0.0,29,12.0,266.0,0.0*51
$GPGSA,A,1,,,,,,,,,,,,,,,,*32
$GPGSV,3,3,11,25,3.0,217.0,0.0,28,6.0,66.0,0.0,29,12.0,266.0,0.0*51
$GPGSV,3,3,11,25,3.0,217.0,0.0,28,6.0,66.0,0.0,29,12.0,266.0,0.0*51
$GPGSV,3,3,11,25,3.0,217.0,0.0,28,6.0,66.0,0.0,29,12.0,266.0,0.0*51
$GPGSV,3,3,11,25,3.0,217.0,0.0,28,6.0,66.0,0.0,29,12.0,266.0,0.0*51
$GPGSV,3,3,11,25,3.0,217.0,0.0,28,6.0,66.0,0.0,29,12.0,266.0,0.0*51
$GPGSV,3,3,11,25,3.0,217.0,0.0,28,6.0,66.0,0.0,29,12.0,266.0,0.0*51
$GPGSV,3,3,11,25,3.0,217.0,0.0,28,6.0,66.0,0.0,29,12.0,266.0,0.0*51
$GPGSV,3,3,11,25,3.0,217.0,0.0,28,6.0,66.0,0.0,29,12.0,266.0,0.0*51
$GPGSV,3,3,11,25,3.0,217.0,0.0,28,6.0,66.0,0.0,29,12.0,266.0,0.0*51
$GPGSV,3,3,11,25,3.0,217.0,0.0,28,6.0,66.0,0.0,29,12.0,266.0,0.0*51
$GPGSA,A,1,,,,,,,,,,,,,,,,*32
$GPGSV,3,3,11,25,3.0,217.0,0.0,28,6.0,66.0,0.0,29,12.0,266.0,0.0*51
$GPGSV,3,3,11,25,3.0,217.0,0.0,28,6.0,66.0,0.0,29,12.0,266.0,0.0*51
$GPGSV,3,3,11,25,3.0,217.0,0.0,28,6.0,66.0,0.0,29,12.0,266.0,0.0*51
$GPGSV,3,2,11,13,17.0,3.0,0.0,15,20.0,325.0,0.0,20,18.0,345.0,0.0,24,60.0,252.0,0.0*71
$GPGSV,3,3,11,25,3.0,217.0,0.0,28,6.0,66.0,0.0,29,12.0,266.0,0.0*51
$GPGSV,3,3,11,25,3.0,217.0,0.0,28,6.0,66.0,0.0,29,12.0,266.0,0.0*51
$GPGSV,3,3,11,25,3.0,217.0,0.0,28,6.0,66.0,0.0,29,12.0,266.0,0.0*51
$GPGSV,3,3,11,25,3.0,217.0,0.0,28,6.0,66.0,0.0,29,12.0,266.0,0.0*51
$GPGSV,3,3,11,25,3.0,217.0,0.0,28,6.0,66.0,0.0,29,12.0,266.0,0.0*51
$GPGSV,3,3,11,25,3.0,217.0,0.0,28,6.0,65.0,0.0,29,12.0,266.0,0.0*52
$GPGSV,3,3,11,25,3.0,217.0,0.0,28,6.0,65.0,0.0,29,12.0,266.0,0.0*52
$GPGSV,3,3,11,25,3.0,217.0,0.0,28,6.0,65.0,0.0,29,12.0,266.0,0.0*52
$GPGSV,3,3,11,25,3.0,217.0,0.0,28,6.0,65.0,0.0,29,12.0,266.0,0.0*52
$GPGSV,3,3,11,25,3.0,217.0,0.0,28,6.0,65.0,0.0,29,12.0,266.0,0.0*52
$GPGSV,3,3,11,25,3.0,217.0,0.0,28,6.0,65.0,0.0,29,12.0,266.0,0.0*52
$GPGSV,3,3,11,25,3.0,217.0,0.0,28,6.0,65.0,0.0,29,12.0,266.0,0.0*52
$GPGSV,3,3,11,25,3.0,217.0,0.0,28,6.0,65.0,0.0,29,12.0,266.0,0.0*52
$GPGLL,0549.0870,S,03512.4197,W,182618,A*28
$GPGSV,3,1,14,10,37.0,309.0,29.0,12,20.0,22.0,32.0,13,9.0,116.0,17.0,14,6.0,336.0,0.0*74
$GPGSV,3,2,14,15,38.0,89.0,40.0,18,66.0,277.0,33.0,20,36.0,156.0,19.0,21,29.0,212.0,39.0*42
$GPGSV,3,3,14,22,1.0,316.0,0.0,24,6.0,37.0,18.0,25,54.0,354.0,34.0,26,17.0,227.0,28.0*78
$GPGSA,A,3,10,12,,,15,18,20,21,,24,25,26,,,,*3b
$GPGSV,3,1,14,10,37.0,309.0,46.0,12,20.0,22.0,32.0,13,9.0,116.0,15.0,14,6.0,336.0,0.0*7f
$GPGLL,0549.0784,S,03512.4167,W,182620,A*28
$GPGSV,3,2,14,15,38.0,89.0,40.0,18,66.0,277.0,30.0,20,36.0,156.0,22.0,21,29.0,212.0,38.0*48
$GPGSV,3,2,14,15,38.0,89.0,41.0,18,66.0,277.0,28.0,20,36.0,156.0,33.0,21,29.0,212.0,38.0*40
$GPGLL,0549.0599,S,03512.4094,W,182624,A*2f
$GPGSV,3,2,14,15,38.0,89.0,43.0,18,66.0,277.0,20.0,20,36.0,156.0,33.0,21,29.0,212.0,38.0*4a
$GPGSV,3,3,14,22,1.0,316.0,0.0,24,6.0,37.0,17.0,25,54.0,354.0,32.0,26,17.0,227.0,19.0*73
$GPGSA,A,3,10,12,,,15,18,20,21,,24,25,26,,,,*3b
$GPGSV,3,1,14,10,37.0,309.0,33.0,12,20.0,22.0,29.0,13,9.0,116.0,24.0,14,6.0,336.0,17.0*43
$GPGSV,3,1,14,10,37.0,309.0,42.0,12,20.0,22.0,27.0,13,9.0,116.0,26.0,14,6.0,336.0,16.0*48
$GPGGA,182626,0549.0488,S,03512.4056,W,1,10,2.1,40.5,M,,,,*2a
$GPGLL,0549.0488,S,03512.4056,W,182626,A*22
$GPRMC,182626,A,0549.0488,S,03512.4056,W,21.315502733199512,20.04,240116,,*20
$GPGSA,A,3,10,12,,,15,18,20,21,,24,25,26,,,,*3b
$GPGSV,3,1,14,10,37.0,309.0,43.0,12,20.0,22.0,28.0,13,9.0,116.0,22.0,14,6.0,336.0,16.0*42
$GPGLL,0549.0428,S,03512.4036,W,182627,A*2f
$GPGSV,3,1,14,10,37.0,309.0,44.0,12,20.0,22.0,27.0,13,9.0,116.0,21.0,14,6.0,336.0,17.0*48
$GPGSV,3,2,14,15,38.0,89.0,27.0,18,66.0,277.0,25.0,20,36.0,156.0,30.0,21,29.0,212.0,38.0*4e
$GPGSV,3,3,14,22,1.0,316.0,0.0,24,6.0,37.0,18.0,25,54.0,354.0,33.0,26,17.0,227.0,18.0*7c
$GPGGA,182629,0549.0300,S,03512.3992,W,1,10,2.0,40.9,M,,,,*29
$GPGLL,0549.0300,S,03512.3992,W,182629,A*2c
$GPGSV,3,2,14,15,38.0,89.0,40.0,18,66.0,277.0,26.0,20,36.0,156.0,28.0,21,29.0,212.0,38.0*45
$GPGSV,3,3,14,22,1.0,316.0,0.0,24,6.0,37.0,19.0,25,54.0,354.0,34.0,26,17.0,227.0,17.0*75
$GPGSV,3,2,14,15,38.0,89.0,42.0,18,66.0,277.0,24.0,20,36.0,156.0,28.0,21,29.0,212.0,37.0*4a
$GPGSV,3,3,14,22,1.0,316.0,0.0,24,6.0,37.0,18.0,25,54.0,354.0,33.0,26,17.0,227.0,15.0*71
$GPGSA,A,3,10,12,,,15,18,20,21,,24,25,26,,,,*3b
$GPGSV,3,1,14,10,37.0,309.0,44.0,12,20.0,22.0,27.0,13,9.0,116.0,23.0,14,6.0,336.0,16.0*4b
$GPGSV,3,2,14,15,38.0,89.0,42.0,18,66.0,277.0,24.0,20,36.0,156.0,29.0,21,29.0,212.0,37.0*4b
$GPGSV,3,3,14,22,1.0,316.0,0.0,24,6.0,37.0,17.0,25,54.0,354.0,33.0,26,17.0,227.0,13.0*78
$GPGGA,182633,0549.0017,S,03512.3891,W,1,10,1.9,41.9,M,,,,*2e
$GPGSV,3,2,14,15,38.0,89.0,42.0,18,66.0,277.0,25.0,20,36.0,156.0,29.0,21,29.0,212.0,37.0*4a
$GPGSV,3,3,14,22,1.0,316.0,0.0,24,6.0,37.0,17.0,25,54.0,354.0,33.0,26,17.0,227.0,12.0*79
$GPGSA,A,3,10,12,,,15,18,20,21,,24,25,26,,,,*3b
$GPGSV,3,1,14,10,37.0,309.0,44.0,12,20.0,22.0,27.0,13,9.0,116.0,30.0,14,6.0,336.0,14.0*4b
$GPGSV,3,2,14,15,38.0,89.0,42.0,18,66.0,277.0,26.0,20,36.0,156.0,28.0,21,29.0,212.0,37.0*48
$GPGSV,3,3,14,22,1.0,316.0,0.0,24,6.0,37.0,17.0,25,54.0,354.0,33.0,26,17.0,227.0,22.0*7a
$GPGGA,182635,0548.9865,S,03512.3836,W,1,10,1.9,42.9,M,,,,*23
$GPGSV,3,3,11,25,4.0,216.0,18.0,28,5.0,64.0,15.0,29,12.0,264.0,0.0*59
$GPGSV,3,3,11,25,4.0,216.0,18.0,28,5.0,64.0,15.0,29,12.0,264.0,0.0*59
$GPGSA,A,1,,,,,,,,,,,,,,,,*32
$GPGSV,3,3,11,25,4.0,216.0,17.0,28,5.0,64.0,15.0,29,12.0,264.0,0.0*56
$GPGSV,3,1,11,2,60.0,163.0,17.0,5,39.0,40.0,0.0,6,19.0,148.0,0.0,12,30.0,188.0,32.0*75
$GPGSV,3,3,11,25,4.0,216.0,16.0,28,5.0,64.0,16.0,29,12.0,264.0,0.0*54
$GPGSV,3,3,11,25,4.0,216.0,16.0,28,5.0,64.0,16.0,29,12.0,264.0,0.0*54
$GPGSV,3,3,11,25,4.0,216.0,16.0,28,5.0,64.0,16.0,29,12.0,264.0,0.0*54
$GPGSA,A,1,,,,,,,,,,,,,,,,*32
$GPGSV,3,3,11,25,4.0,216.0,15.0,28,5.0,64.0,16.0,29,12.0,264.0,0.0*57
$GPGSA,A,1,,,,,,,,,,,,,,,,*32
$GPGSV,3,3,11,25,4.0,216.0,14.0,28,5.0,64.0,16.0,29,12.0,264.0,0.0*56
$GPGSV,3,3,11,25,4.0,216.0,14.0,28,5.0,64.0,16.0,29,12.0,264.0,0.0*56
$GPGSV,3,3,11,25,4.0,216.0,14.0,28,5.0,64.0,16.0,29,12.0,264.0,0.0*56
$GPGSV,3,2,13,18,58.0,207.0,36.0,20,13.0,148.0,22.0,21,30.0,181.0,29.0,22,19.0,299.0,20.0*78
$GPGSV,3,2,13,18,58.0,207.0,36.0,20,13.0,148.0,22.0,21,30.0,181.0,31.0,22,19.0,299.0,26.0*77
$GPGSV,3,3,13,24,5.0,62.0,0.0,25,27.0,7.0,31.0,26,31.0,252.0,39.0,29,59.0,94.0,31.0*7a
$GPGGA,192710,0547.7328,S,03512.2531,W,1,10,2.4,39.9,M,,,,*2e
$GPGLL,0547.7328,S,03512.2531,W,192710,A*21
$GPGSV,3,2,13,18,58.0,207.0,36.0,20,13.0,148.0,21.0,21,30.0,181.0,31.0,22,19.0,299.0,30.0*73
$GPGSV,3,3,13,24,5.0,62.0,0.0,25,27.0,7.0,31.0,26,31.0,252.0,39.0,29,59.0,94.0,29.0*73
$GPGLL,0547.7401,S,03512.2560,W,192712,A*2b
$GPGSV,3,2,13,18,58.0,207.0,37.0,20,13.0,148.0,19.0,21,30.0,181.0,24.0,22,19.0,299.0,32.0*7f
$GPGSV,3,3,13,24,5.0,62.0,0.0,25,27.0,7.0,32.0,26,31.0,252.0,37.0,29,59.0,94.0,31.0*77
$GPGGA,192714,0547.7477,S,03512.2588,W,1,10,2.2,37.6,M,,,,*22
$GPGLL,0547.7477,S,03512.2588,W,192714,A*2a
$GPGSV,3,2,13,18,58.0,207.0,37.0,20,13.0,148.0,29.0,21,30.0,181.0,24.0,22,19.0,299.0,30.0*7e
$GPGSV,3,3,13,24,5.0,62.0,0.0,25,27.0,7.0,33.0,26,31.0,252.0,27.0,29,59.0,94.0,29.0*7e
$GPGSV,3,2,11,15,19.0,6.0,27.0,18,4.0,329.0,0.0,20,57.0,8.0,32.0,21,17.0,299.0,22.0*7c
$GPGSV,3,3,11,24,43.0,335.0,33.0,25,36.0,200.0,38.0,29,17.0,222.0,16.0*50
$GPGSA,A,3,2,5,12,13,15,,20,,24,25,29,,,,,*3a
$GPGSV,3,1,11,2,19.0,153.0,28.0,5,49.0,104.0,42.0,12,65.0,146.0,32.0,13,9.0,41.0,25.0*7c
$GPGLL,0550.7055,S,03512.6108,W,153602,A*2b
$GPRMC,153602,A,0550.7055,S,03512.6108,W,4.862624104617093,143.88,240116,,*2d
$GPGSV,3,2,11,15,19.0,6.0,28.0,18,4.0,329.0,0.0,20,57.0,8.0,42.0,21,17.0,299.0,25.0*73
$GPGSV,3,3,11,24,43.0,335.0,41.0,25,36.0,200.0,27.0,29,17.0,222.0,18.0*55
$GPGLL,0550.7068,S,03512.6090,W,153604,A*23
$GPRMC,153604,A,0550.7068,S,03512.6090,W,3.895101841017597,131.83,240116,,*2b
$GPGSA,A,3,2,5,12,13,15,,20,,24,25,29,,,,,*3a
$GPGSV,3,1,11,2,19.0,153.0,26.0,5,49.0,104.0,31.0,12,65.0,146.0,37.0,13,9.0,41.0,26.0*70
$GPGSA,A,3,2,5,12,13,15,,20,,24,25,29,,,,,*3a
$GPGSV,3,1,11,2,19.0,153.0,29.0,5,49.0,104.0,32.0,12,65.0,146.0,37.0,13,9.0,41.0,26.0*7c
$GPGSV,3,2,14,15,38.0,90.0,35.0,18,67.0,275.0,26.0,20,35.0,156.0,27.0,21,29.0,211.0,21.0*4b
$GPGSV,3,3,14,22,2.0,316.0,0.0,24,6.0,38.0,22.0,25,53.0,354.0,29.0,26,17.0,227.0,19.0*74
$GPGSA,A,3,10,12,,,15,18,20,21,,24,25,26,,,,*3b
$GPGSV,3,1,14,10,37.0,308.0,39.0,12,19.0,22.0,37.0,13,9.0,117.0,30.0,14,6.0,336.0,17.0*49
$GPGLL,0548.2360,S,03512.1086,W,182820,A*20
$GPRMC,182820,A,0548.2360,S,03512.1086,W,22.84933050265209,20.25,240116,,*18
$GPGSA,A,3,10,12,,,15,18,20,21,,24,25,26,,,,*3b
$GPGSV,3,1,14,10,37.0,308.0,32.0,12,19.0,22.0,38.0,13,9.0,117.0,30.0,14,6.0,336.0,19.0*43
$GPGGA,182822,0548.2238,S,03512.1040,W,1,10,2.2,45.5,M,,,,*2a
$GPGLL,0548.2238,S,03512.1040,W,182822,A*24
$GPRMC,182822,A,0548.2238,S,03512.1040,W,23.514690740404834,21.51,240116,,*26
$GPGSA,A,3,10,12,,,15,18,20,21,,24,25,26,,,,*3b
$GPGSV,3,1,14,10,37.0,308.0,34.0,12,19.0,22.0,37.0,13,9.0,117.0,23.0,14,6.0,336.0,18.0*49
$GPGLL,0548.2179,S,03512.1017,W,182823,A*21
$GPGSV,3,1,14,10,38.0,307.0,46.0,12,18.0,22.0,38.0,13,9.0,118.0,35.0,14,7.0,337.0,0.0*73
$GPGLL,0548.0893,S,03512.0547,W,182844,A*2e
$GPGSV,3,1,14,10,38.0,307.0,46.0,12,18.0,22.0,38.0,13,9.0,118.0,35.0,14,7.0,337.0,18.0*4a
$GPGLL,0548.0891,S,03512.0545,W,182845,A*2f
$GPGSV,3,1,14,10,38.0,307.0,46.0,12,18.0,22.0,38.0,13,9.0,118.0,35.0,14,7.0,337.0,0.0*73
$GPGSV,3,2,14,15,38.0,91.0,35.0,18,67.0,272.0,30.0,20,34.0,156.0,35.0,21,29.0,210.0,26.0*4e
$GPGSV,3,3,14,22,2.0,316.0,0.0,24,6.0,39.0,26.0,25,52.0,355.0,30.0,26,18.0,228.0,33.0*71
$GPGLL,0548.0887,S,03512.0544,W,182847,A*2b
$GPGSV,3,2,14,15,38.0,91.0,33.0,18,67.0,272.0,31.0,20,34.0,156.0,33.0,21,29.0,210.0,26.0*4f
$GPGLL,0548.0886,S,03512.0544,W,182849,A*24
$GPGSV,3,2,14,15,38.0,91.0,32.0,18,67.0,272.0,32.0,20,34.0,156.0,33.0,21,29.0,210.0,26.0*4d
$GPGSV,3,2,14,15,38.0,91.0,33.0,18,67.0,272.0,31.0,20,34.0,156.0,33.0,21,29.0,210.0,18.0*42
$GPGSV,3,3,14,22,2.0,316.0,0.0,24,6.0,39.0,23.0,25,52.0,355.0,32.0,26,18.0,228.0,22.0*76
$GPGSA,A,3,10,12,,,15,18,20,,,24,25,26,,,,*38
$GPGLL,0548.0886,S,03512.0544,W,182851,A*2d
$GPRMC,182851,A,0548.0886,S,03512.0544,W,0.0,18.11,240116,,*13
$GPGSV,3,1,14,10,38.0,307.0,46.0,12,18.0,22.0,35.0,13,9.0,118.0,35.0,14,7.0,337.0,18.0*47
$GPGLL,0548.0886,S,03512.0544,W,182853,A*2f
$GPRMC,182853,A,0548.0886,S,03512.0544,W,0.0,18.11,240116,,*11
$GPGSA,A,3,10,12,,,15,18,20,21,,24,25,26,,,,*3b
$GPGSV,3,1,14,10,38.0,307.0,47.0,12,18.0,22.0,34.0,13,9.0,118.0,35.0,14,7.0,337.0,18.0*47
$GPGLL,0548.0886,S,03512.0544,W,182854,A*28
$GPGSV,3,1,14,10,38.0,307.0,47.0,12,18.0,22.0,33.0,13,9.0,118.0,35.0,14,7.0,337.0,18.0*40
$GPGSV,3,2,14,15,38.0,91.0,34.0,18,67.0,272.0,31.0,20,34.0,156.0,32.0,21,29.0,210.0,25.0*4a
$GPGSV,3,3,14,22,2.0,316.0,0.0,24,6.0,39.0,26.0,25,52.0,355.0,35.0,26,18.0,228.0,28.0*7e
$GPGSA,A,3,10,12,,,15,18,20,21,,24,25,26,,,,*3b
$GPGSV,3,1,14,10,38.0,307.0,47.0,12,18.0,22.0,32.0,13,9.0,118.0,35.0,14,7.0,337.0,18.0*41
$GPGLL,0548.0886,S,03512.0544,W,182856,A*2a
$GPGSA,A,1,,,,,,,,,,,,,,,,*32
$GPGSV,3,1,12,1,9.0,94.0,0.0,5,17.0,270.0,0.0,6,16.0,352.0,0.0,7,31.0,121.0,0.0*79
$GPGSV,3,2,12,9,43.0,33.0,0.0,11,11.0,116.0,0.0,13,16.0,213.0,0.0,17,72.0,359.0,0.0*7a
$GPGSV,3,3,12,19,66.0,357.0,0.0,23,9.0,35.0,0.0,28,40.0,202.0,0.0,30,35.0,160.0,0.0*71
$GPGSA,A,1,,,,,,,,,,,,,,,,*32
$GPGSV,3,1,12,1,9.0,94.0,0.0,5,17.0,270.0,0.0,6,16.0,352.0,0.0,7,31.0,121.0,0.0*79
$GPGSV,3,3,12,19,66.0,357.0,0.0,23,9.0,35.0,0.0,28,40.0,202.0,0.0,30,35.0,160.0,0.0*71
$GPGSV,3,3,12,19,66.0,357.0,0.0,23,9.0,35.0,0.0,28,40.0,202.0,0.0,30,35.0,160.0,33.0*41
$GPGSV,3,3,12,19,66.0,357.0,0.0,23,9.0,35.0,0.0,28,40.0,202.0,0.0,30,35.0,160.0,32.0*40
$GPGSV,3,3,12,19,66.0,357.0,0.0,23,9.0,35.0,0.0,28,40.0,202.0,0.0,30,35.0,160.0,40.0*45
$GPGSV,3,3,12,19,66.0,357.0,0.0,23,9.0,35.0,0.0,28,40.0,202.0,0.0,30,35.0,160.0,33.0*41
$GPGSV,3,3,12,19,66.0,357.0,0.0,23,9.0,35.0,0.0,28,40.0,202.0,0.0,30,35.0,160.0,26.0*45
$GPGSV,3,3,12,19,66.0,357.0,0.0,23,9.0,35.0,0.0,28,40.0,202.0,0.0,30,35.0,160.0,27.0*44
$GPGSV,3,3,12,19,66.0,357.0,0.0,23,9.0,35.0,0.0,28,40.0,202.0,0.0,30,35.0,160.0,19.0*49
$GPGSV,3,3,12,19,66.0,357.0,0.0,23,9.0,35.0,0.0,28,40.0,202.0,0.0,30,35.0,160.0,20.0*43
$GPGSV,3,3,12,19,66.0,357.0,0.0,23,9.0,35.0,0.0,28,40.0,202.0,0.0,30,35.0,160.0,19.0*49
$GPGSV,3,3,12,19,66.0,357.0,0.0,23,9.0,35.0,0.0,28,40.0,202.0,0.0,30,35.0,160.0,18.0*48
$GPGSV,3,3,12,19,66.0,357.0,36.0,23,9.0,35.0,0.0,28,40.0,202.0,0.0,30,35.0,160.0,18.0*7d
$GPGSV,3,3,12,17,75.0,170.0,0.0,19,82.0,171.0,32.0,28,26.0,173.0,0.0,30,44.0,126.0,18.0*78
$GPGSV,3,3,12,17,75.0,170.0,0.0,19,82.0,171.0,35.0,28,26.0,173.0,26.0,30,44.0,126.0,18.0*4b
$GPGSV,3,3,12,17,75.0,170.0,0.0,19,82.0,171.0,36.0,28,26.0,173.0,29.0,30,44.0,126.0,18.0*47
$GPGSV,3,2,12,7,31.0,87.0,0.0,9,17.0,27.0,31.0,13,39.0,224.0,31.0,15,2.0,221.0,0.0*40
$GPGSV,3,1,12,1,5.0,120.0,0.0,2,9.0,337.0,0.0,5,15.0,299.0,18.0,6,31.0,13.0,38.0*44
$GPGSA,A,1,,,,,,,,,,,,,,,,*32
$GPGSV,3,3,12,17,75.0,170.0,0.0,19,82.0,171.0,34.0,28,26.0,173.0,26.0,30,44.0,126.0,19.0*4b
$GPGSV,3,2,12,7,31.0,87.0,0.0,9,17.0,27.0,34.0,13,39.0,224.0,33.0,15,2.0,221.0,0.0*47
$GPGSV,2,1,7,5,0.0,0.0,16.0,6,0.0,0.0,37.0,9,0.0,0.0,35.0,13,0.0,0.0,33.0*70
$GPGSV,2,1,7,5,0.0,0.0,15.0,6,0.0,0.0,36.0,9,0.0,0.0,35.0,13,0.0,0.0,32.0*73
$GPGSA,A,1,,,,,,,,,,,,,,,,*32
$GPGSV,3,1,13,10,50.0,273.0,0.0,14,24.0,348.0,0.0,15,31.0,120.0,0.0,16,10.0,228.0,0.0*7c
$GPGSV,3,2,13,18,59.0,210.0,0.0,20,15.0,149.0,0.0,21,30.0,183.0,0.0,22,18.0,301.0,0.0*77
$GPGSV,3,3,13,24,5.0,60.0,0.0,25,28.0,6.0,0.0,26,30.0,250.0,0.0,29,59.0,98.0,0.0*43
$GPGSA,A,1,,,,,,,,,,,,,,,,*32
$GPGSV,3,1,13,10,50.0,273.0,0.0,14,24.0,348.0,0.0,15,31.0,120.0,0.0,16,10.0,228.0,0.0*7c
$GPGSV,3,3,13,24,5.0,60.0,0.0,25,28.0,6.0,0.0,26,30.0,250.0,0.0,29,59.0,98.0,39.0*79
$GPGSV,3,3,13,24,5.0,60.0,0.0,25,28.0,6.0,0.0,26,30.0,250.0,0.0,29,59.0,98.0,37.0*77
$GPGSV,3,3,13,24,5.0,60.0,0.0,25,28.0,6.0,0.0,26,30.0,250.0,0.0,29,59.0,98.0,37.0*77
$GPGSV,3,3,13,24,5.0,60.0,0.0,25,28.0,6.0,0.0,26,30.0,250.0,0.0,29,59.0,98.0,37.0*77
$GPGSV,3,3,13,24,5.0,60.0,0.0,25,28.0,6.0,0.0,26,30.0,250.0,0.0,29,59.0,98.0,38.0*78
$GPGSV,3,3,13,24,5.0,60.0,0.0,25,28.0,6.0,0.0,26,30.0,250.0,0.0,29,59.0,98.0,38.0*78
$GPGSV,3,3,13,24,5.0,60.0,0.0,25,28.0,6.0,33.0,26,30.0,250.0,0.0,29,59.0,98.0,38.0*48
$GPGSV,3,3,13,24,5.0,60.0,0.0,25,28.0,6.0,34.0,26,30.0,250.0,0.0,29,59.0,98.0,28.0*4e
$GPGSV,3,3,13,24,5.0,60.0,0.0,25,28.0,6.0,27.0,26,30.0,250.0,0.0,29,59.0,98.0,44.0*46
$GPGSV,3,3,13,24,5.0,60.0,0.0,25,28.0,6.0,29.0,26,30.0,250.0,0.0,29,59.0,98.0,44.0*48
$GPGSA,A,1,,,,,,,,,,,,,,,,*32
$GPGSV,3,1,13,10,50.0,273.0,0.0,14,24.0,348.0,26.0,15,31.0,120.0,36.0,16,10.0,228.0,0.0*7d
$GPGSV,3,2,13,18,59.0,210.0,0.0,20,15.0,149.0,0.0,21,30.0,183.0,0.0,22,18.0,301.0,31.0*45
$GPGSV,3,2,13,18,59.0,210.0,0.0,20,15.0,149.0,0.0,21,30.0,183.0,0.0,22,18.0,301.0,22.0*47
$GPGSV,3,3,13,24,5.0,60.0,0.0,25,28.0,6.0,29.0,26,30.0,250.0,0.0,29,59.0,98.0,45.0*49
$GPGSV,3,1,13,10,50.0,273.0,38.0,14,24.0,348.0,23.0,15,31.0,120.0,35.0,16,10.0,228.0,0.0*40
$GPGLL,0547.3645,S,03512.2176,W,192232,A*29
$GPRMC,192232,A,0547.3645,S,03512.2176,W,1.7469427733599139,343.97,240116,,*11
$GPGSA,A,3,10,,15,,,,,,,25,26,29,,,,*3d
$GPGSV,3,1,13,10,50.0,273.0,39.0,14,24.0,348.0,23.0,15,31.0,121.0,34.0,16,10.0,228.0,0.0*41
$GPGSV,3,2,13,18,59.0,210.0,0.0,20,15.0,149.0,0.0,21,30.0,183.0,0.0,22,18.0,301.0,21.0*44
$GPGSV,3,3,13,24,5.0,60.0,0.0,25,28.0,6.0,26.0,26,30.0,250.0,34.0,29,59.0,98.0,43.0*77
$GPGSV,3,2,13,18,58.0,207.0,39.0,20,13.0,148.0,21.0,21,30.0,181.0,25.0,22,19.0,299.0,28.0*70
$GPGSV,3,3,13,24,5.0,62.0,0.0,25,27.0,6.0,18.0,26,31.0,251.0,33.0,29,59.0,96.0,27.0*7c
$GPGSA,A,3,10,14,15,,18,20,21,22,,25,26,29,,,,*30
$GPGSV,3,1,13,10,51.0,270.0,44.0,14,26.0,348.0,17.0,15,30.0,122.0,36.0,16,11.0,229.0,15.0*78
$GPGLL,0547.7034,S,03512.2419,W,192632,A*25
$GPGSV,3,2,13,18,58.0,207.0,39.0,20,13.0,148.0,20.0,21,30.0,181.0,25.0,22,19.0,299.0,28.0*71
$GPGSV,3,3,13,24,5.0,62.0,0.0,25,27.0,7.0,19.0,26,31.0,252.0,34.0,29,59.0,96.0,26.0*79
$GPGLL,0547.7079,S,03512.2437,W,192634,A*26
$GPGSV,3,2,13,18,58.0,207.0,38.0,20,13.0,148.0,21.0,21,30.0,181.0,26.0,22,19.0,299.0,29.0*73
$GPGSV,3,3,13,24,5.0,62.0,0.0,25,27.0,7.0,31.0,26,31.0,252.0,41.0,29,59.0,96.0,27.0*70
$GPGSA,A,3,10,14,15,,18,20,21,22,,25,26,29,,,,*30
$GPGSV,3,1,13,10,51.0,270.0,45.0,14,26.0,348.0,32.0,15,30.0,122.0,37.0,16,11.0,229.0,18.0*72
$GPGLL,0547.7104,S,03512.2448,W,192636,A*27
$GPGSV,3,1,13,10,51.0,270.0,45.0,14,26.0,348.0,33.0,15,30.0,122.0,28.0,16,11.0,229.0,18.0*7d
$GPGSA,A,1,,,,,,,,,,,,,,,,*32
$GPGSV,3,1,11,2,49.0,163.0,0.0,5,44.0,52.0,0.0,6,10.0,148.0,0.0,12,37.0,181.0,0.0*77
$GPGSV,3,2,11,13,13.0,12.0,0.0,15,18.0,336.0,0.0,20,27.0,351.0,0.0,24,62.0,280.0,0.0*48
$GPGSV,3,3,11,25,10.0,210.0,0.0,28,2.0,56.0,0.0,29,13.0,254.0,0.0*63
$GPGSA,A,1,,,,,,,,,,,,,,,,*32
$GPGSV,3,1,11,2,49.0,163.0,0.0,5,44.0,52.0,0.0,6,10.0,148.0,0.0,12,37.0,181.0,35.0*41
$GPGSV,3,2,11,13,13.0,12.0,0.0,15,18.0,336.0,0.0,20,27.0,351.0,0.0,24,62.0,280.0,0.0*48
$GPGSV,3,3,11,25,10.0,210.0,0.0,28,2.0,56.0,0.0,29,13.0,254.0,0.0*63
$GPGSA,A,1,,,,,,,,,,,,,,,,*32
$GPGSV,3,1,11,2,49.0,163.0,32.0,5,44.0,52.0,0.0,6,10.0,148.0,0.0,12,37.0,181.0,30.0*75
$GPGSV,3,2,11,13,13.0,12.0,0.0,15,18.0,336.0,0.0,20,27.0,351.0,35.0,24,62.0,280.0,0.0*7e
$GPGSV,3,3,11,25,10.0,210.0,0.0,28,2.0,56.0,0.0,29,13.0,254.0,0.0*63
$GPGSA,A,1,,,,,,,,,,,,,,,,*32
$GPGSV,3,3,11,25,10.0,210.0,35.0,28,2.0,56.0,0.0,29,13.0,254.0,23.0*64
$GPRMC,183039,A,0547.5492,S,03511.8781,W,15.809532664740077,290.11,240116,,*13
$GPGSA,A,3,10,12,,,15,18,20,21,,24,25,26,,,,*3b
$GPGSV,3,1,14,10,39.0,306.0,36.0,12,17.0,22.0,26.0,13,8.0,118.0,23.0,14,7.0,337.0,24.0*44
$GPGSV,3,2,14,15,38.0,93.0,25.0,18,67.0,270.0,32.0,20,34.0,156.0,32.0,21,29.0,209.0,38.0*4d
$GPGSV,3,3,14,22,3.0,315.0,0.0,24,6.0,39.0,17.0,25,51.0,355.0,33.0,26,19.0,228.0,25.0*77
$GPGSA,A,3,10,12,,,15,18,20,21,,24,25,26,,,,*3b
$GPGSV,3,1,14,10,39.0,306.0,37.0,12,17.0,22.0,25.0,13,8.0,118.0,23.0,14,7.0,337.0,0.0*70
$GPGGA,183041,0547.5462,S,03511.8863,W,1,10,2.2,33.9,M,,,,*29
$GPGLL,0547.5462,S,03511.8863,W,183041,A*2a
$GPRMC,183041,A,0547.5462,S,03511.8863,W,15.17518919075499,290.71,240116,,*29
$GPGSA,A,3,10,12,,,15,18,20,21,,24,25,26,,,,*3b
$GPGSV,3,1,14,10,39.0,306.0,39.0,12,17.0,22.0,23.0,13,8.0,118.0,21.0,14,7.0,337.0,0.0*7a
$GPGLL,0547.5430,S,03511.8941,W,183043,A*2e
$GPGSV,3,2,14,15,38.0,93.0,28.0,18,67.0,270.0,32.0,20,34.0,156.0,33.0,21,29.0,209.0,36.0*4f
$GPGSV,3,1,11,2,20.0,153.0,21.0,5,49.0,102.0,38.0,12,64.0,148.0,36.0,13,8.0,40.0,27.0*7d
$GPGLL,0550.6404,S,03512.6227,W,153522,A*25
$GPRMC,153522,A,0550.6404,S,03512.6227,W,6.69561353341265,220.65,240116,,*18
$GPGGA,153523,0550.6414,S,03512.6254,W,1,9,2.3,62.5,M,,,,*13
$GPGLL,0550.6414,S,03512.6254,W,153523,A*21
$GPGSV,3,2,11,15,18.0,5.0,27.0,18,3.0,329.0,0.0,20,56.0,7.0,31.0,21,17.0,299.0,32.0*75
$GPGSV,3,3,11,24,44.0,334.0,37.0,25,35.0,200.0,39.0,29,17.0,223.0,29.0*5d
$GPGSV,3,1,11,2,20.0,153.0,28.0,5,49.0,102.0,39.0,12,64.0,148.0,43.0,13,8.0,40.0,33.0*72
$GPGSV,3,2,11,15,18.0,5.0,29.0,18,3.0,329.0,0.0,20,56.0,7.0,33.0,21,17.0,299.0,29.0*73
$GPGSV,3,3,11,24,44.0,334.0,36.0,25,35.0,200.0,39.0,29,17.0,223.0,28.0*5d
$GPGGA,153525,0550.6446,S,03512.6273,W,1,9,2.3,62.7,M,,,,*15
$GPGSV,3,1,11,2,20.0,153.0,41.0,5,49.0,102.0,41.0,12,64.0,148.0,42.0,13,8.0,40.0,25.0*74
$GPGGA,153526,0550.6471,S,03512.6270,W,1,9,2.3,63.3,M,,,,*14
$GPGLL,0550.6471,S,03512.6270,W,153526,A*21
$GPGSV,3,2,11,15,18.0,5.0,37.0,18,3.0,329.0,0.0,20,56.0,7.0,25.0,21,17.0,299.0,21.0*73
$GPGSV,3,2,11,15,18.0,5.0,36.0,18,3.0,329.0,0.0,20,56.0,7.0,26.0,21,17.0,299.0,21.0*71
$GPGLL,0550.6531,S,03512.6271,W,153529,A*2a
$GPGSV,3,2,11,15,18.0,5.0,34.0,18,3.0,329.0,0.0,20,56.0,7.0,35.0,21,17.0,299.0,21.0*71
$GPGSV,3,3,11,24,44.0,334.0,34.0,25,35.0,200.0,37.0,29,17.0,223.0,27.0*5e
$GPGSA,A,3,2,5,12,13,15,,20,,24,25,29,,,,,*3a
$GPGSV,3,1,11,2,20.0,153.0,37.0,5,49.0,102.0,43.0,12,64.0,148.0,41.0,13,8.0,40.0,27.0*76
$GPGSV,3,1,11,2,19.0,153.0,37.0,5,49.0,102.0,43.0,12,64.0,148.0,41.0,13,8.0,40.0,27.0*7c
$GPGLL,0550.6554,S,03512.6271,W,153531,A*20
$GPRMC,153531,A,0550.6554,S,03512.6271,W,4.838611440165406,154.03,240116,,*25
$GPGSA,A,3,2,5,12,13,15,,20,,24,25,29,,,,,*3a
$GPGSV,3,1,11,2,19.0,153.0,37.0,5,49.0,102.0,42.0,12,64.0,148.0,41.0,13,8.0,40.0,28.0*72
$GPGLL,0550.6559,S,03512.6272,W,153532,A*2d
$GPRMC,153532,A,0550.6559,S,03512.6272,W,3.857081441382611,151.47,240116,,*22
$GPGSV,3,3,11,25,3.0,217.0,0.0,28,6.0,65.0,0.0,29,12.0,266.0,0.0*52
$GPGSV,3,3,11,25,3.0,217.0,0.0,28,6.0,65.0,0.0,29,12.0,266.0,0.0*52
$GPGSV,3,3,11,25,3.0,217.0,0.0,28,6.0,65.0,0.0,29,12.0,266.0,0.0*52
$GPGSV,3,3,11,25,3.0,217.0,0.0,28,6.0,65.0,0.0,29,12.0,266.0,0.0*52
$GPGSV,3,3,11,25,3.0,217.0,0.0,28,6.0,65.0,0.0,29,12.0,266.0,0.0*52
$GPGSV,3,3,11,25,3.0,217.0,0.0,28,6.0,65.0,0.0,29,12.0,266.0,0.0*52
$GPGSV,3,3,11,25,3.0,217.0,0.0,28,6.0,65.0,0.0,29,12.0,266.0,0.0*52
$GPGSV,3,3,11,25,3.0,217.0,0.0,28,6.0,65.0,0.0,29,12.0,266.0,0.0*52
$GPGSV,3,3,11,25,3.0,217.0,0.0,28,6.0,65.0,0.0,29,12.0,266.0,0.0*52
$GPGSV,3,3,11,25,3.0,217.0,0.0,28,6.0,65.0,0.0,29,12.0,266.0,0.0*52
$GPGSV,3,3,11,25,3.0,217.0,0.0,28,6.0,65.0,0.0,29,12.0,266.0,0.0*52
$GPGSV,3,3,11,25,3.0,217.0,0.0,28,6.0,65.0,0.0,29,12.0,266.0,0.0*52
$GPGSV,3,3,11,25,3.0,217.0,0.0,28,6.0,65.0,0.0,29,12.0,266.0,0.0*52
$GPGSV,3,3,11,25,3.0,217.0,0.0,28,6.0,65.0,0.0,29,12.0,266.0,0.0*52
$GPGSV,3,3,11,25,3.0,217.0,0.0,28,6.0,65.0,0.0,29,12.0,266.0,0.0*52
$GPGSV,3,3,11,25,3.0,217.0,0.0,28,6.0,65.0,0.0,29,12.0,266.0,0.0*52
$GPGSV,3,3,11,25,3.0,217.0,0.0,28,6.0,65.0,0.0,29,12.0,266.0,0.0*52
$GPGSV,3,3,11,25,3.0,217.0,0.0,28,6.0,65.0,0.0,29,12.0,266.0,0.0*52
$GPGSV,3,3,11,25,3.0,217.0,0.0,28,6.0,65.0,0.0,29,12.0,266.0,0.0*52
$GPGSV,3,3,11,25,3.0,217.0,0.0,28,6.0,65.0,0.0,29,12.0,266.0,0.0*52
$GPGSV,3,3,11,25,3.0,217.0,0.0,28,6.0,65.0,0.0,29,12.0,266.0,0.0*52
$GPGSV,3,3,11,25,3.0,217.0,0.0,28,6.0,65.0,0.0,29,12.0,266.0,0.0*52
$GPGSV,3,3,11,25,3.0,217.0,0.0,28,6.0,65.0,0.0,29,12.0,266.0,0.0*52
$GPGSV,3,3,11,25,3.0,217.0,0.0,28,6.0,65.0,0.0,29,12.0,266.0,0.0*52
$GPGSV,3,3,11,25,3.0,217.0,0.0,28,6.0,65.0,0.0,29,12.0,266.0,0.0*52
$GPGSV,3,3,11,25,3.0,217.0,0.0,28,6.0,65.0,0.0,29,12.0,266.0,0.0*52
$GPGSV,3,3,11,25,3.0,217.0,0.0,28,6.0,65.0,0.0,29,12.0,266.0,0.0*52
$GPGSV,3,3,11,25,3.0,217.0,0.0,28,6.0,65.0,0.0,29,12.0,266.0,0.0*52
$GPGSV,3,2,11,15,18.0,5.0,32.0,18,3.0,329.0,0.0,20,56.0,7.0,27.0,21,17.0,299.0,33.0*77
$GPGSV,3,3,11,24,44.0,334.0,36.0,25,35.0,200.0,38.0,29,17.0,223.0,29.0*5d
$GPGSA,A,3,2,5,12,13,15,,20,,24,25,29,,,,,*3a
$GPGSV,3,1,11,2,20.0,153.0,30.0,5,49.0,102.0,42.0,12,64.0,148.0,39.0,13,8.0,40.0,33.0*7a
$GPGLL,0550.6192,S,03512.6167,W,153510,A*29
$GPRMC,153510,A,0550.6192,S,03512.6167,W,11.766350177302881,155.93,240116,,*15
$GPGSA,A,3,2,5,12,13,15,,20,,24,25,29,,,,,*3a
$GPGSV,3,1,11,2,20.0,153.0,39.0,5,49.0,102.0,43.0,12,64.0,148.0,42.0,13,8.0,40.0,25.0*79
$GPGSV,3,2,11,15,18.0,5.0,25.0,18,3.0,329.0,0.0,20,56.0,7.0,34.0,21,17.0,299.0,28.0*79
$GPGSV,3,3,11,24,44.0,334.0,34.0,25,35.0,200.0,26.0,29,17.0,223.0,28.0*51
$GPGGA,153512,0550.6241,S,03512.6145,W,1,9,2.2,64.7,M,,,,*11
$GPGSV,3,1,11,2,20.0,153.0,38.0,5,49.0,102.0,44.0,12,64.0,148.0,42.0,13,8.0,40.0,26.0*7c
$GPGSV,3,2,11,15,18.0,5.0,35.0,18,3.0,329.0,0.0,20,56.0,7.0,34.0,21,17.0,299.0,27.0*77
$GPGSV,3,3,11,24,44.0,334.0,26.0,25,35.0,200.0,27.0,29,17.0,223.0,30.0*5a
$GPGSV,3,2,11,13,15.0,6.0,0.0,15,19.0,328.0,0.0,20,21.0,347.0,0.0,24,62.0,261.0,0.0*7b
$GPGSV,3,2,11,13,15.0,6.0,0.0,15,19.0,328.0,0.0,20,21.0,347.0,0.0,24,62.0,261.0,0.0*7b
$GPRMC,135620,A,0549.9184,S,03512.8661,W,0.0,330.08,260116,,*2b
$GPGSV,3,3,11,25,5.0,215.0,0.0,28,5.0,63.0,0.0,29,12.0,262.0,0.0*57
$GPGSA,A,1,,,,,,,,,,,,,,,,*32
$GPGSV,3,1,11,2,58.0,163.0,26.0,5,40.0,42.0,0.0,6,17.0,148.0,22.0,12,31.0,187.0,23.0*40
$GPGSV,3,2,11,13,15.0,6.0,0.0,15,19.0,328.0,0.0,20,21.0,347.0,0.0,24,62.0,261.0,0.0*7b
$GPGSV,3,2,11,13,15.0,6.0,0.0,15,19.0,328.0,0.0,20,21.0,347.0,0.0,24,62.0,261.0,0.0*7b
$GPGSV,3,2,11,13,15.0,6.0,0.0,15,19.0,328.0,0.0,20,21.0,347.0,0.0,24,62.0,261.0,0.0*7b
$GPGSV,3,2,11,13,15.0,6.0,0.0,15,19.0,328.0,0.0,20,21.0,347.0,0.0,24,62.0,261.0,0.0*7b
$GPRMC,135620,A,0549.9184,S,03512.8661,W,0.0,330.08,260116,,*2b
$GPGSA,A,1,,,,,,,,,,,,,,,,*32
$GPGSV,3,3,11,25,5.0,215.0,0.0,28,5.0,63.0,0.0,29,12.0,262.0,0.0*57
$GPGSA,A,1,,,,,,,,,,,,,,,,*32
$GPGSV,3,2,11,13,15.0,6.0,0.0,15,19.0,328.0,0.0,20,21.0,347.0,0.0,24,62.0,261.0,0.0*7b
$GPGSV,3,2,11,13,15.0,6.0,0.0,15,19.0,328.0,0.0,20,21.0,347.0,0.0,24,62.0,261.0,0.0*7b
$GPGSV,3,2,11,13,15.0,6.0,0.0,15,19.0,328.0,0.0,20,21.0,347.0,0.0,24,62.0,261.0,0.0*7b
$GPRMC,135620,A,0549.9184,S,03512.8661,W,0.0,330.08,260116,,*2b
$GPGSV,3,3,11,25,5.0,215.0,0.0,28,5.0,63.0,0.0,29,12.0,262.0,0.0*57
$GPGSA,A,1,,,,,,,,,,,,,,,,*32
$GPGSV,3,1,11,2,58.0,163.0,25.0,5,40.0,42.0,0.0,6,17.0,148.0,22.0,12,31.0,187.0,25.0*45
$GPGSV,3,2,11,13,15.0,6.0,0.0,15,19.0,328.0,0.0,20,21.0,347.0,0.0,24,62.0,261.0,0.0*7b
$GPGSV,3,1,11,2,58.0,163.0,26.0,5,40.0,42.0,0.0,6,17.0,148.0,22.0,12,31.0,187.0,25.0*46
$GPGSV,3,2,11,13,15.0,6.0,0.0,15,19.0,328.0,0.0,20,21.0,347.0,0.0,24,62.0,261.0,0.0*7b
$GPGSV,3,2,11,13,15.0,6.0,0.0,15,19.0,328.0,0.0,20,21.0,347.0,0.0,24,62.0,261.0,0.0*7b
$GPGSV,3,3,11,25,5.0,215.0,0.0,28,5.0,63.0,0.0,29,12.0,262.0,0.0*57
$GPRMC,135620,A,0549.9184,S,03512.8661,W,0.0,330.08,260116,,*2b
$GPGSV,3,3,11,25,5.0,215.0,0.0,28,5.0,63.0,0.0,29,12.0,262.0,0.0*57
$GPGSV,3,2,11,13,15.0,6.0,0.0,15,19.0,329.0,0.0,20,22.0,347.0,0.0,24,62.0,263.0,0.0*7b
$GPRMC,135620,A,0549.9184,S,03512.8661,W,0.0,330.08,260116,,*2b
$GPGSV,3,2,11,13,15.0,6.0,0.0,15,19.0,329.0,0.0,20,22.0,347.0,0.0,24,62.0,263.0,0.0*7b
$GPGSV,3,3,11,25,5.0,214.0,0.0,28,4.0,62.0,0.0,29,13.0,261.0,0.0*54
$GPGSA,A,1,,,,,,,,,,,,,,,,*32
$GPGSV,3,1,11,2,57.0,163.0,24.0,5,40.0,43.0,0.0,6,17.0,148.0,16.0,12,32.0,187.0,18.0*40
$GPGSV,3,2,11,13,15.0,6.0,0.0,15,19.0,329.0,0.0,20,22.0,347.0,0.0,24,62.0,263.0,0.0*7b
$GPGSV,3,2,11,13,15.0,6.0,0.0,15,19.0,329.0,0.0,20,22.0,347.0,0.0,24,62.0,263.0,0.0*7b
$GPGSV,3,1,11,2,57.0,163.0,24.0,5,40.0,43.0,0.0,6,17.0,148.0,16.0,12,32.0,187.0,18.0*40
$GPGSV,3,2,11,13,15.0,6.0,0.0,15,19.0,329.0,0.0,20,22.0,347.0,0.0,24,62.0,263.0,0.0*7b
$GPGSV,3,2,11,13,15.0,6.0,0.0,15,19.0,329.0,0.0,20,22.0,347.0,0.0,24,62.0,263.0,0.0*7b
$GPRMC,135620,A,0549.9184,S,03512.8661,W,0.0,330.08,260116,,*2b
$GPGSV,3,3,11,25,5.0,214.0,0.0,28,4.0,62.0,0.0,29,13.0,261.0,0.0*54
$GPGSA,A,1,,,,,,,,,,,,,,,,*32
$GPGSV,3,1,11,2,20.0,153.0,22.0,5,49.0,102.0,33.0,12,64.0,148.0,28.0,13,8.0,40.0,28.0*75
$GPGSV,3,2,11,15,18.0,5.0,34.0,18,3.0,329.0,0.0,20,56.0,7.0,37.0,21,17.0,299.0,25.0*77
$GPGLL,0550.6316,S,03512.6131,W,153516,A*22
$GPRMC,153516,A,0550.6316,S,03512.6131,W,5.72609009858002,161.17,240116,,*14
$GPGSA,A,3,2,5,12,13,15,,20,,24,25,29,,,,,*3a
$GPGSV,3,1,11,2,20.0,153.0,21.0,5,49.0,102.0,35.0,12,64.0,148.0,30.0,13,8.0,40.0,26.0*77
$GPGLL,0550.6330,S,03512.6130,W,153517,A*26
$GPGSV,3,1,11,2,20.0,153.0,22.0,5,49.0,102.0,35.0,12,64.0,148.0,32.0,13,8.0,40.0,27.0*77
$GPGLL,0550.6363,S,03512.6138,W,153519,A*26
$GPRMC,153519,A,0550.6363,S,03512.6138,W,5.858161375134545,173.71,240116,,*27
$GPGSA,A,3,2,5,12,13,15,,20,,24,25,29,,,,,*3a
$GPGSV,3,1,11,2,20.0,153.0,21.0,5,49.0,102.0,28.0,12,64.0,148.0,32.0,13,8.0,40.0,28.0*77
$GPGSV,3,2,11,15,18.0,5.0,34.0,18,3.0,329.0,0.0,20,56.0,7.0,39.0,21,17.0,299.0,30.0*7d
$GPGSV,3,3,11,24,44.0,334.0,25.0,25,35.0,200.0,37.0,29,17.0,223.0,29.0*50
$GPGSA,A,1,,,,,,,,,,,,,,,,*32
$GPGSV,3,1,14,10,36.0,310.0,0.0,12,20.0,22.0,0.0,13,10.0,115.0,0.0,14,5.0,335.0,0.0*7a
$GPGSV,3,2,14,15,38.0,88.0,0.0,18,66.0,280.0,0.0,20,37.0,156.0,0.0,21,29.0,214.0,0.0*4a
$GPGSV,3,3,14,22,1.0,317.0,0.0,24,6.0,36.0,0.0,25,55.0,353.0,0.0,26,16.0,226.0,0.0*4a
$GPGSA,A,1,,,,,,,,,,,,,,,,*32
$GPGSV,3,1,14,10,36.0,310.0,0.0,12,20.0,22.0,0.0,13,10.0,115.0,0.0,14,5.0,335.0,0.0*7a
$GPGSV,3,2,14,15,38.0,88.0,32.0,18,66.0,280.0,0.0,20,37.0,156.0,37.0,21,29.0,214.0,0.0*4f
$GPGSV,3,3,14,22,1.0,317.0,0.0,24,6.0,36.0,0.0,25,55.0,353.0,0.0,26,16.0,226.0,0.0*4a
$GPGSA,A,1,,,,,,,,,,,,,,,,*32
$GPGSV,3,1,14,10,36.0,310.0,20.0,12,20.0,22.0,0.0,13,10.0,115.0,0.0,14,5.0,335.0,0.0*48
$GPGSV,3,2,14,15,38.0,88.0,38.0,18,66.0,280.0,35.0,20,37.0,156.0,40.0,21,29.0,214.0,0.0*73
$GPGSV,3,3,14,22,1.0,317.0,0.0,24,6.0,36.0,0.0,25,55.0,353.0,0.0,26,16.0,226.0,0.0*4a
$GPGSV,3,3,14,22,1.0,317.0,0.0,24,6.0,36.0,0.0,25,55.0,353.0,0.0,26,16.0,226.0,23.0*7b
$GPGSV,3,3,14,22,1.0,317.0,0.0,24,6.0,36.0,0.0,25,55.0,353.0,0.0,26,16.0,226.0,25.0*7d
$GPGGA,153700,0550.7014,S,03512.6036,W,1,9,3.7,65.5,M,,,,*11
$GPGLL,0550.7014,S,03512.6036,W,153700,A*21
$GPRMC,153700,A,0550.7014,S,03512.6036,W,0.0,125.82,240116,,*2a
$GPGSA,A,1,,,,,,,,,,,,,,,,*32
$GPGSV,3,1,12,2,3.0,140.0,0.0,5,35.0,132.0,0.0,12,71.0,66.0,0.0,13,10.0,63.0,0.0*4c
$GPGSV,3,2,12,15,24.0,27.0,0.0,18,23.0,331.0,0.0,20,79.0,57.0,0.0,21,26.0,275.0,0.0*7c
$GPGSV,3,3,12,24,27.0,355.0,0.0,25,61.0,202.0,0.0,29,22.0,201.0,0.0,31,2.0,236.0,0.0*45
$GPGSA,A,3,,,12,,15,,20,,,25,29,,,,,*39
$GPGSV,3,1,12,2,3.0,140.0,0.0,5,35.0,132.0,0.0,12,71.0,66.0,41.0,13,10.0,63.0,0.0*79
$GPGSV,3,2,12,15,24.0,27.0,44.0,18,23.0,331.0,0.0,20,79.0,57.0,33.0,21,26.0,275.0,0.0*7c
$GPGSV,3,3,12,24,27.0,355.0,0.0,25,61.0,202.0,30.0,29,22.0,201.0,29.0,31,2.0,236.0,0.0*4d
$GPGLL,0550.1518,S,03513.1098,W,162750,A*2b
$GPGSV,3,2,12,15,24.0,27.0,46.0,18,23.0,331.0,0.0,20,79.0,57.0,35.0,21,26.0,275.0,0.0*78
$GPGSV,3,3,12,24,27.0,355.0,36.0,25,61.0,202.0,28.0,29,22.0,201.0,29.0,31,2.0,236.0,0.0*71
$GPGLL,0550.1269,S,03513.1284,W,162752,A*27
$GPRMC,162752,A,0550.1269,S,03513.1284,W,26.06306505329508,18.37,240116,,*1f
$GPGSA,A,3,,5,12,13,15,,20,,24,25,29,,,,,*08
$GPGSV,3,1,12,2,3.0,140.0,18.0,5,35.0,132.0,36.0,12,71.0,66.0,38.0,13,10.0,63.0,36.0*4e
$GPGSV,3,1,12,2,3.0,140.0,17.0,5,35.0,132.0,34.0,12,71.0,66.0,37.0,13,10.0,63.0,36.0*4c
$GPGGA,162754,0550.1132,S,03513.1230,W,1,8,5.2,77.3,M,,,,*14
$GPGLL,0550.1132,S,03513.1230,W,162754,A*23
$GPGLL,0550.1068,S,03513.1210,W,162755,A*2e
$GPGSV,3,1,12,2,3.0,140.0,17.0,5,35.0,132.0,35.0,12,71.0,66.0,38.0,13,10.0,63.0,33.0*47
$GPGLL,0550.1005,S,03513.1187,W,162756,A*2b
$GPGSV,3,2,12,15,24.0,27.0,43.0,18,23.0,331.0,35.0,20,79.0,57.0,38.0,21,26.0,275.0,26.0*72
$GPGSV,3,1,12,2,3.0,140.0,17.0,5,35.0,132.0,34.0,12,71.0,66.0,38.0,13,10.0,63.0,32.0*47
$GPGLL,0550.0888,S,03513.1136,W,162758,A*23
$GPRMC,162758,A,0550.0888,S,03513.1136,W,21.703713268276474,22.39,240116,,*24
$GPGLL,0547.5590,S,03512.1893,W,192605,A*25
$GPRMC,192605,A,0547.5590,S,03512.1893,W,23.10446824866068,200.32,240116,,*2f
$GPGGA,192606,0547.5650,S,03512.1915,W,1,10,2.3,50.7,M,,,,*2f
$GPGLL,0547.5650,S,03512.1915,W,192606,A*26
$GPGSV,3,2,13,18,58.0,208.0,37.0,20,14.0,148.0,14.0,21,30.0,182.0,26.0,22,18.0,300.0,22.0*7a
$GPGSV,3,2,13,18,58.0,208.0,38.0,20,14.0,148.0,16.0,21,30.0,182.0,26.0,22,18.0,300.0,18.0*7e
$GPGSV,3,3,13,24,5.0,61.0,0.0,25,27.0,6.0,35.0,26,31.0,251.0,32.0,29,59.0,96.0,24.0*72
$GPGLL,0547.5769,S,03512.1957,W,192608,A*25
$GPGSV,3,2,13,18,58.0,208.0,37.0,20,14.0,148.0,23.0,21,30.0,182.0,25.0,22,18.0,300.0,21.0*7e
$GPGSV,3,3,13,24,5.0,61.0,0.0,25,27.0,6.0,33.0,26,31.0,251.0,17.0,29,59.0,96.0,24.0*73
$GPGSA,A,3,10,14,15,,18,20,21,22,,25,26,29,,,,*30
$GPGSV,3,1,13,10,50.0,271.0,45.0,14,25.0,348.0,17.0,15,30.0,121.0,27.0,16,10.0,228.0,0.0*4d
$GPGLL,0547.5890,S,03512.2002,W,192610,A*2f
$GPRMC,192610,A,0547.5890,S,03512.2002,W,23.06044433532629,201.6,240116,,*17
$GPGSV,3,3,10,28,0.0,0.0,30.0,30,0.0,0.0,27.0*77
$GPGSV,3,3,10,28,0.0,0.0,29.0,30,0.0,0.0,28.0*70
$GPGSV,3,3,9,30,0.0,0.0,28.0*57
$GPGSA,A,1,,,,,,,,,,,,,,,,*32
$GPGSV,3,3,9,30,0.0,0.0,28.0*57
$GPGSV,3,3,10,28,0.0,0.0,30.0,30,0.0,0.0,29.0*79
$GPGSV,3,3,10,28,0.0,0.0,31.0,30,0.0,0.0,30.0*70
$GPGSV,3,3,10,28,0.0,0.0,32.0,30,0.0,0.0,30.0*73
$GPGSV,3,3,10,28,0.0,0.0,32.0,30,0.0,0.0,30.0*73
$GPGSA,A,1,,,,,,,,,,,,,,,,*32
$GPGSV,3,3,10,28,0.0,0.0,32.0,30,0.0,0.0,30.0*73
$GPGSV,3,3,10,28,0.0,0.0,32.0,30,0.0,0.0,30.0*73
$GPGSV,3,3,10,28,0.0,0.0,32.0,30,0.0,0.0,30.0*73
$GPGSA,A,1,,,,,,,,,,,,,,,,*32
$GPGSV,3,2,10,9,0.0,0.0,35.0,13,0.0,0.0,36.0,17,0.0,0.0,34.0,19,0.0,0.0,30.0*4b
$GPGSV,3,3,10,28,0.0,0.0,31.0,30,0.0,0.0,29.0*78
$GPGSV,3,2,10,9,0.0,0.0,35.0,13,0.0,0.0,37.0,17,0.0,0.0,35.0,19,0.0,0.0,31.0*4a
$GPGSV,3,3,10,28,0.0,0.0,29.0,30,0.0,0.0,29.0*71
$GPGGA,095342,0550.6871,S,03512.9367,W,1,0,10.5,26.0,M,,,,*21
$GPGLL,0550.6871,S,03512.9367,W,095342,A*2a
$GPGSV,3,2,12,7,31.0,87.0,23.0,9,17.0,27.0,35.0,13,39.0,224.0,37.0,15,2.0,221.0,0.0*73
$GPGSV,3,3,12,17,74.0,170.0,35.0,19,82.0,171.0,33.0,28,26.0,173.0,28.0,30,44.0,125.0,29.0*75
$GPGSA,A,3,,2,5,6,7,9,13,,17,19,28,30,,,,*0a
$GPGSV,3,2,12,7,31.0,87.0,32.0,9,17.0,27.0,34.0,13,39.0,224.0,29.0,15,2.0,221.0,0.0*7d
$GPGSV,3,3,12,17,74.0,170.0,34.0,19,82.0,171.0,35.0,28,26.0,173.0,28.0,30,44.0,125.0,30.0*7a
$GPGSA,A,3,,2,5,6,7,9,13,,17,19,28,30,,,,*0a
$GPGSV,3,1,12,1,5.0,120.0,0.0,2,9.0,337.0,23.0,5,15.0,299.0,16.0,6,31.0,13.0,35.0*76
$GPGLL,0550.6846,S,03512.9322,W,095345,A*28
$GPGSA,A,1,,,,,,,,,,,,,,,,*32
$GPGSV,1,1,1,5,0.0,0.0,38.0*68
$GPGSA,A,1,,,,,,,,,,,,,,,,*32
$GPGSV,1,1,2,5,0.0,0.0,41.0,25,0.0,0.0,40.0*78
$GPGSA,A,1,,,,,,,,,,,,,,,,*32
$GPGSV,1,1,3,5,0.0,0.0,42.0,20,0.0,0.0,35.0,25,0.0,0.0,41.0*61
$GPGSA,A,1,,,,,,,,,,,,,,,,*32
$GPGSV,2,1,5,2,0.0,0.0,37.0,5,0.0,0.0,41.0,13,0.0,0.0,29.0,20,0.0,0.0,37.0*46
$GPGSV,2,2,5,25,0.0,0.0,41.0*50
$GPGSV,2,1,6,2,0.0,0.0,37.0,5,0.0,0.0,43.0,13,0.0,0.0,30.0,20,0.0,0.0,36.0*4e
$GPGSV,2,1,7,2,0.0,0.0,37.0,5,0.0,0.0,43.0,13,0.0,0.0,31.0,15,0.0,0.0,32.0*4c
$GPGSV,2,1,7,2,0.0,0.0,37.0,5,0.0,0.0,43.0,13,0.0,0.0,33.0,15,0.0,0.0,34.0*48
$GPGSV,2,1,7,2,0.0,0.0,37.0,5,0.0,0.0,43.0,13,0.0,0.0,32.0,15,0.0,0.0,35.0*48
$GPGSV,2,1,7,2,0.0,0.0,37.0,5,0.0,0.0,43.0,13,0.0,0.0,31.0,15,0.0,0.0,34.0*4a
$GPGSV,2,1,7,2,0.0,0.0,37.0,5,0.0,0.0,43.0,13,0.0,0.0,30.0,15,0.0,0.0,32.0*4d
$GPGSV,2,2,7,20,0.0,0.0,36.0,24,0.0,0.0,37.0,25,0.0,0.0,41.0*57
$GPGSA,A,1,,,,,,,,,,,,,,,,*32
$GPGSV,2,1,7,2,0.0,0.0,37.0,5,0.0,0.0,41.0,13,0.0,0.0,28.0,15,0.0,0.0,29.0*4c
$GPGSV,2,2,7,20,0.0,0.0,36.0,24,0.0,0.0,37.0,25,0.0,0.0,41.0*57
$GPGSA,A,1,,,,,,,,,,,,,,,,*32
$GPGSV,3,1,11,2,20.0,154.0,36.0,5,49.0,101.0,40.0,12,63.0,149.0,0.0,13,8.0,39.0,27.0*4d
$GPGSV,3,2,11,15,18.0,4.0,28.0,18,3.0,329.0,0.0,20,55.0,7.0,35.0,21,16.0,300.0,22.0*7d
$GPGSV,3,2,11,15,18.0,4.0,28.0,18,3.0,329.0,0.0,20,55.0,7.0,33.0,21,16.0,300.0,19.0*73
$GPGSV,3,1,11,2,20.0,154.0,37.0,5,49.0,101.0,43.0,12,63.0,149.0,46.0,13,8.0,39.0,29.0*73
$GPGLL,0550.2495,S,03513.1783,W,153144,A*20
$GPGSV,3,1,11,2,20.0,154.0,35.0,5,49.0,101.0,42.0,12,63.0,149.0,44.0,13,8.0,39.0,28.0*73
$GPGSV,3,1,11,2,20.0,154.0,33.0,5,49.0,101.0,41.0,12,63.0,149.0,27.0,13,8.0,39.0,26.0*7d
$GPGLL,0550.2557,S,03513.1767,W,153146,A*27
$GPGSV,3,3,11,25,3.0,217.0,0.0,28,6.0,65.0,16.0,29,12.0,266.0,0.0*65
$GPGSA,A,1,,,,,,,,,,,,,,,,*32
$GPGSV,3,1,11,2,62.0,163.0,26.0,5,38.0,38.0,0.0,6,20.0,148.0,25.0,12,29.0,190.0,26.0*42
$GPGSV,3,2,11,13,17.0,3.0,0.0,15,20.0,325.0,0.0,20,18.0,345.0,0.0,24,60.0,253.0,17.0*46
$GPGSV,3,3,11,25,3.0,217.0,0.0,28,6.0,65.0,17.0,29,12.0,266.0,0.0*64
$GPGSV,3,3,11,25,3.0,217.0,0.0,28,6.0,65.0,17.0,29,12.0,266.0,0.0*64
$GPGSA,A,1,,,,,,,,,,,,,,,,*32
$GPGSV,3,1,11,2,62.0,163.0,27.0,5,38.0,38.0,0.0,6,20.0,148.0,25.0,12,29.0,190.0,25.0*40
$GPGSV,3,2,11,13,17.0,3.0,0.0,15,20.0,325.0,0.0,20,18.0,345.0,0.0,24,60.0,253.0,18.0*49
$GPGSV,3,3,11,25,3.0,217.0,0.0,28,6.0,65.0,17.0,29,12.0,266.0,0.0*64
$GPGSA,A,1,,,,,,,,,,,,,,,,*32
$GPGSV,3,3,11,25,3.0,217.0,0.0,28,6.0,65.0,17.0,29,12.0,266.0,0.0*64
$GPGSA,A,1,,,,,,,,,,,,,,,,*32
$GPGSV,3,1,11,2,62.0,163.0,26.0,5,38.0,38.0,0.0,6,20.0,148.0,23.0,12,29.0,190.0,23.0*41
$GPGSV,3,2,11,13,17.0,3.0,0.0,15,20.0,325.0,0.0,20,18.0,345.0,0.0,24,60.0,253.0,18.0*49
$GPGSV,3,3,11,25,3.0,217.0,0.0,28,6.0,65.0,17.0,29,12.0,266.0,0.0*64
$GPGSA,A,1,,,,,,,,,,,,,,,,*32
$GPGSV,3,3,11,25,3.0,217.0,0.0,28,6.0,65.0,17.0,29,12.0,266.0,0.0*64
$GPGSV,3,3,11,25,3.0,217.0,0.0,28,6.0,65.0,17.0,29,12.0,266.0,0.0*64
$GPGSV,3,1,11,2,62.0,163.0,26.0,5,38.0,38.0,0.0,6,20.0,148.0,21.0,12,29.0,190.0,21.0*41
$GPGSV,3,3,11,25,3.0,217.0,0.0,28,6.0,65.0,17.0,29,12.0,266.0,0.0*64
$GPGSV,3,3,11,25,3.0,217.0,0.0,28,6.0,65.0,17.0,29,12.0,266.0,0.0*64
$GPGSA,A,1,,,,,,,,,,,,,,,,*32
$GPGSV,3,3,11,25,3.0,217.0,0.0,28,6.0,65.0,17.0,29,12.0,266.0,0.0*64
$GPGSA,A,1,,,,,,,,,,,,,,,,*32
$GPGSV,3,3,11,25,3.0,217.0,0.0,28,6.0,65.0,16.0,29,12.0,266.0,0.0*65
$GPGSA,A,1,,,,,,,,,,,,,,,,*32
$GPGSV,3,1,11,2,62.0,163.0,23.0,5,38.0,38.0,14.0,6,20.0,148.0,21.0,12,29.0,190.0,21.0*71
$GPGSV,2,1,8,2,0.0,0.0,35.0,5,0.0,0.0,12.0,6,0.0,0.0,36.0,9,0.0,0.0,34.0*4d
$GPGSV,2,2,8,13,0.0,0.0,34.0,19,0.0,0.0,35.0,28,0.0,0.0,34.0,30,0.0,0.0,18.0*4d
$GPGSV,3,3,9,30,0.0,0.0,19.0*55
$GPGSV,3,3,9,30,0.0,0.0,27.0*58
$GPGSV,3,3,9,30,0.0,0.0,28.0*57
$GPGSV,3,3,9,30,0.0,0.0,30.0*5e
$GPGSV,3,3,9,30,0.0,0.0,30.0*5e
$GPGSA,A,1,,,,,,,,,,,,,,,,*32
$GPGSV,3,1,9,2,0.0,0.0,19.0,5,0.0,0.0,15.0,6,0.0,0.0,41.0,9,0.0,0.0,28.0*49
$GPGSV,3,2,9,13,0.0,0.0,25.0,17,0.0,0.0,35.0,19,0.0,0.0,35.0,28,0.0,0.0,21.0*43
$GPGSV,3,3,9,30,0.0,0.0,29.0*56
$GPGSV,3,3,9,30,0.0,0.0,29.0*56
$GPGSV,3,3,9,30,0.0,0.0,28.0*57
$GPGSV,3,3,9,30,0.0,0.0,28.0*57
$GPGSV,3,3,10,28,0.0,0.0,26.0,30,0.0,0.0,27.0*70
$GPGSV,3,3,10,28,0.0,0.0,34.0,30,0.0,0.0,28.0*7c
$GPGSV,3,3,10,28,0.0,0.0,34.0,30,0.0,0.0,27.0*73
$GPGSV,3,3,10,28,0.0,0.0,35.0,30,0.0,0.0,27.0*72
$GPGSV,3,3,10,28,0.0,0.0,33.0,30,0.0,0.0,29.0*7a
$GPGSV,3,3,10,28,0.0,0.0,33.0,30,0.0,0.0,29.0*7a
$GPGSV,3,3,10,28,0.0,0.0,32.0,30,0.0,0.0,28.0*7a
$GPGSA,A,1,,,,,,,,,,,,,,,,*32
$GPGSV,3,1,10,2,0.0,0.0,22.0,5,0.0,0.0,15.0,6,0.0,0.0,31.0,7,0.0,0.0,25.0*7d
$GPGSV,3,2,10,9,0.0,0.0,34.0,13,0.0,0.0,32.0,17,0.0,0.0,30.0,19,0.0,0.0,37.0*4d
$GPGSV,3,3,10,28,0.0,0.0,32.0,30,0.0,0.0,29.0*7b
$GPGSV,3,1,10,2,0.0,0.0,21.0,5,0.0,0.0,16.0,6,0.0,0.0,32.0,7,0.0,0.0,24.0*7f
$GPGSV,3,3,10,28,0.0,0.0,33.0,30,0.0,0.0,28.0*7b
$GPGSA,A,1,,,,,,,,,,,,,,,,*32
$GPGSV,3,1,13,10,51.0,267.0,39.0,14,27.0,349.0,27.0,15,29.0,124.0,40.0,16,12.0,230.0,19.0*7f
$GPGLL,0548.9488,S,03512.6921,W,193143,A*25
$GPRMC,193143,A,0548.9488,S,03512.6921,W,28.049137129695787,199.56,240116,,*1a
$GPGGA,193144,0548.9561,S,03512.6947,W,1,10,2.2,58.7,M,,,,*24
$GPGLL,0548.9561,S,03512.6947,W,193144,A*24
$GPGSV,3,2,13,18,56.0,204.0,39.0,20,12.0,147.0,18.0,21,30.0,179.0,28.0,22,20.0,297.0,21.0*7e
$GPGSV,3,1,13,10,51.0,267.0,39.0,14,27.0,349.0,28.0,15,29.0,124.0,41.0,16,12.0,230.0,19.0*71
$GPGSV,3,1,13,10,51.0,267.0,39.0,14,27.0,349.0,27.0,15,29.0,124.0,40.0,16,12.0,230.0,20.0*75
$GPGLL,0548.9695,S,03512.6996,W,193146,A*22
$GPRMC,193146,A,0548.9695,S,03512.6996,W,24.150032482763283,199.58,240116,,*1f
$GPGSA,A,3,10,14,15,,18,20,21,22,24,25,26,29,,,,*36
$GPGSV,3,1,13,10,51.0,267.0,39.0,14,27.0,349.0,27.0,15,29.0,124.0,39.0,16,12.0,230.0,22.0*79
$GPGLL,0548.9760,S,03512.7020,W,193147,A*2d
$GPRMC,193147,A,0548.9760,S,03512.7020,W,24.6463007030458,199.38,240116,,*1c
$GPGSV,3,2,13,18,54.0,201.0,44.0,20,10.0,146.0,29.0,21,31.0,176.0,32.0,22,21.0,295.0,31.0*75
$GPGSV,3,3,13,24,6.0,66.0,17.0,25,23.0,9.0,21.0,26,32.0,258.0,26.0,29,58.0,84.0,26.0*41
$GPGSA,A,3,10,14,15,,18,20,21,22,24,25,26,29,,,,*36
$GPGSV,3,1,13,10,51.0,262.0,35.0,14,30.0,350.0,32.0,15,27.0,126.0,28.0,16,13.0,233.0,17.0*72
$GPGLL,0550.6101,S,03512.9531,W,193735,A*22
$GPRMC,193735,A,0550.6101,S,03512.9531,W,10.117460159880133,151.29,240116,,*13
$GPGSA,A,3,10,14,15,,18,20,21,22,24,25,26,29,,,,*36
$GPGSV,3,2,13,18,54.0,201.0,45.0,20,10.0,146.0,29.0,21,31.0,176.0,31.0,22,21.0,295.0,24.0*73
$GPGSV,3,3,13,24,6.0,66.0,14.0,25,23.0,9.0,20.0,26,32.0,258.0,27.0,29,58.0,84.0,25.0*41
$GPGSA,A,3,10,14,15,,18,20,21,22,24,25,26,29,,,,*36
$GPGSV,3,1,13,10,51.0,262.0,36.0,14,30.0,350.0,21.0,15,27.0,126.0,35.0,16,13.0,233.0,18.0*70
$GPGLL,0550.6151,S,03512.9493,W,193737,A*2c
$GPRMC,193737,A,0550.6151,S,03512.9493,W,11.742337049402552,141.95,240116,,*1c
$GPGSA,A,3,10,14,15,,18,20,21,22,24,25,26,29,,,,*36
$GPGSV,3,2,11,15,19.0,6.0,32.0,18,4.0,329.0,0.0,20,57.0,8.0,32.0,21,17.0,299.0,18.0*71
$GPGSV,3,3,11,24,44.0,334.0,36.0,25,35.0,200.0,39.0,29,17.0,223.0,21.0*54
$GPGSA,A,3,2,5,12,13,15,,20,,24,25,29,,,,,*3a
$GPGSV,3,1,11,2,19.0,153.0,36.0,5,49.0,104.0,43.0,12,65.0,146.0,41.0,13,9.0,41.0,25.0*76
$GPGLL,0550.6889,S,03512.6180,W,153551,A*26
$GPGSV,3,2,11,15,19.0,6.0,31.0,18,4.0,329.0,0.0,20,57.0,8.0,32.0,21,17.0,299.0,18.0*72
$GPGSV,3,3,11,24,44.0,334.0,36.0,25,35.0,200.0,39.0,29,17.0,223.0,23.0*56
$GPGSV,3,2,11,15,19.0,6.0,32.0,18,4.0,329.0,0.0,20,57.0,8.0,32.0,21,17.0,299.0,18.0*71
$GPGSV,3,3,11,24,43.0,335.0,36.0,25,35.0,200.0,39.0,29,17.0,223.0,30.0*52
$GPGGA,153553,0550.6925,S,03512.6167,W,1,9,2.2,67.5,M,,,,*1c
$GPGLL,0550.6925,S,03512.6167,W,153553,A*2a
$GPGSV,3,2,11,15,19.0,6.0,32.0,18,4.0,329.0,0.0,20,57.0,8.0,33.0,21,17.0,299.0,20.0*7b
$GPGSV,3,3,11,24,43.0,335.0,36.0,25,36.0,200.0,39.0,29,17.0,223.0,30.0*51
$GPGSA,A,3,2,5,12,13,15,,20,,24,25,29,,,,,*3a
$GPGSV,3,3,11,25,3.0,216.0,0.0,28,6.0,65.0,14.0,29,12.0,266.0,0.0*66
$GPGSV,3,3,11,25,3.0,216.0,0.0,28,6.0,65.0,14.0,29,12.0,266.0,0.0*66
$GPGSA,A,1,,,,,,,,,,,,,,,,*32
$GPGSV,3,1,11,2,61.0,163.0,27.0,5,39.0,39.0,14.0,6,20.0,148.0,0.0,12,30.0,189.0,25.0*41
$GPGSV,3,2,11,13,16.0,3.0,0.0,15,20.0,326.0,0.0,20,19.0,345.0,0.0,24,61.0,255.0,0.0*74
$GPGSV,3,3,11,25,3.0,216.0,0.0,28,6.0,65.0,13.0,29,12.0,265.0,0.0*62
$GPGSV,3,3,11,25,3.0,216.0,0.0,28,6.0,65.0,13.0,29,12.0,265.0,0.0*62
$GPGSV,3,3,11,25,3.0,216.0,0.0,28,6.0,65.0,13.0,29,12.0,265.0,0.0*62
$GPGSV,3,3,11,25,3.0,216.0,0.0,28,6.0,65.0,12.0,29,12.0,265.0,0.0*63
$GPGSV,3,2,11,13,16.0,3.0,0.0,15,20.0,326.0,0.0,20,19.0,345.0,0.0,24,61.0,255.0,17.0*42
$GPGSV,3,3,11,25,3.0,216.0,0.0,28,6.0,65.0,13.0,29,12.0,265.0,0.0*62
$GPGSV,3,3,11,25,3.0,216.0,0.0,28,6.0,65.0,14.0,29,12.0,265.0,0.0*65
$GPGSV,3,3,11,25,3.0,216.0,0.0,28,6.0,65.0,14.0,29,12.0,265.0,0.0*65
$GPGSV,3,3,11,25,3.0,216.0,0.0,28,6.0,65.0,13.0,29,12.0,265.0,0.0*62
$GPGLL,0550.6427,S,03512.6966,W,153442,A*2d
$GPRMC,153442,A,0550.6427,S,03512.6966,W,15.358288479959874,30.34,240116,,*22
$GPGSV,3,2,11,15,18.0,5.0,36.0,18,3.0,329.0,0.0,20,56.0,7.0,40.0,21,17.0,299.0,17.0*74
$GPGSV,3,3,11,24,44.0,334.0,41.0,25,35.0,200.0,35.0,29,17.0,223.0,27.0*5e
$GPGSA,A,3,2,5,12,13,15,,20,,24,25,29,,,,,*3a
$GPGSV,3,1,11,2,20.0,153.0,33.0,5,49.0,102.0,36.0,12,64.0,148.0,40.0,13,8.0,40.0,21.0*77
$GPGSV,3,3,11,24,44.0,334.0,40.0,25,35.0,200.0,33.0,29,17.0,223.0,26.0*58
$GPGSV,3,2,11,15,18.0,5.0,37.0,18,3.0,329.0,0.0,20,56.0,7.0,41.0,21,17.0,299.0,30.0*71
$GPGSV,3,1,11,2,20.0,153.0,33.0,5,49.0,102.0,37.0,12,64.0,148.0,38.0,13,8.0,40.0,28.0*70
$GPGLL,0550.6323,S,03512.6869,W,153446,A*24
$GPGSV,3,2,11,15,18.0,5.0,35.0,18,3.0,329.0,0.0,20,56.0,7.0,40.0,21,17.0,299.0,20.0*73
$GPGSV,3,3,11,24,44.0,334.0,36.0,25,35.0,200.0,34.0,29,17.0,223.0,27.0*5f
$GPGSA,A,3,2,5,12,13,15,,20,,24,25,29,,,,,*3a
$GPGSV,3,1,11,2,20.0,153.0,35.0,5,49.0,102.0,36.0,12,64.0,148.0,38.0,13,8.0,40.0,29.0*76
