$GPGGA,202922,0549.5086,S,03512.7159,W,1,11,2.9,47.8,M,,,,*2b
$GPGLL,0549.5086,S,03512.7159,W,202922,A*20
$GPRMC,202922,A,0549.5086,S,03512.7159,W,16.11869925335144,296.28,260116,,*28
$GPGSA,A,3,10,14,15,16,18,21,22,,25,26,,29,,,,*35
$GPGSV,3,1,13,10,44.0,217.0,42.0,14,57.0,357.0,25.0,15,8.0,141.0,26.0,16,22.0,260.0,29.0*4f
$GPGSV,3,1,13,10,44.0,217.0,42.0,14,57.0,357.0,24.0,15,8.0,141.0,28.0,16,22.0,260.0,27.0*4e
$GPGLL,0549.5049,S,03512.7240,W,202924,A*2e
$GPGSV,3,2,13,18,34.0,173.0,40.0,21,36.0,145.0,26.0,22,29.0,267.0,30.0,24,7.0,92.0,0.0*46
$GPGSV,3,2,13,18,34.0,173.0,38.0,21,36.0,145.0,28.0,22,29.0,267.0,29.0,24,7.0,92.0,0.0*4f
$GPGSV,3,3,13,25,5.0,24.0,10.0,26,31.0,292.0,20.0,27,11.0,214.0,20.0,29,41.0,43.0,35.0*4c
$GPGSA,A,3,10,14,15,16,18,21,22,,25,26,,29,,,,*35
$GPGSV,3,1,13,10,44.0,217.0,35.0,14,58.0,357.0,26.0,15,8.0,141.0,30.0,16,22.0,260.0,26.0*4b
$GPGLL,0549.5010,S,03512.7352,W,202927,A*23
$GPGSV,3,2,13,18,34.0,173.0,36.0,21,36.0,145.0,31.0,22,29.0,267.0,28.0,24,7.0,92.0,0.0*48
$GPGLL,0549.4987,S,03512.7422,W,202929,A*2b
$GPGSV,3,2,13,18,34.0,173.0,33.0,21,36.0,145.0,31.0,22,29.0,267.0,27.0,24,7.0,92.0,0.0*42
$GPGSV,3,3,13,25,5.0,24.0,12.0,26,31.0,292.0,22.0,27,11.0,214.0,20.0,29,41.0,43.0,27.0*4f
$GPGSA,A,3,10,14,15,16,18,21,22,,25,26,,29,,,,*35
$GPGSV,3,1,13,10,44.0,217.0,36.0,14,58.0,357.0,26.0,15,8.0,141.0,24.0,16,22.0,261.0,25.0*4f
$GPGLL,0549.4965,S,03512.7485,W,202931,A*23
$GPGSV,3,2,13,18,34.0,172.0,33.0,21,36.0,145.0,31.0,22,29.0,267.0,26.0,24,7.0,92.0,0.0*42
$GPGLL,0549.4946,S,03512.7543,W,202933,A*2b
$GPGSV,3,2,13,18,34.0,172.0,35.0,21,36.0,144.0,31.0,22,29.0,267.0,27.0,24,7.0,92.0,0.0*44
$GPGSV,3,3,13,25,5.0,24.0,11.0,26,31.0,292.0,28.0,27,11.0,214.0,22.0,29,41.0,43.0,25.0*46
$GPGSA,A,3,10,14,15,16,18,21,22,,25,26,,29,,,,*35
$GPGSV,3,1,13,10,44.0,217.0,35.0,14,58.0,357.0,30.0,15,8.0,141.0,27.0,16,22.0,261.0,26.0*4b
$GPGLL,0549.4931,S,03512.7593,W,202935,A*20
$GPGSV,3,2,13,18,34.0,172.0,35.0,21,36.0,144.0,30.0,22,29.0,266.0,34.0,24,7.0,92.0,0.0*46
$GPGLL,0548.4017,S,03512.3714,W,203407,A*28
$GPRMC,203407,A,0548.4017,S,03512.3714,W,3.421846626467483,22.22,260116,,*1b
$GPGSA,A,3,10,14,15,16,18,21,22,24,,26,,29,,,,*34
$GPGSV,3,1,13,10,43.0,215.0,36.0,14,60.0,357.0,37.0,15,6.0,141.0,17.0,16,22.0,263.0,27.0*4f
$GPGSV,3,1,13,10,43.0,215.0,36.0,14,60.0,357.0,37.0,15,6.0,141.0,24.0,16,22.0,263.0,26.0*4e
$GPGLL,0548.4006,S,03512.3708,W,203409,A*2b
$GPRMC,203409,A,0548.4006,S,03512.3708,W,1.6478893159440202,22.22,260116,,*2d
$GPGSV,3,2,13,18,33.0,171.0,36.0,21,36.0,142.0,31.0,22,30.0,264.0,34.0,24,7.0,94.0,14.0*7f
$GPGLL,0548.4004,S,03512.3706,W,203410,A*2f
$GPGSV,3,2,13,18,33.0,171.0,36.0,21,36.0,142.0,30.0,22,30.0,264.0,34.0,24,7.0,94.0,16.0*7c
$GPGSV,3,3,13,25,3.0,26.0,0.0,26,31.0,295.0,41.0,27,13.0,214.0,29.0,29,39.0,41.0,32.0*78
$GPGSA,A,3,10,14,15,16,18,21,22,24,,26,,29,,,,*34
$GPGSV,3,1,13,10,43.0,215.0,37.0,14,60.0,357.0,38.0,15,6.0,141.0,21.0,16,22.0,263.0,24.0*47
$GPGSV,3,2,13,18,33.0,171.0,36.0,21,36.0,142.0,30.0,22,30.0,264.0,34.0,24,7.0,94.0,17.0*7d
$GPGSV,3,2,13,18,33.0,171.0,36.0,21,36.0,142.0,30.0,22,30.0,264.0,34.0,24,7.0,94.0,17.0*7d
$GPGSV,3,1,13,10,43.0,215.0,36.0,14,60.0,357.0,38.0,15,6.0,141.0,20.0,16,22.0,263.0,25.0*46
$GPGGA,203414,0548.4004,S,03512.3706,W,1,11,2.1,31.6,M,,,,*27
$GPGLL,0548.4004,S,03512.3706,W,203414,A*2b
$GPRMC,203414,A,0548.4004,S,03512.3706,W,0.0,22.22,260116,,*1e
$GPGSA,A,3,10,14,15,16,18,21,22,,,26,,29,,,,*32
$GPGSV,3,1,13,10,43.0,215.0,36.0,14,60.0,357.0,38.0,15,6.0,141.0,19.0,16,22.0,263.0,26.0*4f
$GPGSV,3,1,13,10,43.0,215.0,36.0,14,60.0,357.0,37.0,15,6.0,141.0,19.0,16,22.0,263.0,25.0*43
$GPGLL,0548.4004,S,03512.3706,W,203416,A*29
$GPRMC,203416,A,0548.4004,S,03512.3706,W,0.0,22.22,260116,,*1c
$GPGGA,203417,0548.4004,S,03512.3706,W,1,11,2.0,31.6,M,,,,*25
$GPGLL,0548.4004,S,03512.3706,W,203417,A*28
$GPGSV,3,2,13,18,33.0,171.0,36.0,21,36.0,142.0,31.0,22,30.0,264.0,33.0,24,7.0,94.0,16.0*7a
$GPGSV,3,2,13,18,33.0,171.0,36.0,21,36.0,142.0,31.0,22,30.0,264.0,32.0,24,7.0,94.0,17.0*7a
