$GPGSV,3,2,13,18,32.0,169.0,20.0,21,36.0,140.0,39.0,22,30.0,262.0,13.0,24,7.0,96.0,18.0*77
$GPGSV,3,3,13,25,3.0,27.0,15.0,26,30.0,297.0,34.0,27,15.0,214.0,0.0,29,38.0,40.0,34.0*77
$GPGSA,A,3,10,14,,16,18,21,22,24,,26,,29,,,,*30
$GPGSV,3,1,13,10,43.0,212.0,19.0,14,62.0,358.0,26.0,15,5.0,142.0,0.0,16,22.0,265.0,14.0*78
$GPGLL,0548.5096,S,03512.0345,W,203718,A*2e
$GPRMC,203718,A,0548.5096,S,03512.0345,W,7.32395256680105,124.29,260116,,*15
$GPGSA,A,3,10,14,,16,18,21,22,24,,26,,29,,,,*30
$GPGSV,3,1,13,10,43.0,212.0,18.0,14,62.0,358.0,26.0,15,5.0,142.0,0.0,16,22.0,265.0,11.0*7c
$GPGGA,203720,0548.5112,S,03512.0322,W,1,10,3.0,46.2,M,,,,*20
$GPGSV,3,1,13,10,43.0,212.0,17.0,14,62.0,358.0,35.0,15,5.0,142.0,0.0,16,22.0,265.0,13.0*73
$GPGLL,0548.5114,S,03512.0317,W,203721,A*28
$GPRMC,203721,A,0548.5114,S,03512.0317,W,0.17509448841018618,109.46,260116,,*2e
$GPGSA,A,3,10,14,,16,18,21,22,24,,26,,29,,,,*30
$GPGSV,3,1,13,10,43.0,212.0,17.0,14,62.0,358.0,34.0,15,5.0,142.0,0.0,16,22.0,265.0,11.0*70
$GPGSV,3,2,13,18,32.0,169.0,27.0,21,36.0,140.0,28.0,22,30.0,262.0,12.0,24,7.0,96.0,19.0*70
$GPGGA,203722,0548.5118,S,03512.0314,W,1,10,2.9,46.0,M,,,,*27
$GPGLL,0548.5118,S,03512.0314,W,203722,A*24
$GPRMC,203722,A,0548.5118,S,03512.0314,W,0.1800971847687012,109.46,260116,,*1c
$GPGSA,A,3,10,14,,16,18,21,22,24,,26,,29,,,,*30
$GPGSV,3,1,13,10,43.0,212.0,17.0,14,62.0,358.0,34.0,15,5.0,142.0,0.0,16,22.0,265.0,15.0*74
$GPGSV,3,2,13,18,32.0,169.0,35.0,21,36.0,140.0,28.0,22,30.0,262.0,13.0,24,7.0,96.0,20.0*78
$GPGLL,0548.5132,S,03512.0296,W,203724,A*21
$GPGSV,3,2,13,18,32.0,169.0,35.0,21,36.0,140.0,25.0,22,30.0,262.0,13.0,24,7.0,96.0,19.0*7f
$GPGSV,3,3,13,25,3.0,27.0,13.0,26,30.0,297.0,32.0,27,15.0,214.0,0.0,29,37.0,40.0,34.0*78
$GPGGA,203726,0548.5154,S,03512.0287,W,1,11,2.6,45.7,M,,,,*2a
$GPGLL,0548.5154,S,03512.0287,W,203726,A*23
$GPGSV,3,2,13,18,32.0,169.0,34.0,21,36.0,140.0,27.0,22,30.0,262.0,13.0,24,7.0,96.0,20.0*76
$GPGSV,3,2,13,18,32.0,169.0,33.0,21,36.0,140.0,34.0,22,30.0,262.0,14.0,24,7.0,96.0,27.0*73
$GPGLL,0550.6168,S,03512.6500,W,160434,A*2e
$GPRMC,160434,A,0550.6168,S,03512.6500,W,3.917113797684791,249.93,270116,,*2c
$GPGSA,A,3,2,5,12,13,15,18,20,21,24,25,29,,,,,*30
$GPGSV,3,1,11,2,6.0,144.0,18.0,5,39.0,127.0,34.0,12,73.0,86.0,41.0,13,10.0,58.0,20.0*4b
$GPGLL,0550.6169,S,03512.6504,W,160435,A*2a
$GPRMC,160435,A,0550.6169,S,03512.6504,W,0.0,249.93,270116,,*2b
$GPGSA,A,3,2,5,12,13,15,18,20,21,24,25,29,,,,,*30
$GPGSV,3,1,11,2,6.0,144.0,19.0,5,39.0,127.0,36.0,12,73.0,86.0,41.0,13,10.0,58.0,23.0*4b
$GPGLL,0550.6169,S,03512.6505,W,160437,A*29
$GPRMC,160437,A,0550.6169,S,03512.6505,W,0.0,249.93,270116,,*28
$GPGSA,A,3,2,5,12,13,15,18,20,21,24,25,29,,,,,*30
$GPGSV,3,1,11,2,6.0,144.0,18.0,5,39.0,127.0,35.0,12,73.0,86.0,41.0,13,10.0,58.0,23.0*49
$GPGSV,3,2,11,15,23.0,22.0,35.0,18,18.0,331.0,27.0,20,75.0,34.0,38.0,21,25.0,281.0,20.0*7e
$GPGSV,3,3,11,24,30.0,351.0,34.0,25,55.0,200.0,39.0,29,21.0,205.0,25.0*55
$GPGLL,0550.8554,S,03512.0174,W,160942,A*26
$GPGSV,3,2,12,15,24.0,25.0,34.0,18,20.0,331.0,36.0,20,77.0,43.0,37.0,21,25.0,278.0,17.0*78
$GPGSV,3,1,12,2,5.0,142.0,19.0,5,38.0,130.0,23.0,12,72.0,76.0,35.0,13,10.0,60.0,23.0*48
$GPGLL,0550.8554,S,03512.0174,W,160944,A*20
$GPGSV,3,2,12,15,24.0,25.0,33.0,18,20.0,331.0,36.0,20,77.0,43.0,37.0,21,25.0,278.0,16.0*7e
$GPGSV,3,3,12,24,28.0,353.0,34.0,25,58.0,201.0,33.0,29,21.0,203.0,32.0,31,1.0,234.0,0.0*73
$GPGSA,A,3,2,5,12,13,15,18,20,,24,25,29,,,,,*33
$GPGLL,0550.8554,S,03512.0174,W,160946,A*22
$GPRMC,160946,A,0550.8554,S,03512.0174,W,0.0,53.46,270116,,*12
$GPGSA,A,3,2,5,12,13,15,18,20,21,24,25,29,,,,,*30
$GPGSV,3,1,12,2,5.0,142.0,19.0,5,38.0,130.0,22.0,12,72.0,76.0,35.0,13,10.0,60.0,21.0*4b
$GPGSV,3,1,12,2,5.0,142.0,18.0,5,38.0,130.0,23.0,12,72.0,76.0,34.0,13,10.0,60.0,20.0*4b
$GPGLL,0550.8554,S,03512.0174,W,160948,A*2c
$GPRMC,160948,A,0550.8554,S,03512.0174,W,0.0,53.46,270116,,*1c
$GPGSV,3,1,11,10,40.0,204.0,34.0,14,70.0,0.0,29.0,16,22.0,272.0,15.0,18,28.0,163.0,26.0*71
$GPGSV,3,2,11,21,38.0,131.0,28.0,22,31.0,254.0,17.0,24,6.0,102.0,26.0,26,28.0,305.0,35.0*47
$GPGSV,3,3,11,27,21.0,216.0,15.0,29,31.0,35.0,39.0,31,14.0,349.0,28.0*66
$GPGGA,205313,0550.5042,S,03512.6233,W,1,11,1.9,60.5,M,,,,*21
$GPGLL,0550.5042,S,03512.6233,W,205313,A*21
$GPRMC,205313,A,0550.5042,S,03512.6233,W,8.735713988967495,159.99,260116,,*2c
$GPGSA,A,3,10,14,16,18,21,22,24,26,27,29,31,,,,,*37
$GPGLL,0550.5059,S,03512.6225,W,205314,A*2b
$GPGSV,3,2,11,21,38.0,131.0,29.0,22,31.0,254.0,14.0,24,6.0,102.0,29.0,26,28.0,305.0,36.0*49
$GPGSV,3,3,11,27,21.0,216.0,24.0,29,31.0,35.0,26.0,31,14.0,349.0,30.0*63
$GPGGA,205316,0550.5081,S,03512.6215,W,1,11,2.0,61.5,M,,,,*24
$GPGLL,0550.5081,S,03512.6215,W,205316,A*2f
$GPGSV,3,2,11,21,38.0,131.0,30.0,22,31.0,254.0,15.0,24,6.0,102.0,29.0,26,28.0,305.0,37.0*41
$GPGSV,3,3,11,27,21.0,216.0,22.0,29,31.0,35.0,27.0,31,14.0,349.0,30.0*64
$GPGLL,0550.3178,S,03512.3129,W,101248,A*2a
$GPRMC,101248,A,0550.3178,S,03512.3129,W,24.88542907918931,152.44,270116,,*28
$GPGSA,A,3,,2,5,6,7,9,13,,17,19,28,30,,,,*0a
$GPGSV,3,1,12,1,1.0,128.0,0.0,2,15.0,342.0,28.0,5,14.0,309.0,30.0,6,39.0,22.0,27.0*4a
$GPGSV,3,1,12,1,1.0,128.0,0.0,2,15.0,342.0,28.0,5,14.0,309.0,23.0,6,39.0,22.0,34.0*4a
$GPGGA,101250,0550.3302,S,03512.3060,W,1,10,2.1,44.3,M,,,,*2a
$GPGLL,0550.3302,S,03512.3060,W,101250,A*20
$GPGSV,3,2,12,7,28.0,75.0,38.0,9,8.0,27.0,21.0,13,47.0,234.0,40.0,15,9.0,226.0,27.0*76
$GPGSV,3,3,12,17,62.0,170.0,31.0,19,71.0,174.0,27.0,28,22.0,163.0,33.0,30,46.0,110.0,38.0*71
$GPGLL,0550.3369,S,03512.3026,W,101251,A*2e
$GPGSV,3,1,12,1,1.0,128.0,0.0,2,15.0,342.0,26.0,5,14.0,309.0,31.0,6,39.0,22.0,31.0*42
$GPGSV,3,2,12,7,28.0,75.0,38.0,9,8.0,27.0,20.0,13,47.0,234.0,40.0,15,9.0,226.0,26.0*76
$GPGSV,3,3,12,17,62.0,170.0,31.0,19,71.0,174.0,27.0,28,22.0,163.0,31.0,30,46.0,110.0,40.0*7c
$GPGGA,101253,0550.3506,S,03512.2952,W,1,10,2.1,44.6,M,,,,*27
$GPGSV,3,1,11,2,9.0,146.0,27.0,5,42.0,123.0,34.0,12,73.0,103.0,17.0,13,9.0,54.0,16.0*4c
$GPGSV,3,2,11,15,22.0,18.0,16.0,18,14.0,331.0,28.0,20,70.0,22.0,15.0,21,23.0,286.0,22.0*7a
$GPGSV,3,3,11,24,34.0,347.0,22.0,25,50.0,199.0,37.0,29,19.0,210.0,33.0*51
$GPGGA,155406,0550.6561,S,03512.5931,W,1,10,2.6,62.3,M,,,,*20
$GPGSV,3,1,11,2,9.0,146.0,27.0,5,42.0,123.0,35.0,12,73.0,103.0,17.0,13,9.0,54.0,15.0*4e
$GPGLL,0550.6561,S,03512.5931,W,155407,A*28
$GPRMC,155407,A,0550.6561,S,03512.5931,W,0.0,66.52,270116,,*1b
$GPGSV,3,2,11,15,22.0,18.0,15.0,18,15.0,331.0,29.0,20,70.0,22.0,17.0,21,23.0,286.0,22.0*7b
$GPGSV,3,3,11,24,34.0,347.0,22.0,25,50.0,199.0,37.0,29,19.0,210.0,30.0*52
$GPGGA,155408,0550.6561,S,03512.5931,W,1,10,2.6,62.3,M,,,,*2e
$GPGLL,0550.6561,S,03512.5931,W,155408,A*27
$GPRMC,155408,A,0550.6561,S,03512.5931,W,0.0,66.52,270116,,*14
$GPGSA,A,3,2,5,12,,15,18,20,21,24,25,29,,,,,*32
$GPGSV,3,1,11,2,9.0,146.0,27.0,5,42.0,123.0,35.0,12,73.0,103.0,17.0,13,9.0,54.0,17.0*4c
$GPGSV,3,1,11,2,9.0,146.0,27.0,5,42.0,123.0,34.0,12,73.0,103.0,17.0,13,9.0,54.0,17.0*4d
$GPGGA,155410,0550.6561,S,03512.5931,W,1,10,2.5,62.3,M,,,,*24
$GPGLL,0550.6561,S,03512.5931,W,155410,A*2e
$GPRMC,155410,A,0550.6561,S,03512.5931,W,0.0,66.52,270116,,*1d
$GPGGA,155411,0550.6561,S,03512.5931,W,1,10,2.5,62.3,M,,,,*25
$GPGLL,0550.6561,S,03512.5931,W,155411,A*2f
$GPGSV,3,2,11,15,22.0,18.0,17.0,18,15.0,331.0,28.0,20,71.0,24.0,18.0,21,23.0,286.0,21.0*73
$GPGSV,3,2,11,15,22.0,18.0,17.0,18,15.0,331.0,27.0,20,71.0,24.0,17.0,21,23.0,286.0,21.0*73
$GPGSV,3,3,11,24,34.0,347.0,21.0,25,50.0,199.0,37.0,29,19.0,210.0,29.0*59
$GPGGA,155413,0550.6561,S,03512.5931,W,1,10,2.5,62.3,M,,,,*27
$GPGLL,0550.6561,S,03512.5931,W,155413,A*2d
$GPGSV,3,2,11,15,22.0,18.0,17.0,18,15.0,331.0,26.0,20,71.0,24.0,17.0,21,23.0,286.0,21.0*72
$GPGSV,3,2,11,15,22.0,18.0,17.0,18,15.0,331.0,25.0,20,71.0,24.0,16.0,21,23.0,286.0,21.0*70
$GPGSV,3,3,11,24,33.0,348.0,27.0,25,51.0,199.0,36.0,29,19.0,210.0,30.0*5f
$GPRMC,161928,A,0550.2829,S,03512.5018,W,19.57756476694006,259.39,270116,,*2e
$GPGSA,A,3,,5,12,13,15,18,20,21,24,25,29,,,,,*02
$GPGSV,3,1,12,2,2.0,139.0,12.0,5,34.0,133.0,30.0,12,70.0,62.0,30.0,13,10.0,65.0,17.0*45
$GPGLL,0550.2844,S,03512.5121,W,161930,A*21
$GPGSV,3,2,12,15,25.0,29.0,28.0,18,24.0,331.0,31.0,20,80.0,65.0,28.0,21,26.0,273.0,24.0*71
$GPGSV,3,3,12,24,26.0,356.0,28.0,25,63.0,202.0,21.0,29,23.0,199.0,28.0,31,2.0,237.0,0.0*74
$GPGSV,3,2,12,15,25.0,29.0,29.0,18,24.0,331.0,31.0,20,80.0,65.0,26.0,21,26.0,273.0,23.0*79
$GPGSV,3,2,12,15,25.0,29.0,30.0,18,24.0,331.0,20.0,20,80.0,65.0,27.0,21,26.0,273.0,23.0*70
$GPGSV,3,3,12,24,26.0,356.0,26.0,25,63.0,202.0,28.0,29,23.0,199.0,27.0,31,2.0,237.0,0.0*7c
$GPGSA,A,3,,5,12,13,15,18,20,21,24,25,29,,,,,*02
$GPGSV,3,1,12,2,2.0,139.0,14.0,5,34.0,133.0,29.0,12,70.0,62.0,30.0,13,10.0,65.0,18.0*44
$GPGSV,3,1,12,2,2.0,139.0,11.0,5,34.0,133.0,27.0,12,70.0,62.0,31.0,13,10.0,65.0,20.0*45
$GPGLL,0550.2870,S,03512.5276,W,161934,A*23
$GPRMC,161934,A,0550.2870,S,03512.5276,W,11.062970466812434,257.74,270116,,*12
$GPGLL,0550.3809,S,03511.7261,W,101527,A*23
$GPGSV,3,2,12,7,28.0,74.0,30.0,9,8.0,28.0,0.0,13,48.0,236.0,38.0,15,9.0,227.0,11.0*45
$GPGSV,3,3,12,17,61.0,170.0,25.0,19,70.0,174.0,29.0,28,22.0,162.0,33.0,30,46.0,108.0,37.0*7f
$GPGSA,A,3,,2,5,6,7,,13,,17,19,28,30,,,,*33
$GPGSV,3,1,12,1,1.0,129.0,0.0,2,16.0,342.0,20.0,5,13.0,310.0,25.0,6,39.0,23.0,41.0*4a
$GPGLL,0550.3750,S,03511.7305,W,101529,A*2d
$GPGSV,3,2,12,7,28.0,74.0,27.0,9,8.0,28.0,0.0,13,48.0,236.0,39.0,15,9.0,227.0,0.0*72
$GPGLL,0550.3677,S,03511.7356,W,101531,A*26
$GPGSV,3,2,12,7,28.0,74.0,28.0,9,8.0,28.0,0.0,13,48.0,236.0,39.0,15,9.0,227.0,0.0*7d
$GPGSV,3,3,12,17,61.0,170.0,30.0,19,70.0,174.0,31.0,28,22.0,162.0,33.0,30,46.0,108.0,37.0*72
$GPGSA,A,3,,2,5,6,7,,13,,17,19,28,30,,,,*33
$GPGSV,3,1,12,1,1.0,129.0,0.0,2,16.0,342.0,19.0,5,13.0,310.0,27.0,6,39.0,23.0,33.0*47
$GPGLL,0550.3591,S,03511.7413,W,101533,A*29
$GPGSV,3,2,12,7,28.0,74.0,28.0,9,8.0,28.0,0.0,13,48.0,236.0,39.0,15,9.0,227.0,0.0*7d
$GPGLL,0549.0223,S,03512.5964,W,203118,A*2c
$GPRMC,203118,A,0549.0223,S,03512.5964,W,15.944603844349738,19.77,260116,,*23
$GPGSA,A,3,10,14,15,16,18,21,22,,,26,,29,,,,*32
$GPGSV,3,1,13,10,44.0,216.0,34.0,14,58.0,357.0,37.0,15,8.0,141.0,15.0,16,22.0,261.0,25.0*4e
$GPGLL,0549.0180,S,03512.5948,W,203119,A*29
$GPRMC,203119,A,0549.0180,S,03512.5948,W,17.160261144987775,19.17,260116,,*24
$GPGSA,A,3,10,14,15,16,18,21,22,24,,26,,29,,,,*34
$GPGSV,3,1,13,10,44.0,216.0,32.0,14,59.0,357.0,37.0,15,8.0,141.0,16.0,16,22.0,261.0,24.0*4b
$GPGLL,0549.0082,S,03512.5912,W,203121,A*2e
$GPRMC,203121,A,0549.0082,S,03512.5912,W,19.412476945730667,21.31,260116,,*2b
$GPGSA,A,3,10,14,15,16,18,21,22,24,,26,,29,,,,*34
$GPGSV,3,1,13,10,44.0,216.0,32.0,14,59.0,357.0,37.0,15,7.0,141.0,15.0,16,22.0,261.0,16.0*46
$GPGLL,0549.0032,S,03512.5893,W,203122,A*2e
$GPGSV,3,2,13,18,34.0,172.0,28.0,21,36.0,144.0,23.0,22,29.0,266.0,18.0,24,7.0,92.0,14.0*73
$GPGGA,162049,0550.2115,S,03512.7066,W,1,10,3.3,46.1,M,,,,*21
$GPGLL,0550.2115,S,03512.7066,W,162049,A*28
$GPRMC,162049,A,0550.2115,S,03512.7066,W,0.14707938011284002,226.35,270116,,*27
$GPGSA,A,3,,5,12,13,15,18,20,21,24,25,29,,,,,*02
$GPGSV,3,1,12,2,2.0,139.0,0.0,5,34.0,134.0,20.0,12,69.0,59.0,34.0,13,11.0,65.0,18.0*7a
$GPGLL,0550.2118,S,03512.7072,W,162050,A*28
$GPGSV,3,2,12,15,25.0,29.0,17.0,18,25.0,331.0,29.0,20,80.0,71.0,25.0,21,27.0,272.0,25.0*7c
$GPGSV,3,2,12,15,25.0,29.0,22.0,18,25.0,331.0,28.0,20,80.0,71.0,25.0,21,27.0,272.0,24.0*7a
$GPGSV,3,2,12,15,25.0,29.0,23.0,18,25.0,331.0,29.0,20,80.0,71.0,25.0,21,27.0,272.0,23.0*7d
$GPGSV,3,3,12,24,25.0,357.0,34.0,25,64.0,203.0,30.0,29,23.0,199.0,27.0,31,2.0,237.0,0.0*72
$GPGSA,A,3,,5,12,13,15,18,20,21,24,25,29,,,,,*02
$GPGSV,3,1,12,2,2.0,139.0,0.0,5,34.0,134.0,30.0,12,69.0,59.0,33.0,13,11.0,65.0,20.0*77
$GPGLL,0550.2129,S,03512.7066,W,162054,A*2b
$GPGSV,3,2,12,15,25.0,29.0,21.0,18,25.0,331.0,29.0,20,80.0,71.0,24.0,21,27.0,272.0,23.0*7e
$GPGSV,3,1,11,10,40.0,204.0,37.0,14,70.0,0.0,34.0,16,22.0,272.0,24.0,18,28.0,163.0,34.0*7f
$GPGLL,0550.3328,S,03512.6724,W,205235,A*2e
$GPRMC,205235,A,0550.3328,S,03512.6724,W,15.799525881677122,164.13,260116,,*1d
$GPGSA,A,3,10,14,16,18,21,22,24,26,,29,31,,,,,*32
$GPGSV,3,1,11,10,40.0,204.0,28.0,14,70.0,0.0,35.0,16,22.0,272.0,25.0,18,28.0,163.0,34.0*71
$GPGLL,0550.3370,S,03512.6713,W,205236,A*24
$GPRMC,205236,A,0550.3370,S,03512.6713,W,14.999094464314718,165.4,260116,,*28
$GPGSV,3,1,11,10,40.0,204.0,17.0,14,70.0,0.0,34.0,16,22.0,272.0,27.0,18,28.0,163.0,33.0*79
$GPGSV,3,2,11,21,38.0,131.0,32.0,22,31.0,254.0,35.0,24,6.0,102.0,23.0,26,28.0,305.0,29.0*44
$GPGSV,3,3,11,27,21.0,216.0,14.0,29,31.0,35.0,40.0,31,14.0,349.0,34.0*64
$GPGGA,205238,0550.3450,S,03512.6691,W,1,10,1.9,51.6,M,,,,*24
$GPGLL,0550.3450,S,03512.6691,W,205238,A*24
$GPRMC,205238,A,0550.3450,S,03512.6691,W,14.801987903375178,164.26,260116,,*19
$GPGSA,A,3,10,14,16,18,21,22,24,26,,29,31,,,,,*32
$GPGSV,3,1,13,10,42.0,209.0,28.0,14,65.0,358.0,35.0,15,3.0,142.0,17.0,16,22.0,268.0,24.0*4a
$GPGLL,0549.6601,S,03512.4543,W,204306,A*2c
$GPRMC,204306,A,0549.6601,S,03512.4543,W,10.388606348856511,199.34,260116,,*1c
$GPGSA,A,3,10,14,,16,18,21,22,24,,26,27,29,,,,*35
$GPGSV,3,1,13,10,42.0,209.0,29.0,14,65.0,358.0,34.0,15,3.0,142.0,18.0,16,22.0,268.0,23.0*42
$GPGSV,3,2,13,18,30.0,167.0,33.0,21,37.0,136.0,38.0,22,30.0,259.0,27.0,24,7.0,98.0,18.0*79
$GPGLL,0549.6624,S,03512.4552,W,204307,A*2a
$GPRMC,204307,A,0549.6624,S,03512.4552,W,7.9282789357377625,206.53,260116,,*1e
$GPGSV,3,2,13,18,30.0,167.0,32.0,21,37.0,136.0,38.0,22,30.0,259.0,36.0,24,7.0,98.0,18.0*78
$GPGSV,3,3,13,25,1.0,29.0,16.0,26,29.0,300.0,26.0,27,17.0,215.0,35.0,29,35.0,38.0,35.0*4a
$GPGSA,A,3,10,14,,16,18,21,22,24,,26,27,29,,,,*35
$GPGSV,3,1,13,10,42.0,209.0,30.0,14,65.0,358.0,27.0,15,3.0,142.0,28.0,16,22.0,268.0,25.0*4d
$GPGLL,0549.6649,S,03512.4568,W,204309,A*26
$GPGSV,3,2,13,18,30.0,167.0,21.0,21,37.0,136.0,38.0,22,30.0,259.0,35.0,24,7.0,98.0,18.0*79
$GPGGA,155058,0550.6558,S,03512.5911,W,1,10,3.1,63.6,M,,,,*25
$GPGLL,0550.6558,S,03512.5911,W,155058,A*2e
$GPRMC,155058,A,0550.6558,S,03512.5911,W,0.0,13.26,270116,,*1c
$GPGSA,A,1,,,,,,,,,,,,,,,,*32
$GPGSV,3,1,11,2,10.0,146.0,0.0,5,43.0,122.0,0.0,12,72.0,107.0,0.0,13,9.0,53.0,0.0*75
$GPGSV,3,2,11,15,21.0,17.0,0.0,18,14.0,331.0,0.0,20,70.0,22.0,0.0,21,23.0,287.0,0.0*7e
$GPGSV,3,3,11,24,34.0,347.0,0.0,25,49.0,199.0,0.0,29,19.0,210.0,0.0*6d
$GPGSV,3,2,11,15,21.0,17.0,0.0,18,14.0,331.0,0.0,20,70.0,22.0,0.0,21,23.0,287.0,0.0*7e
$GPGSV,3,2,11,15,21.0,17.0,0.0,18,14.0,331.0,0.0,20,70.0,22.0,0.0,21,23.0,287.0,0.0*7e
$GPGSV,3,3,11,24,34.0,347.0,0.0,25,49.0,199.0,0.0,29,19.0,210.0,0.0*6d
$GPGGA,155058,0550.6558,S,03512.5911,W,1,10,3.1,63.6,M,,,,*25
$GPGLL,0550.6558,S,03512.5911,W,155058,A*2e
$GPGSV,3,2,11,15,21.0,17.0,0.0,18,14.0,331.0,0.0,20,70.0,22.0,24.0,21,23.0,287.0,0.0*48
$GPGSV,3,1,11,2,10.0,146.0,0.0,5,43.0,122.0,30.0,12,72.0,107.0,0.0,13,9.0,53.0,0.0*46
$GPGSV,3,1,11,2,10.0,146.0,0.0,5,43.0,122.0,32.0,12,72.0,107.0,0.0,13,9.0,53.0,0.0*44
$GPGSV,3,2,11,15,21.0,17.0,0.0,18,14.0,331.0,33.0,20,70.0,22.0,25.0,21,23.0,287.0,0.0*79
$GPGSV,3,3,11,24,34.0,347.0,27.0,25,49.0,199.0,19.0,29,19.0,210.0,23.0*51
$GPGGA,155200,0550.6536,S,03512.5836,W,1,0,8.0,62.6,M,,,,*1c
$GPGLL,0550.6536,S,03512.5836,W,155200,A*2d
$GPRMC,155200,A,0550.6536,S,03512.5836,W,0.0,219.21,270116,,*20
$GPGSA,A,3,,5,,,15,18,20,,24,25,29,,,,,*00
$GPGSV,3,2,11,15,21.0,17.0,19.0,18,14.0,331.0,33.0,20,70.0,22.0,24.0,21,23.0,287.0,19.0*78
$GPGLL,0550.6558,S,03512.5942,W,155201,A*26
$GPGSV,3,2,11,15,21.0,17.0,18.0,18,14.0,331.0,30.0,20,70.0,22.0,23.0,21,23.0,287.0,20.0*77
$GPGSV,3,3,11,24,34.0,347.0,24.0,25,49.0,199.0,22.0,29,19.0,210.0,29.0*50
$GPGGA,155203,0550.6556,S,03512.5955,W,1,10,5.4,62.4,M,,,,*27
$GPGLL,0550.6556,S,03512.5955,W,155203,A*2c
$GPGSV,3,2,11,15,21.0,17.0,20.0,18,14.0,331.0,32.0,20,70.0,22.0,22.0,21,23.0,287.0,22.0*7d
$GPGSV,3,1,11,2,10.0,146.0,30.0,5,43.0,122.0,22.0,12,72.0,107.0,24.0,13,9.0,53.0,27.0*75
$GPGSV,3,2,11,15,21.0,17.0,20.0,18,14.0,331.0,32.0,20,70.0,22.0,21.0,21,23.0,287.0,24.0*78
$GPGSV,3,3,11,24,34.0,347.0,23.0,25,49.0,199.0,23.0,29,19.0,210.0,31.0*5f
$GPGGA,155205,0550.6549,S,03512.5981,W,1,10,4.8,62.4,M,,,,*2b
$GPGSV,3,1,11,2,10.0,146.0,25.0,5,43.0,122.0,29.0,12,72.0,107.0,25.0,13,9.0,53.0,28.0*74
$GPGGA,155206,0550.6544,S,03512.5979,W,1,10,4.5,62.5,M,,,,*2e
$GPGSV,3,1,11,2,10.0,146.0,25.0,5,43.0,122.0,28.0,12,72.0,107.0,24.0,13,9.0,53.0,28.0*74
$GPGLL,0550.6539,S,03512.5978,W,155207,A*2e
$GPGSV,3,1,11,2,10.0,146.0,25.0,5,43.0,122.0,26.0,12,72.0,107.0,24.0,13,9.0,53.0,28.0*7a
$GPGLL,0550.6539,S,03512.5978,W,155208,A*21
$GPRMC,155208,A,0550.6539,S,03512.5978,W,0.0,130.87,270116,,*28
$GPGSA,A,3,2,5,12,,15,18,20,21,24,25,29,,,,,*32
$GPGSV,3,1,11,2,10.0,146.0,24.0,5,43.0,122.0,24.0,12,72.0,107.0,24.0,13,9.0,53.0,28.0*79
$GPGSV,3,2,11,15,21.0,17.0,17.0,18,14.0,331.0,32.0,20,70.0,22.0,25.0,21,23.0,287.0,19.0*76
$GPRMC,155210,A,0550.6539,S,03512.5978,W,0.0,130.87,270116,,*21
$GPGSV,3,2,11,15,21.0,17.0,17.0,18,14.0,331.0,32.0,20,70.0,22.0,25.0,21,23.0,287.0,19.0*76
$GPGSV,3,3,11,24,34.0,347.0,27.0,25,49.0,199.0,24.0,29,19.0,210.0,33.0*5e
$GPGSA,A,3,2,5,12,,15,18,20,21,24,25,29,,,,,*32
$GPGSV,3,1,11,2,10.0,146.0,22.0,5,43.0,122.0,25.0,12,72.0,107.0,24.0,13,9.0,53.0,27.0*71
$GPGLL,0550.6539,S,03512.5978,W,155212,A*2a
$GPRMC,155212,A,0550.6539,S,03512.5978,W,0.0,130.87,270116,,*23
$GPGSV,3,1,11,2,10.0,146.0,24.0,5,43.0,122.0,26.0,12,72.0,107.0,25.0,13,9.0,53.0,26.0*74
$GPGLL,0550.6539,S,03512.5978,W,155214,A*2c
$GPRMC,155214,A,0550.6539,S,03512.5978,W,0.0,130.87,270116,,*25
$GPGSA,A,3,2,5,12,,15,18,20,21,24,25,29,,,,,*32
$GPGSV,3,1,11,2,10.0,146.0,24.0,5,43.0,122.0,27.0,12,72.0,107.0,24.0,13,9.0,53.0,26.0*74
$GPGLL,0550.6539,S,03512.5978,W,155215,A*2d
$GPRMC,155215,A,0550.6539,S,03512.5978,W,0.0,130.87,270116,,*24
$GPGLL,0548.8814,S,03512.5455,W,203227,A*2b
$GPGSV,3,2,13,18,33.0,171.0,36.0,21,36.0,143.0,23.0,22,30.0,265.0,34.0,24,7.0,93.0,15.0*7a
$GPGSV,3,3,13,25,4.0,25.0,0.0,26,31.0,294.0,17.0,27,13.0,214.0,21.0,29,40.0,42.0,27.0*7f
$GPGSA,A,3,10,14,15,16,18,21,22,24,,,,29,,,,*30
$GPGSV,3,1,13,10,44.0,216.0,28.0,14,59.0,357.0,36.0,15,7.0,141.0,18.0,16,22.0,262.0,31.0*47
$GPGGA,203228,0548.8814,S,03512.5455,W,1,10,2.1,48.6,M,,,,*27
$GPGLL,0548.8814,S,03512.5455,W,203228,A*24
$GPGSA,A,3,10,14,15,16,18,21,22,24,,26,,29,,,,*34
$GPGSV,3,1,13,10,44.0,216.0,32.0,14,59.0,357.0,37.0,15,7.0,141.0,18.0,16,22.0,262.0,29.0*44
$GPGLL,0548.8778,S,03512.5438,W,203230,A*23
$GPRMC,203230,A,0548.8778,S,03512.5438,W,8.525601205358505,17.06,260116,,*12
$GPGGA,203231,0548.8757,S,03512.5429,W,1,10,2.8,48.0,M,,,,*23
$GPGLL,0548.8757,S,03512.5429,W,203231,A*2f
$GPGSV,3,2,13,18,33.0,171.0,37.0,21,36.0,143.0,27.0,22,30.0,265.0,31.0,24,7.0,93.0,17.0*78
$GPGSV,3,1,11,10,40.0,205.0,29.0,14,69.0,359.0,32.0,16,22.0,271.0,32.0,18,28.0,164.0,36.0*71
$GPGLL,0550.2717,S,03512.4358,W,205033,A*2e
$GPRMC,205033,A,0550.2717,S,03512.4358,W,16.742035822105645,261.64,260116,,*17
$GPGSA,A,3,10,14,16,18,21,22,24,26,27,29,31,,,,,*37
$GPGSV,3,1,11,10,40.0,205.0,30.0,14,69.0,359.0,30.0,16,22.0,271.0,32.0,18,28.0,164.0,36.0*7b
$GPGLL,0550.2723,S,03512.4404,W,205034,A*20
$GPGSV,3,2,11,21,38.0,132.0,32.0,22,31.0,255.0,29.0,24,6.0,101.0,17.0,26,28.0,304.0,23.0*44
$GPGLL,0550.2732,S,03512.4493,W,205036,A*2c
$GPGSV,3,2,11,21,38.0,132.0,34.0,22,31.0,255.0,28.0,24,6.0,101.0,22.0,26,28.0,304.0,24.0*42
$GPGSV,3,3,11,27,20.0,215.0,27.0,29,32.0,36.0,35.0,31,13.0,348.0,28.0*6f
$GPGSA,A,3,10,14,16,18,21,22,24,26,27,29,31,,,,,*37
$GPGSV,3,1,11,10,40.0,205.0,27.0,14,69.0,359.0,30.0,16,22.0,271.0,33.0,18,28.0,164.0,33.0*79
$GPGLL,0550.2745,S,03512.4576,W,205038,A*28
$GPGSV,3,2,11,21,38.0,132.0,35.0,22,31.0,255.0,29.0,24,6.0,101.0,19.0,26,28.0,304.0,24.0*4a
$GPGLL,0549.8622,S,03512.7279,W,202552,A*2f
$GPGSV,3,2,13,18,35.0,173.0,25.0,21,35.0,146.0,31.0,22,29.0,268.0,39.0,24,7.0,91.0,17.0*71
$GPGSV,3,3,13,25,5.0,24.0,21.0,26,31.0,291.0,29.0,27,10.0,214.0,26.0,29,43.0,45.0,41.0*44
$GPGSA,A,3,10,14,15,,18,21,,24,25,26,,29,,,,*34
$GPGSV,3,1,13,10,45.0,219.0,31.0,14,56.0,357.0,27.0,15,9.0,140.0,31.0,16,22.0,259.0,35.0*46
$GPGLL,0549.8622,S,03512.7279,W,202554,A*29
$GPGSV,3,2,13,18,35.0,173.0,25.0,21,35.0,146.0,28.0,22,29.0,268.0,40.0,24,7.0,91.0,16.0*76
$GPGLL,0549.8622,S,03512.7279,W,202556,A*2b
$GPRMC,202556,A,0549.8622,S,03512.7279,W,0.0,114.6,260116,,*1c
$GPGSA,A,3,10,14,15,,18,21,,24,25,26,,29,,,,*34
$GPGSV,3,1,13,10,45.0,219.0,32.0,14,56.0,357.0,27.0,15,9.0,140.0,29.0,16,22.0,259.0,33.0*4a
$GPGSV,3,1,13,10,45.0,219.0,33.0,14,56.0,357.0,28.0,15,9.0,140.0,29.0,16,22.0,259.0,32.0*45
$GPGLL,0549.8622,S,03512.7279,W,202558,A*25
$GPRMC,202558,A,0549.8622,S,03512.7279,W,0.0,114.6,260116,,*12
$GPGLL,0549.8622,S,03512.7279,W,202559,A*24
$GPGSV,3,2,13,18,35.0,173.0,26.0,21,35.0,146.0,30.0,22,29.0,268.0,37.0,24,7.0,91.0,19.0*73
$GPGSV,3,3,13,25,5.0,24.0,20.0,26,31.0,291.0,26.0,27,10.0,214.0,23.0,29,42.0,44.0,40.0*4e
$GPGSA,A,3,10,14,15,,18,21,,24,25,26,,29,,,,*34
$GPGSV,3,1,13,10,45.0,219.0,31.0,14,56.0,357.0,24.0,15,9.0,140.0,27.0,16,22.0,259.0,31.0*46
$GPGLL,0549.8622,S,03512.7279,W,202601,A*2a
$GPGSV,3,2,13,18,35.0,173.0,27.0,21,35.0,146.0,31.0,22,29.0,268.0,24.0,24,7.0,91.0,18.0*70
$GPGLL,0549.8677,S,03512.7228,W,202603,A*2c
$GPGSV,3,2,13,18,35.0,173.0,28.0,21,35.0,146.0,30.0,22,29.0,268.0,33.0,24,7.0,91.0,18.0*78
$GPGSV,3,1,13,10,45.0,219.0,27.0,14,56.0,357.0,29.0,15,9.0,140.0,24.0,16,22.0,259.0,23.0*4c
$GPGLL,0549.8730,S,03512.7255,W,202605,A*22
$GPRMC,202605,A,0549.8730,S,03512.7255,W,11.069974102679764,196.67,260116,,*13
$GPGSA,A,3,10,14,15,,18,21,22,24,25,26,,29,,,,*34
$GPGSV,3,1,13,10,45.0,219.0,26.0,14,56.0,357.0,29.0,15,9.0,140.0,25.0,16,22.0,259.0,32.0*4c
$GPGLL,0550.6577,S,03512.5879,W,160034,A*20
$GPGLL,0550.6577,S,03512.5879,W,160035,A*21
$GPGSV,3,2,11,15,22.0,21.0,19.0,18,17.0,331.0,22.0,20,74.0,29.0,18.0,21,24.0,283.0,20.0*74
$GPGSV,3,3,11,24,31.0,350.0,18.0,25,53.0,199.0,27.0,29,20.0,207.0,34.0*52
$GPGSA,A,3,2,5,,13,15,18,20,21,24,25,29,,,,,*33
$GPGSV,3,1,11,2,7.0,145.0,20.0,5,41.0,126.0,25.0,12,73.0,93.0,0.0,13,10.0,56.0,17.0*75
$GPGSV,3,2,11,15,22.0,21.0,19.0,18,17.0,331.0,23.0,20,74.0,29.0,18.0,21,24.0,283.0,19.0*7f
$GPGLL,0550.6577,S,03512.5879,W,160037,A*23
$GPRMC,160037,A,0550.6577,S,03512.5879,W,0.0,66.52,270116,,*10
$GPGSA,A,3,2,5,,13,15,18,20,21,24,25,29,,,,,*33
$GPGSV,3,1,11,2,7.0,145.0,20.0,5,41.0,126.0,24.0,12,73.0,93.0,0.0,13,10.0,56.0,17.0*74
$GPGSV,3,2,11,15,22.0,21.0,19.0,18,17.0,331.0,25.0,20,74.0,29.0,18.0,21,24.0,283.0,19.0*79
$GPGSV,3,3,11,24,31.0,350.0,15.0,25,53.0,199.0,27.0,29,20.0,207.0,37.0*5c
$GPGGA,160038,0550.6577,S,03512.5879,W,1,10,3.0,48.7,M,,,,*2e
$GPGSV,3,2,11,15,22.0,21.0,19.0,18,17.0,331.0,25.0,20,74.0,29.0,18.0,21,24.0,283.0,18.0*78
$GPGSV,3,1,11,2,7.0,145.0,19.0,5,41.0,126.0,23.0,12,73.0,93.0,0.0,13,10.0,56.0,17.0*79
$GPGSV,3,2,11,15,22.0,21.0,19.0,18,17.0,331.0,25.0,20,74.0,29.0,18.0,21,24.0,283.0,19.0*79
$GPGSV,3,3,11,24,31.0,350.0,17.0,25,53.0,199.0,27.0,29,20.0,207.0,36.0*5f
$GPGGA,160040,0550.6577,S,03512.5879,W,1,10,3.1,48.7,M,,,,*20
$GPGSV,3,1,11,2,7.0,145.0,17.0,5,41.0,126.0,24.0,12,73.0,93.0,17.0,13,10.0,56.0,17.0*46
$GPGSV,3,2,11,15,22.0,21.0,19.0,18,17.0,331.0,25.0,20,74.0,29.0,19.0,21,24.0,283.0,19.0*78
$GPRMC,160041,A,0550.6577,S,03512.5879,W,0.0,66.52,270116,,*11
$GPGSA,A,3,2,5,12,13,15,18,20,21,24,25,29,,,,,*30
$GPGSV,3,1,11,2,7.0,145.0,14.0,5,41.0,126.0,25.0,12,73.0,93.0,18.0,13,10.0,56.0,17.0*4b
$GPGSV,3,3,11,24,31.0,350.0,18.0,25,53.0,199.0,27.0,29,20.0,207.0,34.0*52
$GPRMC,160043,A,0550.6577,S,03512.5879,W,0.0,66.52,270116,,*13
$GPGSA,A,3,2,5,12,13,15,18,20,21,24,25,29,,,,,*30
$GPGSV,3,2,11,15,22.0,21.0,20.0,18,17.0,331.0,24.0,20,74.0,29.0,19.0,21,24.0,283.0,18.0*72
$GPRMC,204203,A,0549.5949,S,03512.4343,W,0.1941047461587593,206.39,260116,,*1d
$GPGSV,3,3,13,25,2.0,28.0,0.0,26,30.0,299.0,29.0,27,16.0,214.0,24.0,29,36.0,38.0,30.0*7f
$GPGGA,204205,0549.5952,S,03512.4343,W,1,11,2.6,38.5,M,,,,*23
$GPGLL,0549.5952,S,03512.4343,W,204205,A*22
$GPGSV,3,2,13,18,31.0,168.0,36.0,21,37.0,137.0,38.0,22,30.0,260.0,36.0,24,7.0,97.0,18.0*76
$GPGSV,3,3,13,25,2.0,28.0,0.0,26,30.0,299.0,29.0,27,16.0,214.0,20.0,29,36.0,38.0,30.0*7b
$GPGSA,A,3,10,14,,16,18,21,22,24,,26,27,29,,,,*35
$GPGSV,3,1,13,10,42.0,210.0,24.0,14,64.0,358.0,37.0,15,4.0,142.0,13.0,16,22.0,267.0,22.0*47
$GPGSV,3,2,13,18,31.0,168.0,36.0,21,37.0,137.0,39.0,22,30.0,260.0,37.0,24,7.0,97.0,17.0*79
$GPGSV,3,3,13,25,2.0,28.0,0.0,26,30.0,299.0,29.0,27,16.0,214.0,20.0,29,36.0,38.0,29.0*73
$GPGGA,204207,0549.5952,S,03512.4346,W,1,11,2.4,38.3,M,,,,*20
$GPGSV,3,1,13,10,42.0,210.0,25.0,14,64.0,358.0,37.0,15,4.0,142.0,13.0,16,22.0,267.0,23.0*47
$GPGSV,3,2,13,18,31.0,168.0,37.0,21,37.0,137.0,39.0,22,30.0,260.0,38.0,24,7.0,97.0,18.0*78
$GPGSV,3,3,13,25,2.0,28.0,0.0,26,30.0,299.0,29.0,27,16.0,214.0,19.0,29,36.0,38.0,29.0*79
$GPGSV,3,2,12,7,28.0,76.0,27.0,9,9.0,27.0,15.0,13,46.0,233.0,35.0,15,8.0,226.0,14.0*78
$GPGLL,0550.1167,S,03512.8500,W,101029,A*27
$GPGSV,3,2,12,7,28.0,76.0,29.0,9,9.0,27.0,14.0,13,46.0,233.0,36.0,15,8.0,226.0,13.0*73
$GPGSV,3,3,12,17,63.0,170.0,31.0,19,72.0,174.0,34.0,28,23.0,164.0,13.0,30,45.0,112.0,40.0*7b
$GPGSA,A,3,,2,5,6,7,9,13,,17,19,28,30,,,,*0a
$GPGSV,3,1,12,1,1.0,128.0,0.0,2,15.0,342.0,15.0,5,14.0,308.0,33.0,6,38.0,21.0,26.0*45
$GPGLL,0550.1160,S,03512.8458,W,101030,A*24
$GPGSV,3,2,12,7,28.0,76.0,32.0,9,9.0,27.0,14.0,13,46.0,233.0,36.0,15,8.0,226.0,13.0*79
$GPGSV,3,1,12,1,1.0,128.0,0.0,2,15.0,342.0,12.0,5,14.0,308.0,23.0,6,38.0,21.0,34.0*40
$GPGSV,3,3,12,17,63.0,170.0,33.0,19,72.0,174.0,34.0,28,23.0,164.0,17.0,30,45.0,112.0,33.0*79
$GPGGA,101032,0550.1146,S,03512.8370,W,1,10,2.8,52.8,M,,,,*20
$GPGLL,0550.1146,S,03512.8370,W,101032,A*2f
$GPRMC,101032,A,0550.1146,S,03512.8370,W,16.520915206368496,79.47,270116,,*29
$GPGSA,A,3,,2,5,6,7,9,13,,17,19,28,30,,,,*0a
$GPRMC,160709,A,0550.9502,S,03512.4431,W,23.440650185470716,121.62,270116,,*1a
$GPGSA,A,3,2,5,12,13,15,18,20,21,24,25,29,,,,,*30
$GPGSV,3,1,11,2,5.0,142.0,25.0,5,39.0,128.0,36.0,12,72.0,82.0,37.0,13,10.0,59.0,23.0*4b
$GPGLL,0550.9570,S,03512.4321,W,160711,A*2f
$GPGSV,3,2,11,15,23.0,23.0,35.0,18,19.0,331.0,33.0,20,76.0,37.0,30.0,21,25.0,280.0,26.0*74
$GPGSV,3,3,11,24,30.0,352.0,35.0,25,56.0,200.0,33.0,29,21.0,205.0,28.0*53
$GPGSA,A,3,2,5,12,13,15,18,20,21,24,25,29,,,,,*30
$GPGSV,3,2,11,15,23.0,23.0,36.0,18,19.0,331.0,33.0,20,76.0,37.0,30.0,21,25.0,280.0,25.0*74
$GPGLL,0550.9634,S,03512.4205,W,160713,A*29
$GPGSV,3,2,11,15,23.0,23.0,28.0,18,19.0,331.0,33.0,20,76.0,37.0,32.0,21,25.0,280.0,25.0*79
$GPGSV,3,1,11,2,5.0,142.0,22.0,5,38.0,129.0,36.0,12,72.0,82.0,37.0,13,10.0,59.0,22.0*4d
$GPGSV,3,2,11,15,23.0,23.0,29.0,18,19.0,331.0,33.0,20,76.0,37.0,25.0,21,25.0,280.0,26.0*7d
$GPGSV,3,3,11,24,30.0,352.0,35.0,25,56.0,200.0,26.0,29,21.0,205.0,30.0*5e
$GPGLL,0550.9670,S,03512.4150,W,160714,A*2d
$GPGLL,0550.6561,S,03512.5931,W,155348,A*24
$GPGSV,3,1,11,2,10.0,146.0,20.0,5,43.0,122.0,27.0,12,72.0,107.0,23.0,13,9.0,53.0,16.0*74
$GPGLL,0550.6561,S,03512.5931,W,155349,A*25
$GPRMC,155349,A,0550.6561,S,03512.5931,W,0.0,66.52,270116,,*16
$GPGSA,A,3,2,5,12,,15,18,20,21,24,25,29,,,,,*32
$GPGSV,3,1,11,2,10.0,146.0,19.0,5,43.0,122.0,28.0,12,72.0,107.0,23.0,13,9.0,53.0,16.0*71
$GPGLL,0550.6561,S,03512.5931,W,155350,A*2d
$GPGSV,3,2,11,15,21.0,17.0,25.0,18,14.0,331.0,29.0,20,70.0,22.0,19.0,21,23.0,286.0,20.0*79
$GPGSV,3,1,11,2,9.0,146.0,22.0,5,43.0,122.0,30.0,12,72.0,107.0,21.0,13,9.0,53.0,17.0*4b
$GPGGA,155352,0550.6561,S,03512.5931,W,1,10,2.9,62.3,M,,,,*29
$GPGLL,0550.6561,S,03512.5931,W,155352,A*2f
$GPRMC,155352,A,0550.6561,S,03512.5931,W,0.0,66.52,270116,,*1c
$GPGSA,A,3,2,5,12,,15,18,20,21,24,25,29,,,,,*32
$GPGSV,3,1,11,2,9.0,146.0,30.0,5,43.0,122.0,30.0,12,72.0,107.0,20.0,13,9.0,53.0,18.0*46
$GPGLL,0550.6504,S,03512.5470,W,160622,A*20
$GPGSV,3,2,11,15,23.0,23.0,28.0,18,19.0,331.0,25.0,20,76.0,37.0,23.0,21,25.0,280.0,35.0*7f
$GPGSV,3,3,11,24,30.0,352.0,17.0,25,56.0,200.0,30.0,29,21.0,205.0,32.0*5b
$GPGSA,A,3,2,5,12,13,15,18,20,21,24,25,29,,,,,*30
$GPGSV,3,1,11,2,6.0,143.0,19.0,5,39.0,128.0,30.0,12,72.0,82.0,39.0,13,10.0,59.0,25.0*48
$GPGLL,0550.6649,S,03512.5404,W,160624,A*2f
$GPGSV,3,2,11,15,23.0,23.0,23.0,18,19.0,331.0,27.0,20,76.0,37.0,29.0,21,25.0,280.0,36.0*7f
$GPGLL,0550.6801,S,03512.5341,W,160626,A*29
$GPGSV,3,2,11,15,23.0,23.0,23.0,18,19.0,331.0,30.0,20,76.0,37.0,32.0,21,25.0,280.0,37.0*72
$GPGSV,3,3,11,24,30.0,352.0,30.0,25,56.0,200.0,29.0,29,21.0,205.0,22.0*57
$GPGSA,A,3,2,5,12,13,15,18,20,21,24,25,29,,,,,*30
$GPGSV,3,1,11,2,6.0,143.0,19.0,5,39.0,128.0,34.0,12,72.0,82.0,37.0,13,10.0,59.0,22.0*45
$GPGSV,3,2,11,15,23.0,23.0,23.0,18,19.0,331.0,31.0,20,76.0,37.0,33.0,21,25.0,280.0,36.0*73
$GPGSV,3,3,11,24,30.0,352.0,30.0,25,56.0,200.0,21.0,29,21.0,205.0,20.0*5d
$GPGSV,3,2,11,15,23.0,23.0,24.0,18,19.0,331.0,32.0,20,76.0,37.0,32.0,21,25.0,280.0,36.0*76
$GPGSV,3,3,11,24,30.0,352.0,30.0,25,56.0,200.0,21.0,29,21.0,205.0,19.0*57
$GPGSA,A,3,2,5,12,13,15,18,20,21,24,25,29,,,,,*30
$GPGSV,3,1,11,2,6.0,143.0,19.0,5,39.0,128.0,34.0,12,72.0,82.0,36.0,13,10.0,59.0,21.0*47
$GPGLL,0550.7111,S,03512.5242,W,160630,A*25
$GPGSV,3,2,11,15,23.0,23.0,23.0,18,19.0,331.0,32.0,20,76.0,37.0,33.0,21,25.0,280.0,38.0*7e
$GPGSV,3,3,11,24,30.0,352.0,22.0,25,56.0,200.0,23.0,29,21.0,205.0,21.0*5d
$GPGLL,0550.7265,S,03512.5204,W,160632,A*25
$GPRMC,160632,A,0550.7265,S,03512.5204,W,28.883587531124192,168.33,270116,,*17
$GPGSA,A,3,2,5,12,13,15,18,20,21,24,25,29,,,,,*30
$GPGSV,3,1,11,2,6.0,143.0,20.0,5,39.0,128.0,35.0,12,72.0,82.0,34.0,13,10.0,59.0,30.0*4e
$GPGSV,3,1,11,2,6.0,143.0,21.0,5,39.0,128.0,35.0,12,72.0,82.0,35.0,13,10.0,59.0,30.0*4e
$GPGLL,0550.7419,S,03512.5182,W,160634,A*23
$GPRMC,160634,A,0550.7419,S,03512.5182,W,26.502303137573758,174.35,270116,,*1e
$GPGLL,0550.5295,S,03512.6311,W,154923,A*26
$GPRMC,154923,A,0550.5295,S,03512.6311,W,14.096607021651597,243.02,270116,,*14
$GPGSA,A,3,2,5,12,,15,18,20,,,25,29,,,,,*37
$GPGSV,3,1,11,2,10.0,147.0,23.0,5,44.0,120.0,35.0,12,72.0,112.0,25.0,13,9.0,52.0,0.0*44
$GPGLL,0550.5331,S,03512.6389,W,154925,A*2e
$GPGSV,3,1,11,2,10.0,147.0,38.0,5,44.0,120.0,30.0,12,72.0,112.0,26.0,13,9.0,52.0,19.0*70
$GPGLL,0550.5356,S,03512.6436,W,154926,A*2f
$GPGSV,3,2,11,15,21.0,16.0,10.0,18,13.0,331.0,12.0,20,69.0,20.0,18.0,21,22.0,288.0,0.0*47
$GPGSV,3,1,11,2,10.0,147.0,30.0,5,44.0,120.0,30.0,12,72.0,112.0,26.0,13,9.0,52.0,14.0*75
$GPGLL,0550.5411,S,03512.6536,W,154928,A*24
$GPRMC,154928,A,0550.5411,S,03512.6536,W,19.634596756738464,240.0,270116,,*2b
$GPGSA,A,3,2,5,12,,15,,20,,,25,29,,,,,*3e
$GPGSV,3,1,11,2,10.0,147.0,30.0,5,44.0,120.0,29.0,12,72.0,112.0,25.0,13,9.0,52.0,17.0*7d
$GPGSV,3,2,11,15,21.0,16.0,12.0,18,13.0,331.0,0.0,20,69.0,20.0,25.0,21,22.0,288.0,0.0*78
$GPGSV,3,2,11,21,38.0,132.0,32.0,22,31.0,255.0,32.0,24,6.0,101.0,16.0,26,28.0,304.0,25.0*49
$GPGSV,3,3,11,27,20.0,215.0,30.0,29,32.0,36.0,27.0,31,13.0,349.0,21.0*62
$GPGSA,A,3,10,14,16,18,21,22,24,26,27,29,31,,,,,*37
$GPGSV,3,1,11,10,40.0,205.0,34.0,14,69.0,359.0,23.0,16,22.0,271.0,33.0,18,28.0,164.0,24.0*7f
$GPGLL,0550.2859,S,03512.5315,W,205058,A*2e
$GPGSV,3,2,11,21,38.0,132.0,34.0,22,31.0,255.0,25.0,24,6.0,101.0,15.0,26,28.0,304.0,23.0*4c
$GPGSV,3,3,11,27,20.0,215.0,23.0,29,32.0,36.0,28.0,31,13.0,349.0,21.0*6f
$GPGLL,0550.2885,S,03512.5509,W,205104,A*2c
$GPGSV,3,2,11,21,38.0,132.0,35.0,22,31.0,255.0,28.0,24,6.0,101.0,17.0,26,28.0,304.0,25.0*44
$GPGSV,3,3,11,27,20.0,215.0,30.0,29,32.0,36.0,37.0,31,13.0,349.0,19.0*68
$GPGSA,A,3,10,14,16,18,21,22,24,26,27,29,31,,,,,*37
$GPGSV,3,1,11,10,40.0,205.0,37.0,14,69.0,359.0,27.0,16,22.0,271.0,35.0,18,28.0,164.0,38.0*73
$GPGLL,0550.2894,S,03512.5584,W,205106,A*2b
$GPGSV,3,2,11,21,38.0,132.0,34.0,22,31.0,255.0,29.0,24,6.0,101.0,14.0,26,28.0,304.0,23.0*41
$GPGSV,3,2,11,21,38.0,131.0,33.0,22,31.0,254.0,24.0,24,6.0,102.0,21.0,26,28.0,305.0,28.0*46
$GPGLL,0550.3573,S,03512.6657,W,205241,A*20
$GPGSV,3,2,11,21,38.0,131.0,33.0,22,31.0,254.0,36.0,24,6.0,102.0,21.0,26,28.0,305.0,27.0*4a
$GPGSV,3,1,11,10,40.0,204.0,34.0,14,70.0,0.0,33.0,16,22.0,272.0,18.0,18,28.0,163.0,34.0*74
$GPGSV,3,1,11,10,40.0,204.0,35.0,14,70.0,0.0,33.0,16,22.0,272.0,18.0,18,28.0,163.0,34.0*75
$GPGLL,0550.3659,S,03512.6631,W,205243,A*29
$GPRMC,205243,A,0550.3659,S,03512.6631,W,16.33681672189297,164.11,260116,,*28
$GPGLL,0550.3703,S,03512.6618,W,205244,A*2b
$GPRMC,205244,A,0550.3703,S,03512.6618,W,16.397849200363073,164.0,260116,,*22
$GPGSA,A,3,10,14,16,18,21,22,24,26,27,29,31,,,,,*37
$GPGSV,3,1,11,10,40.0,204.0,36.0,14,70.0,0.0,33.0,16,22.0,272.0,25.0,18,28.0,163.0,34.0*78
$GPGSV,3,1,11,10,40.0,204.0,37.0,14,70.0,0.0,34.0,16,22.0,272.0,24.0,18,28.0,163.0,34.0*7f
$GPGLL,0550.3792,S,03512.6592,W,205246,A*20
$GPRMC,205246,A,0550.3792,S,03512.6592,W,17.390385640928105,163.4,260116,,*22
$GPGLL,0550.6577,S,03512.5879,W,155756,A*25
$GPRMC,155756,A,0550.6577,S,03512.5879,W,0.0,66.52,270116,,*16
$GPGSA,A,3,2,5,12,,15,18,20,21,24,25,29,,,,,*32
$GPGSV,3,1,11,2,8.0,145.0,21.0,5,41.0,125.0,27.0,12,73.0,96.0,20.0,13,9.0,55.0,19.0*78
$GPGSV,3,1,11,2,8.0,145.0,20.0,5,41.0,125.0,26.0,12,73.0,96.0,20.0,13,9.0,55.0,19.0*78
$GPGSV,3,2,11,15,22.0,20.0,18.0,18,16.0,331.0,31.0,20,73.0,27.0,18.0,21,24.0,284.0,20.0*79
$GPGSV,3,3,11,24,32.0,348.0,24.0,25,51.0,199.0,36.0,29,20.0,209.0,32.0*5d
$GPGLL,0550.6577,S,03512.5879,W,155759,A*2a
$GPRMC,155759,A,0550.6577,S,03512.5879,W,0.0,66.52,270116,,*19
$GPGSA,A,3,2,5,12,,15,18,20,21,24,25,29,,,,,*32
$GPGSV,3,1,11,2,8.0,145.0,18.0,5,41.0,125.0,25.0,12,73.0,96.0,19.0,13,9.0,55.0,18.0*7b
$GPGSV,3,1,11,2,8.0,145.0,16.0,5,41.0,125.0,25.0,12,73.0,96.0,19.0,13,9.0,55.0,16.0*7b
$GPGLL,0550.6577,S,03512.5879,W,155801,A*28
$GPRMC,155801,A,0550.6577,S,03512.5879,W,0.0,66.52,270116,,*1b
$GPGSV,3,1,12,1,2.0,127.0,0.0,2,14.0,341.0,26.0,5,14.0,307.0,26.0,6,37.0,20.0,44.0*4a
$GPGSV,3,2,12,7,28.0,77.0,22.0,9,10.0,27.0,24.0,13,46.0,232.0,25.0,15,8.0,225.0,23.0*41
$GPGSV,3,3,12,17,64.0,170.0,27.0,19,73.0,174.0,28.0,28,23.0,164.0,23.0,30,45.0,112.0,28.0*7a
$GPGGA,100848,0550.3600,S,03512.9871,W,1,10,2.4,73.3,M,,,,*2c
$GPGLL,0550.3600,S,03512.9871,W,100848,A*27
$GPGSA,A,3,,2,5,6,7,9,13,,17,19,28,30,,,,*0a
$GPGSV,3,1,12,1,2.0,127.0,0.0,2,14.0,341.0,25.0,5,14.0,307.0,26.0,6,37.0,20.0,44.0*49
$GPGSV,3,2,12,7,28.0,77.0,41.0,9,10.0,27.0,21.0,13,46.0,232.0,27.0,15,8.0,225.0,23.0*43
$GPGLL,0550.3545,S,03512.9881,W,100850,A*23
$GPGSV,3,2,12,7,28.0,77.0,39.0,9,10.0,27.0,20.0,13,46.0,232.0,27.0,15,8.0,225.0,22.0*4c
$GPGSV,3,3,12,17,64.0,170.0,28.0,19,73.0,174.0,27.0,28,23.0,164.0,20.0,30,45.0,112.0,29.0*78
$GPGGA,100851,0550.3510,S,03512.9893,W,1,10,2.4,73.2,M,,,,*2b
$GPGLL,0550.3510,S,03512.9893,W,100851,A*21
$GPGSV,3,2,12,7,28.0,77.0,30.0,9,10.0,27.0,19.0,13,46.0,232.0,26.0,15,8.0,225.0,33.0*4e
$GPGSV,3,3,12,17,64.0,170.0,36.0,19,73.0,174.0,27.0,28,23.0,164.0,21.0,30,45.0,112.0,28.0*77
$GPGSA,A,3,,2,5,6,7,9,13,,17,19,28,30,,,,*0a
$GPGSV,3,1,12,1,2.0,127.0,0.0,2,14.0,341.0,25.0,5,14.0,307.0,27.0,6,37.0,20.0,35.0*4e
$GPGSV,3,2,12,7,28.0,77.0,31.0,9,10.0,27.0,18.0,13,46.0,232.0,27.0,15,8.0,225.0,33.0*4f
$GPGSV,3,3,12,17,64.0,170.0,25.0,19,73.0,174.0,27.0,28,23.0,164.0,30.0,30,45.0,112.0,35.0*79
$GPGSA,A,3,,2,5,6,7,9,13,,17,19,28,30,,,,*0a
$GPGSV,3,1,12,1,2.0,127.0,0.0,2,14.0,341.0,23.0,5,14.0,307.0,29.0,6,37.0,20.0,42.0*46
$GPGSV,3,2,11,21,38.0,131.0,38.0,22,31.0,254.0,34.0,24,6.0,102.0,23.0,26,28.0,305.0,16.0*43
$GPGSV,3,1,11,10,40.0,204.0,33.0,14,70.0,0.0,30.0,16,22.0,272.0,15.0,18,28.0,163.0,32.0*7b
$GPGLL,0550.5186,S,03512.6194,W,205338,A*2f
$GPGSV,3,2,11,21,38.0,131.0,25.0,22,31.0,254.0,32.0,24,6.0,102.0,24.0,26,28.0,305.0,14.0*4c
$GPGSV,3,1,11,10,40.0,204.0,34.0,14,70.0,0.0,30.0,16,22.0,272.0,13.0,18,28.0,163.0,40.0*7f
$GPGLL,0550.5209,S,03512.6232,W,205340,A*2b
$GPGSV,3,2,11,21,38.0,131.0,27.0,22,31.0,254.0,29.0,24,6.0,102.0,26.0,26,28.0,305.0,14.0*46
$GPGLL,0550.5240,S,03512.6284,W,205342,A*29
$GPRMC,205342,A,0550.5240,S,03512.6284,W,13.221134927187148,236.87,260116,,*1e
$GPGSA,A,3,10,14,16,18,21,22,24,,27,29,31,,,,,*33
$GPGSV,3,1,11,10,40.0,204.0,32.0,14,70.0,0.0,24.0,16,22.0,272.0,12.0,18,28.0,163.0,40.0*7d
$GPGSV,3,2,11,21,38.0,131.0,28.0,22,31.0,254.0,31.0,24,6.0,102.0,33.0,26,28.0,305.0,14.0*44
$GPGSV,3,3,11,27,21.0,216.0,33.0,29,31.0,35.0,40.0,31,14.0,349.0,17.0*60
$GPGSA,A,3,10,14,16,18,21,22,24,,27,29,,,,,,*31
$GPGSV,3,2,12,15,24.0,25.0,28.0,18,21.0,331.0,32.0,20,78.0,47.0,35.0,21,26.0,277.0,29.0*78
$GPGSV,3,3,12,24,28.0,354.0,26.0,25,59.0,201.0,32.0,29,22.0,202.0,23.0,31,1.0,235.0,0.0*74
$GPGSA,A,3,,5,12,,15,18,20,21,24,25,29,,,,,*00
$GPGSV,3,1,12,2,4.0,141.0,0.0,5,37.0,131.0,24.0,12,71.0,73.0,30.0,13,10.0,61.0,14.0*7d
$GPGLL,0550.3905,S,03511.7168,W,161148,A*2f
$GPGSV,3,2,12,15,24.0,25.0,30.0,18,21.0,331.0,32.0,20,78.0,47.0,35.0,21,26.0,277.0,32.0*7b
$GPGSV,3,1,12,2,4.0,141.0,0.0,5,37.0,131.0,26.0,12,71.0,73.0,30.0,13,10.0,61.0,12.0*79
$GPGLL,0550.3832,S,03511.7223,W,161150,A*2f
$GPGSV,3,2,12,15,24.0,25.0,23.0,18,21.0,331.0,32.0,20,78.0,47.0,34.0,21,26.0,277.0,31.0*7b
$GPGSV,3,3,12,24,28.0,354.0,22.0,25,59.0,201.0,29.0,29,22.0,202.0,27.0,31,1.0,235.0,0.0*7e
$GPGSA,A,3,,5,12,,15,18,20,21,24,25,29,,,,,*00
$GPGSV,3,1,12,2,4.0,141.0,0.0,5,37.0,131.0,25.0,12,71.0,73.0,33.0,13,10.0,61.0,0.0*4a
$GPGLL,0550.3764,S,03511.7270,W,161152,A*27
$GPRMC,161152,A,0550.3764,S,03511.7270,W,14.47381065149768,326.29,270116,,*25
$GPGLL,0550.8554,S,03512.0174,W,160957,A*22
$GPGSV,3,2,12,15,24.0,25.0,32.0,18,20.0,331.0,34.0,20,77.0,43.0,37.0,21,25.0,278.0,20.0*78
$GPGSV,3,3,12,24,28.0,353.0,32.0,25,58.0,201.0,32.0,29,21.0,203.0,33.0,31,1.0,234.0,0.0*75
$GPGSA,A,3,2,5,12,13,15,18,20,21,24,25,29,,,,,*30
$GPGSV,3,1,12,2,5.0,142.0,15.0,5,38.0,130.0,35.0,12,72.0,76.0,37.0,13,10.0,60.0,23.0*41
$GPGSV,3,2,12,15,24.0,25.0,33.0,18,20.0,331.0,34.0,20,77.0,43.0,37.0,21,25.0,278.0,21.0*78
$GPGSV,3,3,12,24,28.0,353.0,30.0,25,58.0,201.0,32.0,29,21.0,203.0,33.0,31,1.0,234.0,0.0*77
$GPGSV,3,2,12,15,24.0,25.0,33.0,18,20.0,331.0,34.0,20,77.0,43.0,37.0,21,25.0,278.0,21.0*78
$GPGSV,3,1,12,2,5.0,142.0,17.0,5,38.0,130.0,27.0,12,72.0,76.0,36.0,13,10.0,60.0,23.0*41
$GPGLL,0550.8554,S,03512.0174,W,161001,A*29
$GPGSV,3,2,12,15,24.0,25.0,33.0,18,20.0,331.0,35.0,20,77.0,43.0,36.0,21,25.0,278.0,19.0*73
$GPGSV,3,3,12,24,28.0,353.0,31.0,25,58.0,201.0,32.0,29,21.0,203.0,33.0,31,1.0,234.0,0.0*76
$GPGSA,A,3,2,5,12,13,15,18,20,21,24,25,29,,,,,*30
$GPGSV,3,1,12,2,5.0,142.0,15.0,5,38.0,130.0,26.0,12,72.0,76.0,36.0,13,10.0,60.0,24.0*45
$GPGSV,3,2,12,18,29.0,165.0,32.0,21,37.0,133.0,31.0,22,31.0,256.0,28.0,24,6.0,101.0,16.0*40
$GPGSV,3,3,12,26,29.0,303.0,30.0,27,19.0,215.0,22.0,29,33.0,36.0,30.0,31,13.0,348.0,28.0*45
$GPGSA,A,3,10,14,,16,18,21,22,24,26,27,29,31,,,,*37
$GPGSV,3,1,12,10,40.0,206.0,30.0,14,68.0,359.0,35.0,15,1.0,143.0,0.0,16,22.0,270.0,34.0*7e
$GPGLL,0550.4633,S,03512.2289,W,204928,A*26
$GPGSV,3,2,12,18,29.0,165.0,34.0,21,37.0,133.0,29.0,22,31.0,256.0,28.0,24,6.0,101.0,15.0*4c
$GPGSV,3,3,12,26,29.0,303.0,27.0,27,19.0,215.0,31.0,29,33.0,36.0,31.0,31,13.0,348.0,31.0*48
$GPGLL,0550.4498,S,03512.2356,W,204930,A*2f
$GPGSV,3,2,12,18,29.0,165.0,34.0,21,37.0,133.0,28.0,22,31.0,256.0,30.0,24,6.0,101.0,15.0*44
$GPGSV,3,3,12,26,29.0,303.0,25.0,27,19.0,215.0,23.0,29,33.0,36.0,31.0,31,13.0,348.0,31.0*49
$GPGSA,A,3,10,14,,16,18,21,22,24,26,27,29,31,,,,*37
$GPGSV,3,1,12,10,40.0,206.0,34.0,14,68.0,359.0,37.0,15,1.0,143.0,0.0,16,22.0,270.0,34.0*78
$GPGLL,0550.4362,S,03512.2424,W,204932,A*2d
$GPGSV,3,2,12,18,29.0,165.0,34.0,21,37.0,133.0,28.0,22,31.0,256.0,30.0,24,6.0,101.0,16.0*47
$GPGSV,3,1,12,1,1.0,129.0,0.0,2,16.0,342.0,32.0,5,13.0,310.0,38.0,6,39.0,23.0,37.0*44
$GPGLL,0550.6259,S,03511.7466,W,101445,A*2d
$GPGSV,3,1,12,1,1.0,129.0,0.0,2,16.0,342.0,31.0,5,13.0,310.0,37.0,6,39.0,23.0,35.0*4a
$GPGLL,0550.6201,S,03511.7422,W,101446,A*23
$GPRMC,101446,A,0550.6201,S,03511.7422,W,25.48875578940674,33.96,270116,,*1b
$GPGSA,A,3,,2,5,6,7,9,13,,17,19,28,30,,,,*0a
$GPGSV,3,1,12,1,1.0,129.0,0.0,2,16.0,342.0,20.0,5,13.0,310.0,37.0,6,39.0,23.0,26.0*48
$GPGLL,0550.5946,S,03511.7284,W,101450,A*25
$GPGSV,3,1,12,1,1.0,129.0,0.0,2,16.0,342.0,25.0,5,13.0,310.0,37.0,6,39.0,23.0,32.0*48
$GPGSV,3,1,12,1,1.0,129.0,0.0,2,16.0,342.0,26.0,5,13.0,310.0,37.0,6,39.0,23.0,32.0*4b
$GPGLL,0550.5813,S,03511.7212,W,101452,A*29
$GPRMC,101452,A,0550.5813,S,03511.7212,W,26.098085086426288,28.61,270116,,*24
$GPGSA,A,3,,2,5,6,7,9,13,,17,19,28,30,,,,*0a
$GPGSV,3,1,12,1,1.0,129.0,0.0,2,16.0,342.0,25.0,5,13.0,310.0,37.0,6,39.0,23.0,31.0*4b
$GPGSV,3,2,11,15,21.0,17.0,25.0,18,14.0,331.0,33.0,20,70.0,22.0,24.0,21,23.0,286.0,21.0*7d
$GPGSV,3,3,11,24,34.0,347.0,30.0,25,50.0,199.0,25.0,29,19.0,210.0,35.0*57
$GPGGA,155231,0550.6539,S,03512.5978,W,1,10,2.7,62.6,M,,,,*26
$GPGLL,0550.6539,S,03512.5978,W,155231,A*2b
$GPGSV,3,2,11,15,21.0,17.0,25.0,18,14.0,331.0,32.0,20,70.0,22.0,24.0,21,23.0,286.0,22.0*7f
$GPGSV,3,2,11,15,21.0,17.0,25.0,18,14.0,331.0,33.0,20,70.0,22.0,24.0,21,23.0,286.0,22.0*7e
$GPGSV,3,3,11,24,34.0,347.0,30.0,25,50.0,199.0,24.0,29,19.0,210.0,35.0*56
$GPGSV,3,2,11,15,21.0,17.0,26.0,18,14.0,331.0,33.0,20,70.0,22.0,24.0,21,23.0,286.0,20.0*7f
$GPGSV,3,3,11,24,34.0,347.0,30.0,25,50.0,199.0,19.0,29,19.0,210.0,35.0*58
$GPGSA,A,3,2,5,12,,15,18,20,21,24,25,29,,,,,*32
$GPGSV,3,1,11,2,10.0,146.0,22.0,5,43.0,122.0,23.0,12,72.0,107.0,25.0,13,9.0,53.0,24.0*75
$GPGLL,0550.6539,S,03512.5978,W,155235,A*2f
$GPGSV,3,2,11,15,21.0,17.0,25.0,18,14.0,331.0,32.0,20,70.0,22.0,23.0,21,23.0,286.0,22.0*78
$GPGSV,3,3,11,24,34.0,347.0,29.0,25,50.0,199.0,24.0,29,19.0,210.0,34.0*5f
$GPGSV,3,2,12,15,24.0,25.0,31.0,18,20.0,331.0,26.0,20,77.0,43.0,29.0,21,25.0,278.0,26.0*71
$GPGSV,3,1,12,2,5.0,142.0,15.0,5,38.0,130.0,28.0,12,72.0,76.0,36.0,13,10.0,60.0,18.0*44
$GPGLL,0550.7797,S,03511.9323,W,161037,A*24
$GPRMC,161037,A,0550.7797,S,03511.9323,W,24.84040597058428,49.08,270116,,*13
$GPGSA,A,3,2,5,12,13,15,18,20,21,24,25,29,,,,,*30
$GPGSV,3,1,12,2,5.0,142.0,11.0,5,38.0,130.0,27.0,12,72.0,76.0,36.0,13,10.0,60.0,18.0*4f
$GPGSV,3,1,12,2,5.0,142.0,16.0,5,38.0,130.0,29.0,12,72.0,76.0,36.0,13,10.0,60.0,18.0*46
$GPGLL,0550.7704,S,03511.9217,W,161039,A*26
$GPRMC,161039,A,0550.7704,S,03511.9217,W,25.814930943153822,48.28,270116,,*25
$GPGSA,A,3,2,5,12,13,15,18,20,21,24,25,29,,,,,*30
$GPGSV,3,1,12,2,5.0,142.0,16.0,5,38.0,130.0,29.0,12,72.0,76.0,37.0,13,10.0,60.0,17.0*48
$GPGLL,0550.7657,S,03511.9161,W,161040,A*2d
$GPGSV,3,2,12,15,24.0,25.0,28.0,18,20.0,331.0,28.0,20,77.0,43.0,29.0,21,25.0,278.0,21.0*70
$GPGSV,3,1,12,2,5.0,142.0,13.0,5,38.0,130.0,28.0,12,72.0,76.0,36.0,13,10.0,60.0,17.0*4d
$GPGLL,0550.6971,S,03511.8365,W,161054,A*25
$GPGSV,3,2,12,15,24.0,25.0,26.0,18,20.0,331.0,23.0,20,77.0,43.0,30.0,21,25.0,278.0,20.0*7c
$GPGLL,0550.6871,S,03511.8252,W,161056,A*23
$GPGSV,3,2,12,15,24.0,25.0,25.0,18,20.0,331.0,23.0,20,77.0,43.0,31.0,21,25.0,278.0,20.0*7e
$GPGSV,3,3,12,24,28.0,353.0,30.0,25,58.0,201.0,26.0,29,21.0,203.0,25.0,31,1.0,234.0,0.0*75
$GPGSA,A,3,2,5,12,13,15,18,20,21,24,25,29,,,,,*30
$GPGSV,3,1,12,2,4.0,141.0,11.0,5,38.0,130.0,31.0,12,72.0,76.0,34.0,13,10.0,60.0,20.0*43
$GPGSV,3,2,12,15,24.0,25.0,25.0,18,20.0,331.0,22.0,20,77.0,43.0,31.0,21,25.0,278.0,20.0*7f
$GPGSV,3,1,12,2,4.0,141.0,14.0,5,38.0,130.0,31.0,12,72.0,76.0,34.0,13,10.0,60.0,19.0*4c
$GPGLL,0550.6776,S,03511.8140,W,161058,A*25
$GPRMC,161058,A,0550.6776,S,03511.8140,W,26.045055439094153,48.12,270116,,*2f
$GPGSA,A,3,,5,12,13,15,18,20,21,24,25,29,,,,,*02
$GPGSV,3,1,12,2,4.0,141.0,15.0,5,38.0,130.0,32.0,12,72.0,76.0,34.0,13,10.0,60.0,18.0*4f
$GPGLL,0550.6728,S,03511.8085,W,161059,A*27
$GPGSV,3,2,11,15,22.0,19.0,29.0,18,15.0,331.0,27.0,20,72.0,25.0,17.0,21,23.0,285.0,21.0*7e
$GPGSV,3,3,11,24,32.0,348.0,25.0,25,51.0,199.0,36.0,29,20.0,209.0,33.0*5d
$GPGGA,155653,0550.6561,S,03512.5931,W,1,10,2.5,62.3,M,,,,*21
$GPGLL,0550.6561,S,03512.5931,W,155653,A*2b
$GPGSV,3,2,11,15,22.0,19.0,28.0,18,15.0,331.0,27.0,20,72.0,25.0,17.0,21,23.0,285.0,21.0*7f
$GPGSV,3,3,11,24,32.0,348.0,25.0,25,51.0,199.0,36.0,29,20.0,209.0,33.0*5d
$GPGSA,A,3,2,5,12,,15,18,20,21,24,25,29,,,,,*32
$GPGSV,3,1,11,2,8.0,146.0,27.0,5,42.0,124.0,28.0,12,73.0,100.0,17.0,13,9.0,55.0,16.0*45
$GPGGA,155655,0550.6561,S,03512.5931,W,1,10,2.5,62.3,M,,,,*27
$GPGSV,3,1,11,2,8.0,146.0,26.0,5,42.0,124.0,27.0,12,73.0,100.0,16.0,13,9.0,55.0,16.0*4a
$GPGLL,0550.6561,S,03512.5931,W,155656,A*2e
$GPRMC,155656,A,0550.6561,S,03512.5931,W,0.0,66.52,270116,,*1d
$GPGSA,A,3,2,5,12,,15,18,20,21,24,25,29,,,,,*32
$GPGSV,3,1,11,2,8.0,146.0,27.0,5,42.0,124.0,28.0,12,73.0,100.0,16.0,13,9.0,55.0,16.0*44
$GPGSV,3,2,11,21,38.0,130.0,21.0,22,31.0,253.0,33.0,24,6.0,103.0,13.0,26,28.0,306.0,20.0*4e
$GPGSV,3,1,11,10,39.0,203.0,18.0,14,71.0,0.0,35.0,16,22.0,273.0,27.0,18,27.0,163.0,19.0*79
$GPGLL,0550.7105,S,03512.9253,W,205552,A*2b
$GPGSV,3,1,11,10,39.0,203.0,19.0,14,71.0,0.0,34.0,16,22.0,273.0,29.0,18,27.0,163.0,19.0*77
$GPGSV,3,1,11,10,39.0,203.0,19.0,14,71.0,0.0,35.0,16,22.0,273.0,28.0,18,27.0,163.0,18.0*76
$GPGGA,205554,0550.7106,S,03512.9250,W,1,11,2.9,51.1,M,,,,*28
$GPGSV,3,1,11,10,39.0,203.0,18.0,14,71.0,0.0,35.0,16,22.0,273.0,27.0,18,27.0,163.0,18.0*78
$GPGLL,0550.7111,S,03512.9251,W,205555,A*2b
$GPRMC,205555,A,0550.7111,S,03512.9251,W,0.13807451508129695,136.83,260116,,*21
$GPGSA,A,3,10,14,16,18,21,22,24,26,27,29,31,,,,,*37
$GPGSV,3,1,11,10,39.0,203.0,18.0,14,71.0,0.0,27.0,16,22.0,273.0,26.0,18,27.0,163.0,18.0*7a
$GPGLL,0550.7115,S,03512.9252,W,205556,A*2f
$GPGSV,3,2,11,21,38.0,130.0,25.0,22,31.0,253.0,25.0,24,6.0,103.0,15.0,26,28.0,306.0,19.0*41
$GPGSV,3,1,11,10,39.0,203.0,18.0,14,71.0,0.0,21.0,16,22.0,273.0,29.0,18,27.0,163.0,18.0*73
$GPGLL,0550.4470,S,03512.6430,W,102543,A*27
$GPRMC,102543,A,0550.4470,S,03512.6430,W,24.463201413840913,163.65,270116,,*11
$GPGSA,A,3,2,5,6,7,,,13,15,17,19,28,30,,,,*37
$GPGSV,3,1,12,2,20.0,345.0,31.0,5,13.0,315.0,17.0,6,43.0,28.0,29.0,7,26.0,69.0,38.0*79
$GPGLL,0550.4534,S,03512.6411,W,102544,A*22
$GPGSV,3,2,12,9,4.0,29.0,20.0,12,1.0,267.0,0.0,13,51.0,243.0,44.0,15,13.0,230.0,17.0*4c
$GPGSV,3,3,12,17,55.0,169.0,40.0,19,64.0,173.0,24.0,28,21.0,157.0,25.0,30,46.0,101.0,40.0*77
$GPGLL,0550.4663,S,03512.6373,W,102546,A*22
$GPRMC,102546,A,0550.4663,S,03512.6373,W,23.58172580567706,163.28,270116,,*28
$GPGSA,A,3,2,5,6,7,,,13,15,17,19,28,30,,,,*37
$GPGSV,3,1,12,2,20.0,345.0,31.0,5,13.0,315.0,21.0,6,43.0,28.0,28.0,7,26.0,69.0,36.0*73
$GPGSV,3,1,12,2,20.0,345.0,29.0,5,13.0,315.0,19.0,6,43.0,28.0,28.0,7,26.0,69.0,35.0*72
$GPGLL,0550.4785,S,03512.6334,W,102548,A*26
$GPRMC,102548,A,0550.4785,S,03512.6334,W,22.41909815237116,161.59,270116,,*21
$GPGLL,0550.6577,S,03512.5879,W,160013,A*25
$GPGSV,3,2,11,15,22.0,21.0,22.0,18,17.0,331.0,27.0,20,74.0,29.0,20.0,21,24.0,283.0,20.0*72
$GPGSV,3,3,11,24,31.0,350.0,22.0,25,53.0,199.0,26.0,29,20.0,207.0,34.0*5a
$GPGSA,A,3,2,5,12,13,15,18,20,21,24,25,29,,,,,*30
$GPGSV,3,1,11,2,7.0,145.0,23.0,5,41.0,126.0,26.0,12,73.0,93.0,15.0,13,10.0,56.0,18.0*4e
$GPGLL,0550.6577,S,03512.5879,W,160015,A*23
$GPGSV,3,2,11,15,22.0,21.0,20.0,18,17.0,331.0,27.0,20,74.0,29.0,20.0,21,24.0,283.0,20.0*70
$GPGLL,0550.6577,S,03512.5879,W,160017,A*21
$GPGSV,3,1,11,2,7.0,145.0,22.0,5,41.0,126.0,25.0,12,73.0,93.0,13.0,13,10.0,56.0,18.0*4a
$GPGSV,3,2,11,15,22.0,21.0,20.0,18,17.0,331.0,28.0,20,74.0,29.0,18.0,21,24.0,283.0,19.0*7e
$GPGSV,3,3,11,24,31.0,350.0,22.0,25,53.0,199.0,26.0,29,20.0,207.0,35.0*5b
$GPGSA,A,3,2,5,12,13,15,18,20,21,24,25,29,,,,,*30
$GPGSV,3,1,11,2,7.0,145.0,22.0,5,41.0,126.0,23.0,12,73.0,93.0,14.0,13,10.0,56.0,18.0*4b
$GPGLL,0550.6577,S,03512.5879,W,160019,A*2f
$GPGSV,3,2,11,15,22.0,21.0,15.0,18,17.0,331.0,23.0,20,74.0,29.0,19.0,21,24.0,283.0,18.0*73
$GPGSV,3,3,11,24,31.0,350.0,19.0,25,53.0,199.0,27.0,29,20.0,207.0,33.0*54
$GPGSA,A,3,2,5,12,13,15,18,20,21,24,25,29,,,,,*30
$GPGSV,3,1,11,2,7.0,145.0,18.0,5,41.0,126.0,25.0,12,73.0,93.0,14.0,13,10.0,56.0,18.0*44
$GPGLL,0550.6577,S,03512.5879,W,160056,A*24
$GPGSV,3,1,11,2,7.0,145.0,18.0,5,41.0,126.0,25.0,12,73.0,93.0,18.0,13,10.0,56.0,18.0*48
$GPGSV,3,1,11,2,7.0,145.0,18.0,5,41.0,126.0,25.0,12,73.0,93.0,18.0,13,10.0,56.0,19.0*49
$GPGSV,3,2,11,15,22.0,21.0,17.0,18,17.0,331.0,22.0,20,74.0,29.0,20.0,21,24.0,283.0,17.0*75
$GPGSV,3,3,11,24,31.0,350.0,19.0,25,53.0,199.0,29.0,29,20.0,207.0,34.0*5d
$GPGGA,160058,0550.6557,S,03512.5931,W,1,11,3.2,44.1,M,,,,*2e
$GPGLL,0550.6557,S,03512.5931,W,160058,A*25
$GPRMC,160058,A,0550.6557,S,03512.5931,W,0.0,66.52,270116,,*16
$GPGSA,A,3,2,5,12,13,15,18,20,21,24,25,29,,,,,*30
$GPGSV,3,1,11,2,7.0,145.0,18.0,5,41.0,126.0,24.0,12,73.0,93.0,17.0,13,10.0,56.0,18.0*46
$GPGSV,3,2,13,18,34.0,172.0,35.0,21,36.0,144.0,27.0,22,29.0,266.0,36.0,24,7.0,92.0,14.0*77
$GPGSV,3,3,13,25,4.0,25.0,28.0,26,31.0,293.0,26.0,27,12.0,214.0,27.0,29,40.0,42.0,34.0*45
$GPGSA,A,3,10,14,15,16,18,21,22,,,26,,29,,,,*32
$GPGSV,3,1,13,10,44.0,217.0,27.0,14,58.0,357.0,37.0,15,8.0,141.0,17.0,16,22.0,261.0,24.0*4e
$GPGLL,0549.0422,S,03512.6038,W,203112,A*22
$GPGSV,3,2,13,18,34.0,172.0,34.0,21,36.0,144.0,26.0,22,29.0,266.0,36.0,24,7.0,92.0,12.0*71
$GPGSV,3,3,13,25,4.0,25.0,26.0,26,31.0,293.0,37.0,27,12.0,214.0,25.0,29,40.0,42.0,34.0*49
$GPGLL,0549.0371,S,03512.6018,W,203114,A*27
$GPGSV,3,2,13,18,34.0,172.0,35.0,21,36.0,144.0,25.0,22,29.0,266.0,33.0,24,7.0,92.0,13.0*77
$GPGSV,3,3,13,25,4.0,25.0,17.0,26,31.0,293.0,35.0,27,12.0,214.0,24.0,29,40.0,42.0,34.0*48
$GPGSA,A,3,10,14,15,16,18,21,22,24,,26,,29,,,,*34
$GPGSV,3,1,13,10,44.0,217.0,31.0,14,58.0,357.0,38.0,15,8.0,141.0,27.0,16,22.0,261.0,26.0*47
$GPGLL,0549.0303,S,03512.5992,W,203116,A*28
$GPRMC,203116,A,0549.0303,S,03512.5992,W,13.532302687031645,18.41,260116,,*2a
$GPGGA,202922,0549.5086,S,03512.7159,W,1,11,2.9,47.8,M,,,,*2b
$GPGLL,0549.5086,S,03512.7159,W,202922,A*20
$GPRMC,202922,A,0549.5086,S,03512.7159,W,16.11869925335144,296.28,260116,,*28
$GPGSA,A,3,10,14,15,16,18,21,22,,25,26,,29,,,,*35
$GPGSV,3,1,13,10,44.0,217.0,42.0,14,57.0,357.0,25.0,15,8.0,141.0,26.0,16,22.0,260.0,29.0*4f
$GPGSV,3,1,13,10,44.0,217.0,42.0,14,57.0,357.0,24.0,15,8.0,141.0,28.0,16,22.0,260.0,27.0*4e
$GPGLL,0549.5049,S,03512.7240,W,202924,A*2e
$GPGSV,3,2,13,18,34.0,173.0,40.0,21,36.0,145.0,26.0,22,29.0,267.0,30.0,24,7.0,92.0,0.0*46
$GPGSV,3,2,13,18,34.0,173.0,38.0,21,36.0,145.0,28.0,22,29.0,267.0,29.0,24,7.0,92.0,0.0*4f
$GPGSV,3,3,13,25,5.0,24.0,10.0,26,31.0,292.0,20.0,27,11.0,214.0,20.0,29,41.0,43.0,35.0*4c
$GPGSA,A,3,10,14,15,16,18,21,22,,25,26,,29,,,,*35
$GPGSV,3,1,13,10,44.0,217.0,35.0,14,58.0,357.0,26.0,15,8.0,141.0,30.0,16,22.0,260.0,26.0*4b
$GPGLL,0549.5010,S,03512.7352,W,202927,A*23
$GPGSV,3,2,13,18,34.0,173.0,36.0,21,36.0,145.0,31.0,22,29.0,267.0,28.0,24,7.0,92.0,0.0*48
$GPGLL,0549.4987,S,03512.7422,W,202929,A*2b
$GPGSV,3,2,13,18,34.0,173.0,33.0,21,36.0,145.0,31.0,22,29.0,267.0,27.0,24,7.0,92.0,0.0*42
$GPGSV,3,3,13,25,5.0,24.0,12.0,26,31.0,292.0,22.0,27,11.0,214.0,20.0,29,41.0,43.0,27.0*4f
$GPGSA,A,3,10,14,15,16,18,21,22,,25,26,,29,,,,*35
$GPGSV,3,1,13,10,44.0,217.0,36.0,14,58.0,357.0,26.0,15,8.0,141.0,24.0,16,22.0,261.0,25.0*4f
$GPGLL,0549.4965,S,03512.7485,W,202931,A*23
$GPGSV,3,2,13,18,34.0,172.0,33.0,21,36.0,145.0,31.0,22,29.0,267.0,26.0,24,7.0,92.0,0.0*42
$GPGLL,0549.4946,S,03512.7543,W,202933,A*2b
$GPGSV,3,2,13,18,34.0,172.0,35.0,21,36.0,144.0,31.0,22,29.0,267.0,27.0,24,7.0,92.0,0.0*44
$GPGSV,3,3,13,25,5.0,24.0,11.0,26,31.0,292.0,28.0,27,11.0,214.0,22.0,29,41.0,43.0,25.0*46
$GPGSA,A,3,10,14,15,16,18,21,22,,25,26,,29,,,,*35
$GPGSV,3,1,13,10,44.0,217.0,35.0,14,58.0,357.0,30.0,15,8.0,141.0,27.0,16,22.0,261.0,26.0*4b
$GPGLL,0549.4931,S,03512.7593,W,202935,A*20
$GPGSV,3,2,13,18,34.0,172.0,35.0,21,36.0,144.0,30.0,22,29.0,266.0,34.0,24,7.0,92.0,0.0*46
$GPGLL,0548.4017,S,03512.3714,W,203407,A*28
$GPRMC,203407,A,0548.4017,S,03512.3714,W,3.421846626467483,22.22,260116,,*1b
$GPGSA,A,3,10,14,15,16,18,21,22,24,,26,,29,,,,*34
$GPGSV,3,1,13,10,43.0,215.0,36.0,14,60.0,357.0,37.0,15,6.0,141.0,17.0,16,22.0,263.0,27.0*4f
$GPGSV,3,1,13,10,43.0,215.0,36.0,14,60.0,357.0,37.0,15,6.0,141.0,24.0,16,22.0,263.0,26.0*4e
$GPGLL,0548.4006,S,03512.3708,W,203409,A*2b
$GPRMC,203409,A,0548.4006,S,03512.3708,W,1.6478893159440202,22.22,260116,,*2d
$GPGSV,3,2,13,18,33.0,171.0,36.0,21,36.0,142.0,31.0,22,30.0,264.0,34.0,24,7.0,94.0,14.0*7f
$GPGLL,0548.4004,S,03512.3706,W,203410,A*2f
$GPGSV,3,2,13,18,33.0,171.0,36.0,21,36.0,142.0,30.0,22,30.0,264.0,34.0,24,7.0,94.0,16.0*7c
$GPGSV,3,3,13,25,3.0,26.0,0.0,26,31.0,295.0,41.0,27,13.0,214.0,29.0,29,39.0,41.0,32.0*78
$GPGSA,A,3,10,14,15,16,18,21,22,24,,26,,29,,,,*34
$GPGSV,3,1,13,10,43.0,215.0,37.0,14,60.0,357.0,38.0,15,6.0,141.0,21.0,16,22.0,263.0,24.0*47
$GPGSV,3,2,13,18,33.0,171.0,36.0,21,36.0,142.0,30.0,22,30.0,264.0,34.0,24,7.0,94.0,17.0*7d
$GPGSV,3,2,13,18,33.0,171.0,36.0,21,36.0,142.0,30.0,22,30.0,264.0,34.0,24,7.0,94.0,17.0*7d
$GPGSV,3,1,13,10,43.0,215.0,36.0,14,60.0,357.0,38.0,15,6.0,141.0,20.0,16,22.0,263.0,25.0*46
$GPGGA,203414,0548.4004,S,03512.3706,W,1,11,2.1,31.6,M,,,,*27
$GPGLL,0548.4004,S,03512.3706,W,203414,A*2b
$GPRMC,203414,A,0548.4004,S,03512.3706,W,0.0,22.22,260116,,*1e
$GPGSA,A,3,10,14,15,16,18,21,22,,,26,,29,,,,*32
$GPGSV,3,1,13,10,43.0,215.0,36.0,14,60.0,357.0,38.0,15,6.0,141.0,19.0,16,22.0,263.0,26.0*4f
$GPGSV,3,1,13,10,43.0,215.0,36.0,14,60.0,357.0,37.0,15,6.0,141.0,19.0,16,22.0,263.0,25.0*43
$GPGLL,0548.4004,S,03512.3706,W,203416,A*29
$GPRMC,203416,A,0548.4004,S,03512.3706,W,0.0,22.22,260116,,*1c
$GPGGA,203417,0548.4004,S,03512.3706,W,1,11,2.0,31.6,M,,,,*25
$GPGLL,0548.4004,S,03512.3706,W,203417,A*28
$GPGSV,3,2,13,18,33.0,171.0,36.0,21,36.0,142.0,31.0,22,30.0,264.0,33.0,24,7.0,94.0,16.0*7a
$GPGSV,3,2,13,18,33.0,171.0,36.0,21,36.0,142.0,31.0,22,30.0,264.0,32.0,24,7.0,94.0,17.0*7a
$GPGSV,3,1,12,2,20.0,345.0,30.0,5,13.0,315.0,19.0,6,43.0,28.0,29.0,7,26.0,69.0,36.0*78
$GPGLL,0550.4954,S,03512.6275,W,102551,A*28
$GPRMC,102551,A,0550.4954,S,03512.6275,W,18.578026544302265,159.22,270116,,*13
$GPGSA,A,3,2,5,6,7,,,13,15,17,19,28,30,,,,*37
$GPGSV,3,1,12,2,20.0,345.0,31.0,5,13.0,315.0,20.0,6,43.0,28.0,28.0,7,26.0,69.0,37.0*73
$GPGLL,0550.4998,S,03512.6261,W,102552,A*2e
$GPGSV,3,2,12,9,4.0,29.0,17.0,12,1.0,267.0,0.0,13,51.0,243.0,44.0,15,13.0,230.0,14.0*4b
$GPGLL,0550.5081,S,03512.6243,W,102554,A*28
$GPGSV,3,2,12,9,4.0,29.0,15.0,12,1.0,267.0,0.0,13,51.0,243.0,44.0,15,13.0,230.0,16.0*4b
$GPGSV,3,3,12,17,55.0,169.0,42.0,19,64.0,173.0,30.0,28,21.0,157.0,28.0,30,46.0,100.0,31.0*7a
$GPGSA,A,3,2,5,6,7,,,13,15,17,19,28,30,,,,*37
$GPGSV,3,1,12,2,20.0,345.0,29.0,5,13.0,315.0,14.0,6,43.0,28.0,31.0,7,26.0,69.0,38.0*7a
$GPGLL,0550.5152,S,03512.6223,W,102556,A*23
$GPGSV,3,2,12,9,4.0,29.0,16.0,12,1.0,267.0,0.0,13,51.0,243.0,42.0,15,13.0,230.0,32.0*48
$GPRMC,155237,A,0550.6539,S,03512.5978,W,0.0,130.87,270116,,*24
$GPGSV,3,2,11,15,21.0,17.0,24.0,18,14.0,331.0,33.0,20,70.0,22.0,24.0,21,23.0,286.0,24.0*79
$GPGSV,3,1,11,2,10.0,146.0,23.0,5,43.0,122.0,22.0,12,72.0,107.0,23.0,13,9.0,53.0,21.0*76
$GPGGA,155239,0550.6539,S,03512.5978,W,1,10,2.8,62.6,M,,,,*21
$GPGLL,0550.6539,S,03512.5978,W,155239,A*23
$GPRMC,155239,A,0550.6539,S,03512.5978,W,0.0,130.87,270116,,*2a
$GPGSA,A,3,2,5,12,,15,18,20,21,24,25,29,,,,,*32
$GPGSV,3,1,11,2,10.0,146.0,26.0,5,43.0,122.0,23.0,12,72.0,107.0,21.0,13,9.0,53.0,19.0*7b
$GPGLL,0550.6539,S,03512.5978,W,155241,A*2c
$GPRMC,155241,A,0550.6539,S,03512.5978,W,0.0,130.87,270116,,*25
$GPGGA,155242,0550.6539,S,03512.5978,W,1,10,2.8,62.6,M,,,,*2d
$GPGLL,0550.6539,S,03512.5978,W,155242,A*2f
$GPRMC,155242,A,0550.6539,S,03512.5978,W,0.0,130.87,270116,,*26
$GPGSA,A,3,2,5,12,,15,18,20,21,24,25,29,,,,,*32
$GPGLL,0550.0782,S,03512.7415,W,202655,A*2c
$GPRMC,202655,A,0550.0782,S,03512.7415,W,19.627593120871133,171.44,260116,,*16
$GPGSA,A,3,10,14,,,18,21,22,,25,26,,29,,,,*36
$GPGSV,3,1,13,10,45.0,219.0,41.0,14,56.0,357.0,39.0,15,9.0,140.0,17.0,16,22.0,259.0,24.0*4a
$GPGSV,3,2,13,18,35.0,173.0,26.0,21,35.0,146.0,30.0,22,29.0,268.0,36.0,24,7.0,91.0,12.0*79
$GPGSV,3,3,13,25,5.0,24.0,17.0,26,31.0,291.0,27.0,27,10.0,214.0,0.0,29,42.0,44.0,32.0*7f
$GPGGA,202657,0550.0895,S,03512.7396,W,1,9,2.2,41.0,M,,,,*1c
$GPGSV,3,2,13,18,35.0,173.0,26.0,21,35.0,146.0,22.0,22,29.0,268.0,36.0,24,7.0,91.0,13.0*7b
$GPGSV,3,3,13,25,5.0,24.0,17.0,26,31.0,291.0,27.0,27,10.0,214.0,0.0,29,42.0,44.0,35.0*78
$GPGGA,202659,0550.1015,S,03512.7371,W,1,9,2.2,40.7,M,,,,*1c
$GPGLL,0550.1015,S,03512.7371,W,202659,A*2d
$GPGSV,3,2,13,18,35.0,173.0,27.0,21,35.0,146.0,21.0,22,29.0,268.0,36.0,24,7.0,91.0,14.0*7e
$GPGSV,3,3,13,25,5.0,24.0,17.0,26,31.0,291.0,28.0,27,10.0,214.0,0.0,29,42.0,44.0,36.0*74
$GPGSA,A,3,10,14,,,18,21,22,,25,26,,29,,,,*36
$GPGSV,3,1,12,1,1.0,129.0,0.0,2,16.0,342.0,22.0,5,13.0,310.0,37.0,6,39.0,23.0,28.0*44
$GPGSV,3,2,12,7,28.0,74.0,35.0,9,8.0,28.0,23.0,13,48.0,236.0,28.0,15,9.0,227.0,20.0*72
$GPGSV,3,3,12,17,61.0,170.0,32.0,19,70.0,174.0,28.0,28,22.0,162.0,31.0,30,46.0,108.0,40.0*7a
$GPGGA,101448,0550.6076,S,03511.7353,W,1,10,2.1,45.4,M,,,,*22
$GPGSV,3,1,12,1,1.0,129.0,0.0,2,16.0,342.0,24.0,5,13.0,310.0,37.0,6,39.0,23.0,30.0*4b
$GPGSV,3,2,12,7,28.0,74.0,34.0,9,8.0,28.0,23.0,13,48.0,236.0,29.0,15,9.0,227.0,19.0*78
$GPGSV,3,3,12,17,61.0,170.0,32.0,19,70.0,174.0,29.0,28,22.0,162.0,29.0,30,46.0,108.0,40.0*72
$GPGLL,0550.5748,S,03511.7176,W,101453,A*28
$GPGSV,3,2,12,7,28.0,74.0,34.0,9,8.0,28.0,19.0,13,48.0,236.0,29.0,15,9.0,227.0,19.0*71
$GPGSV,3,1,12,1,1.0,129.0,0.0,2,16.0,342.0,30.0,5,13.0,310.0,31.0,6,39.0,23.0,31.0*49
$GPGLL,0550.5619,S,03511.7106,W,101455,A*2c
$GPRMC,101455,A,0550.5619,S,03511.7106,W,25.118554868530705,27.96,270116,,*2b
$GPGSA,A,3,,2,5,6,7,9,13,,17,19,28,30,,,,*0a
$GPGSV,3,1,12,1,1.0,129.0,0.0,2,16.0,342.0,31.0,5,13.0,310.0,23.0,6,39.0,23.0,40.0*4d
$GPGLL,0550.5385,S,03512.1898,W,161752,A*25
$GPGSV,3,2,12,15,25.0,28.0,27.0,18,23.0,331.0,33.0,20,80.0,60.0,37.0,21,26.0,274.0,29.0*7b
$GPGSV,3,3,12,24,26.0,356.0,30.0,25,62.0,202.0,29.0,29,22.0,200.0,24.0,31,2.0,237.0,0.0*7a
$GPGSA,A,3,,5,12,13,15,18,20,21,24,25,29,,,,,*02
$GPGSV,3,1,12,2,3.0,140.0,0.0,5,35.0,133.0,29.0,12,70.0,64.0,28.0,13,10.0,64.0,17.0*7e
$GPGLL,0550.5330,S,03512.1931,W,161754,A*2f
$GPGSV,3,2,12,15,25.0,28.0,23.0,18,23.0,331.0,31.0,20,80.0,60.0,38.0,21,26.0,274.0,26.0*7d
$GPGLL,0550.5258,S,03512.1961,W,161756,A*27
$GPGSV,3,2,12,15,25.0,28.0,33.0,18,23.0,331.0,30.0,20,80.0,60.0,38.0,21,26.0,274.0,23.0*78
$GPGSV,3,1,12,2,3.0,140.0,0.0,5,35.0,133.0,30.0,12,70.0,64.0,30.0,13,10.0,64.0,15.0*7d
$GPGLL,0550.5167,S,03512.2010,W,161758,A*2a
$GPGSV,3,2,12,15,25.0,28.0,32.0,18,23.0,331.0,31.0,20,80.0,60.0,38.0,21,26.0,274.0,21.0*7a
$GPGSV,3,1,12,2,3.0,140.0,0.0,5,35.0,133.0,31.0,12,70.0,64.0,30.0,13,10.0,64.0,13.0*7a
$GPGLL,0550.5058,S,03512.2071,W,161800,A*22
$GPGSV,3,2,13,18,33.0,171.0,37.0,21,36.0,143.0,25.0,22,30.0,265.0,35.0,24,7.0,93.0,16.0*7f
$GPGSV,3,3,13,25,4.0,25.0,0.0,26,31.0,294.0,36.0,27,13.0,214.0,28.0,29,40.0,42.0,30.0*73
$GPGSA,A,3,10,14,15,16,18,21,22,,,26,,29,,,,*32
$GPGSV,3,1,13,10,44.0,216.0,27.0,14,59.0,357.0,37.0,15,7.0,141.0,20.0,16,22.0,262.0,22.0*40
$GPGLL,0548.7202,S,03512.4861,W,203306,A*21
$GPGSV,3,2,13,18,33.0,171.0,37.0,21,36.0,143.0,24.0,22,30.0,265.0,34.0,24,7.0,93.0,14.0*7d
$GPGSV,3,3,13,25,4.0,25.0,0.0,26,31.0,294.0,37.0,27,13.0,214.0,27.0,29,40.0,42.0,32.0*7f
$GPGLL,0548.7127,S,03512.4834,W,203308,A*2b
$GPGSV,3,2,13,18,33.0,171.0,38.0,21,36.0,143.0,24.0,22,30.0,265.0,35.0,24,7.0,93.0,16.0*71
$GPGSV,3,3,13,25,4.0,25.0,0.0,26,31.0,294.0,38.0,27,13.0,214.0,28.0,29,40.0,42.0,33.0*7e
$GPGSA,A,3,10,14,15,16,18,21,22,,,26,,29,,,,*32
$GPGSV,3,1,13,10,44.0,216.0,29.0,14,59.0,357.0,39.0,15,7.0,141.0,21.0,16,22.0,262.0,20.0*43
$GPGLL,0548.7046,S,03512.4804,W,203310,A*27
$GPGSV,3,2,13,18,33.0,171.0,37.0,21,36.0,143.0,22.0,22,30.0,265.0,37.0,24,7.0,93.0,13.0*7f
$GPGLL,0548.6960,S,03512.4775,W,203312,A*20
$GPRMC,203312,A,0548.6960,S,03512.4775,W,17.08822268818407,18.57,260116,,*16
$GPGSA,A,3,10,14,15,16,18,21,22,24,,26,,29,,,,*34
$GPGSV,3,1,13,10,43.0,215.0,33.0,14,59.0,357.0,38.0,15,7.0,141.0,19.0,16,22.0,262.0,29.0*4f
$GPGSV,3,1,13,10,43.0,215.0,25.0,14,59.0,357.0,38.0,15,7.0,141.0,18.0,16,22.0,262.0,27.0*47
$GPGGA,203314,0548.6867,S,03512.4742,W,1,11,2.3,44.3,M,,,,*2d
$GPGSV,3,1,13,10,43.0,215.0,32.0,14,60.0,357.0,38.0,15,7.0,141.0,20.0,16,22.0,262.0,27.0*40
$GPGSV,3,2,13,18,33.0,171.0,28.0,21,36.0,143.0,21.0,22,30.0,265.0,37.0,24,7.0,93.0,12.0*73
$GPGSV,3,3,13,25,4.0,25.0,0.0,26,31.0,294.0,37.0,27,13.0,214.0,29.0,29,40.0,42.0,31.0*72
$GPGGA,203315,0548.6821,S,03512.4724,W,1,10,2.3,44.3,M,,,,*2f
$GPRMC,203315,A,0548.6821,S,03512.4724,W,18.057744269222137,20.19,260116,,*2e
$GPGSA,A,3,10,14,15,16,18,21,22,24,,26,,29,,,,*34
$GPGLL,0548.6774,S,03512.4707,W,203316,A*2a
$GPRMC,203316,A,0548.6774,S,03512.4707,W,18.07375363908721,18.27,260116,,*1f
