$GPGSV,3,2,12,18,29.0,166.0,40.0,21,37.0,135.0,32.0,22,23.0,270.0,24.0,24,6.0,99.0,20.0*7d
$GPGSV,3,3,12,26,29.0,301.0,37.0,27,18.0,215.0,23.0,29,34.0,37.0,27.0,31,12.0,346.0,22.0*45
$GPGSA,A,3,10,14,,16,18,21,22,,26,27,29,31,,,,*31
$GPGSV,3,1,12,10,41.0,208.0,41.0,14,66.0,358.0,36.0,15,3.0,142.0,0.0,16,22.0,268.0,34.0*71
$GPGLL,0543.9950,S,03515.0399,W,192758,A*23
$GPRMC,192758,A,0543.9950,S,03515.0399,W,13.826461881740427,201.85,140216,,*14
$GPGSA,A,3,10,14,,16,18,21,22,,26,27,29,31,,,,*31
$GPGSV,3,2,12,18,29.0,166.0,40.0,21,37.0,135.0,33.0,22,23.0,270.0,28.0,24,6.0,99.0,18.0*7b
$GPGSV,3,3,12,26,29.0,301.0,38.0,27,18.0,215.0,31.0,29,34.0,37.0,25.0,31,12.0,346.0,37.0*4f
$GPGGA,192800,0544.0016,S,03515.0432,W,1,10,2.4,46.8,M,,,,*24
$GPGLL,0544.0016,S,03515.0432,W,192800,A*22
$GPRMC,192800,A,0544.0016,S,03515.0432,W,13.138090492049846,211.76,140216,,*1f
$GPGSA,A,3,10,14,,16,18,21,22,,26,27,29,31,,,,*31
$GPGSV,3,1,12,10,41.0,208.0,38.0,14,66.0,358.0,40.0,15,3.0,142.0,0.0,16,22.0,268.0,31.0*7b
$GPGLL,0544.0078,S,03515.0473,W,192802,A*2d
$GPRMC,192802,A,0544.0078,S,03515.0473,W,13.118079706615786,212.12,140216,,*16
$GPGSV,3,2,12,18,29.0,166.0,29.0,21,37.0,135.0,34.0,22,23.0,270.0,31.0,24,6.0,99.0,19.0*7a
$GPGSV,3,3,12,26,29.0,301.0,35.0,27,18.0,215.0,29.0,29,34.0,37.0,26.0,31,12.0,346.0,38.0*47
$GPGGA,192803,0544.0109,S,03515.0492,W,1,10,2.3,45.7,M,,,,*29
$GPGLL,0544.0109,S,03515.0492,W,192803,A*24
$GPRMC,192803,A,0544.0109,S,03515.0492,W,13.155099057185565,211.66,140216,,*1a
$GPGSV,3,2,12,18,29.0,166.0,32.0,21,37.0,135.0,22.0,22,23.0,270.0,31.0,24,6.0,99.0,19.0*77
$GPGSV,3,3,12,26,29.0,301.0,34.0,27,18.0,215.0,29.0,29,34.0,37.0,27.0,31,12.0,346.0,39.0*46
$GPGSV,3,1,12,10,41.0,208.0,35.0,14,66.0,358.0,41.0,15,3.0,142.0,0.0,16,22.0,268.0,31.0*77
$GPGSV,3,2,12,18,29.0,166.0,34.0,21,37.0,135.0,31.0,22,23.0,270.0,31.0,24,6.0,99.0,18.0*72
$GPGSV,3,3,12,26,29.0,301.0,34.0,27,18.0,215.0,29.0,29,34.0,37.0,28.0,31,12.0,346.0,38.0*48
$GPGLL,0544.0167,S,03515.0529,W,192805,A*2b
$GPRMC,192805,A,0544.0167,S,03515.0529,W,11.763347957004537,211.24,140216,,*14
$GPGSV,3,2,12,18,28.0,165.0,19.0,21,37.0,133.0,34.0,22,23.0,268.0,36.0,24,6.0,101.0,18.0*42
$GPGSV,3,1,12,10,40.0,206.0,24.0,14,68.0,358.0,29.0,15,2.0,143.0,0.0,16,22.0,270.0,34.0*74
$GPGLL,0545.2596,S,03514.5090,W,193232,A*2e
$GPGSV,3,2,12,18,28.0,165.0,22.0,21,37.0,133.0,29.0,22,23.0,268.0,24.0,24,6.0,101.0,19.0*44
$GPGSV,3,3,12,26,29.0,303.0,24.0,27,20.0,215.0,32.0,29,32.0,36.0,26.0,31,13.0,348.0,18.0*4e
$GPGSA,A,3,10,14,,16,18,21,22,,26,27,29,31,,,,*31
$GPGSV,3,1,12,10,40.0,205.0,33.0,14,68.0,358.0,29.0,15,2.0,143.0,0.0,16,22.0,270.0,23.0*77
$GPGGA,193234,0545.2705,S,03514.5023,W,1,10,2.3,45.1,M,,,,*23
$GPGLL,0545.2705,S,03514.5023,W,193234,A*28
$GPGSV,3,2,12,18,28.0,165.0,23.0,21,37.0,133.0,30.0,22,23.0,268.0,35.0,24,6.0,101.0,19.0*4d
$GPGSV,3,3,12,26,29.0,303.0,40.0,27,20.0,215.0,33.0,29,32.0,36.0,25.0,31,13.0,348.0,18.0*4e
$GPGSA,A,3,10,14,,16,18,21,22,,26,27,29,31,,,,*31
$GPGSV,3,1,12,10,40.0,205.0,34.0,14,68.0,358.0,30.0,15,2.0,143.0,0.0,16,22.0,270.0,32.0*78
$GPGLL,0545.2806,S,03514.4966,W,193236,A*2f
$GPGSV,3,2,12,18,28.0,165.0,24.0,21,37.0,133.0,30.0,22,23.0,268.0,34.0,24,6.0,101.0,17.0*45
$GPGSV,3,3,12,26,29.0,303.0,39.0,27,20.0,215.0,28.0,29,32.0,36.0,24.0,31,13.0,348.0,19.0*4a
$GPGSA,A,3,10,14,,16,18,21,22,,26,27,29,31,,,,*31
$GPGSV,3,1,12,10,40.0,205.0,35.0,14,69.0,359.0,32.0,15,2.0,143.0,0.0,16,22.0,270.0,30.0*79
$GPGLL,0545.2893,S,03514.4915,W,193238,A*29
$GPGSV,3,2,12,18,28.0,165.0,27.0,21,37.0,133.0,31.0,22,23.0,268.0,34.0,24,6.0,101.0,15.0*45
$GPGSV,3,3,12,26,29.0,303.0,39.0,27,20.0,215.0,35.0,29,32.0,36.0,25.0,31,13.0,348.0,19.0*47
$GPGLL,0545.2963,S,03514.4875,W,193240,A*2f
$GPRMC,193240,A,0545.2963,S,03514.4875,W,13.512291901597585,151.48,140216,,*14
$GPGSA,A,3,10,14,,16,18,21,22,,26,27,29,31,,,,*31
$GPGSV,3,1,12,10,40.0,205.0,36.0,14,69.0,359.0,32.0,15,1.0,143.0,0.0,16,22.0,271.0,31.0*79
$GPGSV,3,1,12,10,40.0,205.0,36.0,14,69.0,359.0,32.0,15,1.0,143.0,0.0,16,22.0,271.0,31.0*79
$GPGSV,3,2,12,18,28.0,164.0,26.0,21,37.0,133.0,29.0,22,23.0,268.0,35.0,24,6.0,101.0,16.0*4e
$GPGSV,3,3,12,26,29.0,303.0,37.0,27,20.0,215.0,35.0,29,32.0,36.0,25.0,31,13.0,348.0,19.0*49
