$GPGSV,3,1,13,10,51.0,269.0,16.0,14,26.0,349.0,0.0,15,29.0,123.0,38.0,16,11.0,229.0,27.0*46
$GPGGA,194400,0548.7527,S,03512.3048,W,1,9,3.0,59.9,M,,,,*1d
$GPGLL,0548.7527,S,03512.3048,W,194400,A*29
$GPRMC,194400,A,0548.7527,S,03512.3048,W,0.0,185.35,200116,,*20
$GPGSA,A,3,10,,15,16,18,20,21,,,25,26,29,,,,*32
$GPGSV,3,1,13,10,51.0,269.0,15.0,14,26.0,349.0,0.0,15,29.0,123.0,38.0,16,11.0,230.0,28.0*42
$GPGLL,0548.7525,S,03512.3048,W,194401,A*2a
$GPGSV,3,1,13,10,51.0,269.0,15.0,14,26.0,349.0,20.0,15,29.0,123.0,38.0,16,11.0,230.0,29.0*71
$GPGSV,3,2,13,18,58.0,208.0,33.0,20,14.0,148.0,18.0,21,30.0,181.0,35.0,22,21.0,298.0,0.0*49
$GPGSV,3,3,13,24,5.0,62.0,0.0,25,27.0,6.0,30.0,26,31.0,252.0,35.0,29,59.0,94.0,30.0*77
$GPGGA,194403,0548.7525,S,03512.3048,W,1,9,2.6,59.8,M,,,,*1a
$GPGLL,0548.7525,S,03512.3048,W,194403,A*28
$GPGSV,3,2,13,18,57.0,206.0,33.0,20,14.0,148.0,19.0,21,30.0,181.0,35.0,22,21.0,298.0,0.0*49
$GPGSV,3,2,13,18,57.0,206.0,33.0,20,14.0,148.0,19.0,21,30.0,181.0,35.0,22,21.0,298.0,0.0*49
$GPGSV,3,2,13,18,57.0,206.0,36.0,20,13.0,148.0,16.0,21,30.0,180.0,34.0,22,21.0,297.0,0.0*4b
$GPGSV,3,2,13,18,57.0,206.0,36.0,20,13.0,148.0,16.0,21,30.0,180.0,34.0,22,21.0,297.0,0.0*4b
$GPGSV,3,3,13,24,6.0,62.0,0.0,25,26.0,7.0,31.0,26,31.0,253.0,31.0,29,59.0,92.0,24.0*73
$GPGGA,194417,0548.7525,S,03512.3048,W,1,9,2.2,59.8,M,,,,*1b
$GPGLL,0548.7525,S,03512.3048,W,194417,A*2d
$GPGSV,3,2,13,18,57.0,206.0,36.0,20,13.0,148.0,17.0,21,30.0,180.0,33.0,22,21.0,297.0,0.0*4d
$GPGSV,3,1,13,10,51.0,269.0,16.0,14,26.0,349.0,22.0,15,29.0,123.0,39.0,16,11.0,230.0,31.0*78
$GPGSV,3,1,13,10,51.0,269.0,16.0,14,26.0,349.0,22.0,15,29.0,123.0,38.0,16,11.0,230.0,30.0*78
$GPGLL,0548.7525,S,03512.3048,W,194419,A*23
$GPGSV,3,1,13,10,51.0,269.0,17.0,14,26.0,349.0,22.0,15,29.0,123.0,39.0,16,11.0,230.0,30.0*78
$GPGLL,0548.7525,S,03512.3048,W,194420,A*29
$GPRMC,194420,A,0548.7525,S,03512.3048,W,0.0,185.35,200116,,*20
$GPGSA,A,3,10,,15,16,18,20,21,,,25,26,29,,,,*32
$GPGSV,3,1,13,10,51.0,269.0,18.0,14,26.0,349.0,22.0,15,29.0,123.0,39.0,16,11.0,230.0,30.0*77
$GPGLL,0548.7790,S,03512.3119,W,194442,A*24
$GPRMC,194442,A,0548.7790,S,03512.3119,W,11.886414889907241,200.83,200116,,*19
$GPGSA,A,3,10,,15,16,18,20,21,22,,25,26,29,,,,*32
$GPGSV,3,1,13,10,51.0,269.0,39.0,14,26.0,349.0,37.0,15,29.0,123.0,36.0,16,11.0,230.0,20.0*7e
$GPGLL,0548.7858,S,03512.3141,W,194444,A*24
$GPGSV,3,2,13,18,57.0,206.0,37.0,20,13.0,148.0,22.0,21,30.0,180.0,32.0,22,21.0,297.0,27.0*7e
$GPGSV,3,1,13,10,51.0,269.0,29.0,14,26.0,349.0,37.0,15,29.0,123.0,36.0,16,11.0,230.0,20.0*7f
$GPGLL,0548.7895,S,03512.3155,W,194445,A*21
$GPGSV,3,2,13,18,57.0,206.0,38.0,20,13.0,148.0,22.0,21,30.0,180.0,31.0,22,21.0,297.0,28.0*7d
$GPGSV,3,3,13,24,6.0,62.0,0.0,25,26.0,7.0,24.0,26,31.0,253.0,26.0,29,59.0,92.0,37.0*73
$GPGSA,A,3,10,,15,16,18,20,21,22,,25,26,29,,,,*32
$GPGSV,3,1,13,10,51.0,269.0,36.0,14,26.0,349.0,37.0,15,29.0,123.0,35.0,16,11.0,230.0,21.0*73
$GPGSV,3,2,13,18,57.0,206.0,38.0,20,13.0,148.0,23.0,21,30.0,180.0,30.0,22,21.0,297.0,26.0*73
$GPGLL,0548.7983,S,03512.3186,W,194447,A*2b
$GPGSV,3,2,13,18,57.0,206.0,37.0,20,13.0,148.0,22.0,21,30.0,180.0,29.0,22,21.0,297.0,27.0*74
$GPGSV,3,3,13,24,6.0,62.0,0.0,25,26.0,7.0,27.0,26,31.0,253.0,32.0,29,59.0,92.0,36.0*74
$GPGSA,A,3,10,,15,16,18,20,21,22,,25,26,29,,,,*32
$GPGSV,3,1,13,10,51.0,269.0,35.0,14,26.0,349.0,37.0,15,29.0,123.0,34.0,16,11.0,230.0,28.0*78
$GPGLL,0548.8078,S,03512.3217,W,194449,A*2c
$GPGSV,3,2,13,18,57.0,206.0,39.0,20,13.0,148.0,21.0,21,30.0,180.0,28.0,22,21.0,297.0,38.0*76
$GPGSV,3,1,13,10,51.0,269.0,36.0,14,26.0,349.0,37.0,15,29.0,123.0,35.0,16,11.0,230.0,25.0*77
$GPGSV,3,2,13,18,57.0,206.0,40.0,20,13.0,148.0,21.0,21,30.0,180.0,29.0,22,21.0,297.0,37.0*76
$GPGSV,3,3,13,24,6.0,62.0,0.0,25,26.0,7.0,27.0,26,31.0,253.0,19.0,29,59.0,92.0,35.0*7e
$GPGGA,194451,0548.8176,S,03512.3252,W,1,10,2.4,60.2,M,,,,*23
$GPGLL,0548.8176,S,03512.3252,W,194451,A*2b
$GPRMC,194451,A,0548.8176,S,03512.3252,W,19.139329585521153,200.58,200116,,*15
$GPGSA,A,3,10,,15,16,18,20,21,22,,25,26,29,,,,*32
$GPGSV,3,1,13,10,51.0,269.0,35.0,14,26.0,349.0,37.0,15,29.0,123.0,36.0,16,11.0,230.0,25.0*77
