$GPGSV,3,2,13,18,58.0,208.0,0.0,20,14.0,148.0,25.0,21,30.0,181.0,0.0,22,21.0,298.0,0.0*41
$GPGSV,3,2,13,18,58.0,208.0,0.0,20,14.0,148.0,28.0,21,30.0,181.0,0.0,22,21.0,298.0,0.0*4c
$GPRMC,193945,A,0548.7179,S,03512.4077,W,4.12522633695793,337.87,200116,,*1e
$GPGSA,A,1,,,,,,,,,,,,,,,,*32
$GPGSV,3,3,13,24,5.0,62.0,0.0,25,27.0,6.0,0.0,26,31.0,252.0,0.0,29,59.0,94.0,35.0*77
$GPGSA,A,1,,,,,,,,,,,,,,,,*32
$GPGSV,3,1,13,10,50.0,270.0,0.0,14,26.0,348.0,0.0,15,30.0,122.0,36.0,16,11.0,229.0,0.0*4b
$GPGSV,3,3,13,24,5.0,62.0,0.0,25,27.0,6.0,0.0,26,31.0,252.0,0.0,29,59.0,94.0,40.0*75
$GPGSA,A,1,,,,,,,,,,,,,,,,*32
$GPGSV,3,1,13,10,50.0,270.0,0.0,14,26.0,348.0,0.0,15,30.0,122.0,35.0,16,11.0,229.0,0.0*48
$GPGSV,3,2,13,18,58.0,208.0,33.0,20,14.0,148.0,29.0,21,30.0,181.0,23.0,22,21.0,298.0,0.0*4c
$GPGSV,3,1,13,10,50.0,270.0,0.0,14,26.0,348.0,0.0,15,30.0,122.0,35.0,16,11.0,229.0,0.0*48
$GPGSV,3,2,13,18,58.0,208.0,32.0,20,14.0,148.0,32.0,21,30.0,181.0,37.0,22,21.0,298.0,0.0*42
$GPGSV,3,3,13,24,5.0,62.0,0.0,25,27.0,6.0,0.0,26,31.0,252.0,0.0,29,59.0,94.0,38.0*7a
$GPGSV,3,1,13,10,51.0,269.0,33.0,14,26.0,349.0,38.0,15,29.0,123.0,35.0,16,11.0,230.0,33.0*7a
$GPGSV,3,2,13,18,57.0,206.0,41.0,20,13.0,148.0,17.0,21,30.0,180.0,29.0,22,21.0,297.0,20.0*74
$GPGSV,3,3,13,24,6.0,62.0,19.0,25,26.0,7.0,26.0,26,31.0,253.0,32.0,29,59.0,92.0,37.0*4c
$GPGGA,194513,0548.9124,S,03512.3595,W,1,11,2.5,66.1,M,,,,*2b
$GPGLL,0548.9124,S,03512.3595,W,194513,A*26
$GPRMC,194513,A,0548.9124,S,03512.3595,W,14.325731395424004,198.45,200116,,*19
$GPGSA,A,3,10,,15,16,18,20,21,22,24,25,26,29,,,,*34
$GPGLL,0548.9163,S,03512.3608,W,194514,A*25
$GPRMC,194514,A,0548.9163,S,03512.3608,W,14.120620149551925,200.27,200116,,*10
$GPGSA,A,3,10,,15,16,18,20,21,22,24,25,26,29,,,,*34
$GPGSV,3,1,13,10,51.0,269.0,33.0,14,26.0,349.0,38.0,15,29.0,123.0,36.0,16,11.0,230.0,19.0*71
$GPGSV,3,2,13,18,57.0,206.0,40.0,20,13.0,148.0,17.0,21,30.0,180.0,30.0,22,21.0,297.0,40.0*7b
$GPGSV,3,3,13,24,6.0,62.0,19.0,25,26.0,7.0,26.0,26,31.0,253.0,31.0,29,59.0,92.0,36.0*4e
$GPGGA,194516,0548.9240,S,03512.3637,W,1,11,2.5,66.5,M,,,,*20
$GPGSV,3,2,13,18,57.0,206.0,40.0,20,13.0,148.0,17.0,21,30.0,180.0,30.0,22,21.0,297.0,40.0*7b
$GPGSV,3,2,13,18,57.0,206.0,40.0,20,13.0,148.0,18.0,21,30.0,180.0,30.0,22,21.0,297.0,40.0*74
$GPGLL,0548.9321,S,03512.3665,W,194518,A*26
$GPGSV,3,2,13,18,57.0,206.0,39.0,20,13.0,148.0,20.0,21,30.0,180.0,31.0,22,21.0,297.0,39.0*7e
$GPGSV,3,3,13,24,6.0,62.0,17.0,25,26.0,7.0,24.0,26,31.0,253.0,29.0,29,59.0,92.0,38.0*45
$GPGSV,3,2,13,18,57.0,206.0,38.0,20,13.0,148.0,29.0,21,30.0,180.0,31.0,22,21.0,297.0,21.0*7f
$GPGSV,3,3,13,24,6.0,62.0,17.0,25,26.0,7.0,33.0,26,31.0,253.0,30.0,29,59.0,92.0,38.0*4b
$GPGLL,0548.9406,S,03512.3694,W,194520,A*21
$GPRMC,194520,A,0548.9406,S,03512.3694,W,16.742035822105645,200.19,200116,,*13
$GPGSA,A,3,10,,15,16,18,20,21,22,,25,26,29,,,,*32
$GPGSV,3,1,13,10,51.0,269.0,36.0,14,26.0,349.0,36.0,15,29.0,123.0,38.0,16,11.0,230.0,17.0*7a
$GPGSV,3,1,13,10,51.0,269.0,36.0,14,26.0,349.0,37.0,15,29.0,123.0,38.0,16,11.0,230.0,16.0*7a
$GPGLL,0548.9489,S,03512.3727,W,194522,A*2d
$GPRMC,194522,A,0548.9489,S,03512.3727,W,17.26431648772706,200.21,200116,,*22
$GPGLL,0549.2623,S,03512.4899,W,194701,A*2b
$GPGSV,3,2,13,18,57.0,205.0,40.0,20,12.0,147.0,16.0,21,30.0,179.0,33.0,22,22.0,296.0,0.0*44
$GPGSV,3,3,13,24,6.0,63.0,0.0,25,26.0,7.0,32.0,26,32.0,254.0,23.0,29,59.0,90.0,41.0*77
$GPGSA,A,3,10,14,15,16,18,20,21,,,25,26,29,,,,*37
$GPGSV,3,1,13,10,51.0,267.0,36.0,14,27.0,349.0,32.0,15,29.0,124.0,36.0,16,12.0,230.0,21.0*7e
$GPGLL,0549.2717,S,03512.4933,W,194703,A*2e
$GPRMC,194703,A,0549.2717,S,03512.4933,W,17.87964837154873,199.92,200116,,*25
$GPGLL,0549.2816,S,03512.4971,W,194705,A*20
$GPGSV,3,2,13,18,57.0,205.0,40.0,20,12.0,147.0,23.0,21,30.0,179.0,30.0,22,22.0,296.0,0.0*41
$GPGSV,3,3,13,24,6.0,63.0,0.0,25,26.0,7.0,27.0,26,32.0,254.0,25.0,29,59.0,90.0,41.0*75
$GPGSA,A,3,10,14,15,16,18,20,21,,,25,26,29,,,,*37
$GPGSV,3,1,13,10,51.0,267.0,39.0,14,27.0,349.0,39.0,15,29.0,124.0,38.0,16,12.0,230.0,32.0*76
$GPGLL,0549.2926,S,03512.5014,W,194707,A*2b
$GPGSV,3,2,13,18,57.0,205.0,31.0,20,12.0,147.0,32.0,21,30.0,179.0,30.0,22,22.0,296.0,0.0*47
