$GPGSV,3,1,12,2,46.0,355.0,31.0,5,13.0,341.0,33.0,6,61.0,76.0,39.0,7,9.0,45.0,23.0*4c
$GPGLL,0552.2218,S,03510.8788,W,103418,A*29
$GPGSV,3,1,12,2,46.0,355.0,32.0,5,13.0,341.0,33.0,6,61.0,76.0,38.0,7,9.0,45.0,23.0*4e
$GPGLL,0552.2172,S,03510.8810,W,103419,A*29
$GPGSV,3,2,12,12,4.0,240.0,0.0,13,52.0,298.0,36.0,15,25.0,256.0,35.0,17,26.0,160.0,27.0*7d
$GPGSV,3,1,12,2,46.0,355.0,34.0,5,13.0,341.0,34.0,6,61.0,76.0,37.0,7,9.0,45.0,22.0*41
$GPGLL,0552.2078,S,03510.8856,W,103421,A*2b
$GPGSV,3,1,12,2,46.0,355.0,34.0,5,13.0,341.0,34.0,6,61.0,76.0,37.0,7,9.0,45.0,21.0*42
$GPGLL,0552.1980,S,03510.8903,W,103423,A*25
$GPGSV,3,1,12,2,46.0,355.0,34.0,5,13.0,341.0,34.0,6,61.0,76.0,36.0,7,9.0,45.0,21.0*43
$GPGLL,0552.1930,S,03510.8928,W,103424,A*20
$GPGSV,3,2,12,12,4.0,240.0,15.0,13,52.0,298.0,32.0,15,25.0,256.0,31.0,17,26.0,160.0,27.0*49
$GPGSV,3,1,12,2,46.0,355.0,34.0,5,13.0,341.0,34.0,6,61.0,76.0,35.0,7,9.0,45.0,23.0*42
$GPGLL,0552.1826,S,03510.8977,W,103426,A*2e
$GPGSV,3,2,12,12,4.0,240.0,19.0,13,52.0,298.0,33.0,15,25.0,256.0,32.0,17,26.0,160.0,25.0*45
$GPGSV,3,1,12,2,46.0,355.0,34.0,5,13.0,341.0,33.0,6,61.0,76.0,33.0,7,9.0,45.0,26.0*46
$GPGLL,0552.1744,S,03510.9015,W,103428,A*27
$GPGSV,3,1,12,2,46.0,355.0,33.0,5,13.0,341.0,32.0,6,61.0,76.0,32.0,7,9.0,45.0,26.0*41
$GPGSV,3,1,12,2,46.0,355.0,32.0,5,13.0,341.0,32.0,6,61.0,76.0,32.0,7,9.0,45.0,24.0*42
$GPGGA,103430,0552.1681,S,03510.9046,W,1,10,1.9,52.4,M,,,,*21
$GPGSV,3,1,12,2,46.0,355.0,32.0,5,13.0,341.0,32.0,6,61.0,76.0,33.0,7,9.0,45.0,24.0*43
$GPGLL,0552.1649,S,03510.9062,W,103431,A*23
$GPGSV,3,1,12,2,46.0,355.0,34.0,5,13.0,341.0,31.0,6,61.0,76.0,34.0,7,9.0,45.0,23.0*46
$GPGLL,0552.1616,S,03510.9078,W,103432,A*21
$GPGSV,3,2,12,12,4.0,240.0,26.0,13,52.0,298.0,34.0,15,25.0,256.0,35.0,17,26.0,160.0,31.0*4c
$GPGSV,3,1,12,2,46.0,355.0,34.0,5,13.0,341.0,33.0,6,61.0,76.0,35.0,7,9.0,45.0,23.0*45
$GPGLL,0552.1545,S,03510.9113,W,103434,A*2e
$GPGSV,3,1,12,2,46.0,355.0,34.0,5,13.0,341.0,33.0,6,61.0,76.0,36.0,7,9.0,45.0,22.0*47
$GPGLL,0551.9493,S,03511.0926,W,103646,A*2e
$GPGSV,3,1,12,2,47.0,355.0,32.0,5,13.0,342.0,16.0,6,61.0,78.0,42.0,7,8.0,44.0,13.0*4b
$GPGSV,3,1,12,2,47.0,355.0,32.0,5,13.0,342.0,16.0,6,61.0,78.0,42.0,7,8.0,44.0,13.0*4b
$GPGGA,103648,0551.9474,S,03511.0957,W,1,11,2.5,40.8,M,,,,*2f
$GPGSV,3,1,12,2,47.0,355.0,34.0,5,13.0,342.0,13.0,6,61.0,78.0,42.0,7,8.0,44.0,13.0*48
$GPGLL,0551.9459,S,03511.0982,W,103649,A*29
$GPGSV,3,1,12,2,47.0,355.0,35.0,5,13.0,342.0,14.0,6,61.0,78.0,42.0,7,8.0,44.0,0.0*7c
$GPGLL,0551.9443,S,03511.1011,W,103650,A*28
$GPGSV,3,2,12,12,5.0,239.0,13.0,13,52.0,299.0,35.0,15,25.0,257.0,32.0,17,25.0,159.0,30.0*4b
$GPGSV,3,1,12,2,47.0,355.0,36.0,5,13.0,342.0,15.0,6,61.0,78.0,42.0,7,8.0,44.0,0.0*7e
$GPGLL,0551.9407,S,03511.1077,W,103652,A*2a
$GPGSV,3,1,12,2,47.0,355.0,35.0,5,13.0,342.0,14.0,6,61.0,78.0,41.0,7,8.0,44.0,17.0*49
$GPGSV,3,1,12,2,47.0,355.0,33.0,5,13.0,342.0,14.0,6,61.0,78.0,42.0,7,8.0,44.0,17.0*4c
$GPGGA,103654,0551.9366,S,03511.1152,W,1,11,3.4,40.2,M,,,,*20
$GPGSV,3,1,12,2,47.0,355.0,32.0,5,13.0,342.0,15.0,6,61.0,78.0,42.0,7,8.0,44.0,17.0*4c
$GPGLL,0551.9348,S,03511.1193,W,103655,A*2a
$GPGSV,3,1,12,2,47.0,355.0,31.0,5,13.0,342.0,15.0,6,61.0,78.0,42.0,7,8.0,44.0,17.0*4f
$GPGLL,0551.9329,S,03511.1233,W,103656,A*27
$GPGSV,3,2,12,12,5.0,239.0,15.0,13,52.0,299.0,32.0,15,25.0,257.0,34.0,17,25.0,159.0,29.0*44
$GPGSV,3,1,12,2,47.0,355.0,34.0,5,13.0,342.0,17.0,6,61.0,78.0,41.0,7,8.0,44.0,16.0*4a
$GPGLL,0551.9285,S,03511.1317,W,103658,A*29
$GPGSV,3,1,12,2,47.0,355.0,36.0,5,13.0,342.0,19.0,6,61.0,78.0,41.0,7,8.0,44.0,13.0*43
$GPGGA,103700,0551.9237,S,03511.1410,W,1,11,2.8,39.8,M,,,,*2f
$GPGSV,3,1,12,2,47.0,355.0,36.0,5,13.0,342.0,17.0,6,61.0,78.0,41.0,7,8.0,44.0,13.0*4d
$GPGLL,0551.9211,S,03511.1460,W,103701,A*2e
$GPGSV,3,1,12,2,47.0,355.0,37.0,5,13.0,342.0,17.0,6,61.0,78.0,41.0,7,8.0,44.0,13.0*4c
$GPGLL,0551.9183,S,03511.1513,W,103702,A*20
$GPGSV,3,2,12,12,5.0,239.0,13.0,13,52.0,299.0,29.0,15,25.0,257.0,29.0,17,25.0,159.0,31.0*4d
$GPGSV,3,1,12,2,50.0,356.0,11.0,5,14.0,345.0,14.0,6,61.0,87.0,14.0,7,6.0,43.0,17.0*43
$GPGSV,3,3,12,19,39.0,171.0,15.0,24,13.0,212.0,22.0,28,15.0,122.0,13.0,30,33.0,55.0,17.0*46
$GPGGA,104400,0550.2097,S,03512.7040,W,1,10,4.6,44.9,M,,,,*2f
$GPGSV,3,1,12,2,50.0,356.0,14.0,5,14.0,345.0,14.0,6,61.0,87.0,13.0,7,6.0,43.0,16.0*40
$GPGLL,0550.2125,S,03512.7052,W,104401,A*24
$GPGSV,3,1,12,2,50.0,356.0,28.0,5,14.0,345.0,18.0,6,61.0,87.0,16.0,7,6.0,43.0,15.0*45
$GPGLL,0550.2154,S,03512.7057,W,104402,A*24
$GPGSV,3,2,12,12,5.0,236.0,0.0,13,50.0,305.0,34.0,15,26.0,261.0,32.0,17,22.0,158.0,24.0*74
$GPGSV,3,1,12,2,50.0,356.0,34.0,5,14.0,345.0,22.0,6,61.0,87.0,14.0,7,6.0,43.0,13.0*45
$GPGLL,0550.2147,S,03512.7055,W,104404,A*22
$GPGSV,3,2,12,12,5.0,236.0,0.0,13,50.0,305.0,35.0,15,26.0,261.0,32.0,17,22.0,158.0,34.0*74
$GPGSV,3,3,12,19,39.0,171.0,39.0,24,13.0,212.0,27.0,28,15.0,122.0,13.0,30,33.0,55.0,15.0*4f
$GPGSA,A,3,2,5,6,,,13,15,17,19,24,28,30,,,,*06
$GPGSV,3,1,12,2,50.0,356.0,35.0,5,14.0,345.0,26.0,6,61.0,87.0,39.0,7,6.0,43.0,13.0*4f
$GPGLL,0550.2154,S,03512.7070,W,104406,A*25
$GPGSV,3,2,12,12,5.0,236.0,0.0,13,50.0,305.0,35.0,15,26.0,261.0,31.0,17,22.0,158.0,27.0*75
$GPGSV,3,1,12,2,50.0,356.0,30.0,5,14.0,345.0,30.0,6,61.0,87.0,31.0,7,6.0,43.0,15.0*43
$GPGLL,0550.2187,S,03512.7079,W,104408,A*2c
$GPGSV,3,2,12,12,5.0,236.0,0.0,13,50.0,305.0,43.0,15,26.0,261.0,32.0,17,22.0,158.0,37.0*76
$GPGSV,3,1,12,2,50.0,356.0,32.0,5,14.0,345.0,29.0,6,61.0,87.0,40.0,7,6.0,43.0,16.0*4c
$GPGLL,0550.2242,S,03512.7069,W,104410,A*2e
$GPGSV,3,2,12,12,5.0,236.0,0.0,13,50.0,305.0,34.0,15,26.0,261.0,30.0,17,22.0,158.0,22.0*70
$GPGSV,3,3,12,19,39.0,171.0,31.0,24,13.0,212.0,17.0,28,15.0,122.0,17.0,30,33.0,55.0,37.0*40
$GPGSA,A,3,2,5,6,,,13,15,17,19,24,28,30,,,,*06
$GPGSV,3,1,12,2,50.0,356.0,35.0,5,14.0,345.0,22.0,6,61.0,87.0,41.0,7,6.0,43.0,16.0*41
$GPGLL,0550.2315,S,03512.7046,W,104412,A*22
$GPGSV,3,2,12,12,5.0,236.0,0.0,13,50.0,305.0,32.0,15,26.0,261.0,28.0,17,22.0,158.0,25.0*78
$GPGSV,3,1,12,2,50.0,356.0,36.0,5,14.0,345.0,23.0,6,61.0,87.0,41.0,7,6.0,43.0,16.0*43
