$GPGSV,3,1,11,2,25.0,347.0,27.0,5,13.0,321.0,11.0,6,48.0,35.0,32.0,7,23.0,62.0,28.0*79
$GPGLL,0548.0381,S,03512.0461,W,100328,A*28
$GPRMC,100328,A,0548.0381,S,03512.0461,W,23.94692333502162,199.48,050216,,*22
$GPGSA,A,3,2,5,6,7,,13,15,17,19,28,30,,,,,*37
$GPGSV,3,1,11,2,25.0,347.0,35.0,5,13.0,321.0,13.0,6,48.0,35.0,31.0,7,23.0,62.0,26.0*75
$GPGLL,0548.0443,S,03512.0485,W,100329,A*2a
$GPGSV,3,2,11,12,1.0,261.0,0.0,13,53.0,253.0,38.0,15,16.0,234.0,17.0,17,48.0,168.0,24.0*77
$GPGSV,3,2,11,12,1.0,261.0,0.0,13,53.0,253.0,38.0,15,16.0,234.0,17.0,17,48.0,168.0,23.0*70
$GPGSV,3,3,11,19,63.0,180.0,37.0,28,19.0,150.0,26.0,30,45.0,90.0,25.0*69
$GPGGA,100331,0548.0570,S,03512.0536,W,1,10,2.4,41.0,M,,,,*22
$GPGLL,0548.0570,S,03512.0536,W,100331,A*2b
$GPRMC,100331,A,0548.0570,S,03512.0536,W,24.52223364797517,201.11,050216,,*26
$GPGSA,A,3,2,5,6,7,,13,15,17,19,28,30,,,,,*37
$GPGSV,3,1,11,2,25.0,347.0,34.0,5,13.0,321.0,18.0,6,48.0,35.0,34.0,7,23.0,62.0,29.0*75
$GPGSV,3,1,11,2,25.0,347.0,33.0,5,13.0,321.0,17.0,6,48.0,35.0,35.0,7,23.0,62.0,31.0*75
$GPGGA,100333,0548.0698,S,03512.0585,W,1,10,2.4,42.0,M,,,,*2e
$GPGLL,0548.0698,S,03512.0585,W,100333,A*24
$GPRMC,100333,A,0548.0698,S,03512.0585,W,24.787376323252143,199.91,050216,,*17
$GPGGA,100334,0548.0762,S,03512.0611,W,1,10,2.3,42.4,M,,,,*20
$GPGLL,0548.0762,S,03512.0611,W,100334,A*29
$GPGSV,3,2,11,12,1.0,261.0,0.0,13,53.0,253.0,36.0,15,16.0,234.0,19.0,17,48.0,168.0,23.0*70
$GPGSV,3,3,11,19,63.0,180.0,35.0,28,19.0,150.0,29.0,30,45.0,90.0,34.0*64
$GPGSA,A,3,2,5,6,7,,13,15,17,19,28,30,,,,,*37
$GPGSV,3,1,11,2,25.0,347.0,31.0,5,13.0,321.0,22.0,6,48.0,35.0,29.0,7,23.0,62.0,25.0*79
$GPGSV,3,2,11,12,1.0,261.0,0.0,13,53.0,253.0,36.0,15,16.0,234.0,18.0,17,48.0,168.0,23.0*71
$GPGSV,3,3,11,19,63.0,180.0,36.0,28,19.0,150.0,29.0,30,45.0,90.0,33.0*60
$GPGGA,100336,0548.0896,S,03512.0664,W,1,10,2.3,43.4,M,,,,*25
$GPGLL,0548.0896,S,03512.0664,W,100336,A*2d
$GPGSV,3,1,11,2,25.0,347.0,30.0,5,12.0,321.0,20.0,6,49.0,36.0,36.0,7,22.0,62.0,26.0*75
$GPGLL,0548.6470,S,03512.2698,W,100549,A*20
$GPRMC,100549,A,0548.6470,S,03512.2698,W,20.651145398306543,200.56,050216,,*13
$GPGGA,100550,0548.6525,S,03512.2719,W,1,10,2.4,43.0,M,,,,*2a
$GPGLL,0548.6525,S,03512.2719,W,100550,A*21
$GPGSV,3,2,11,12,2.0,260.0,0.0,13,54.0,255.0,40.0,15,16.0,235.0,15.0,17,47.0,167.0,25.0*79
$GPGSV,3,3,11,19,62.0,179.0,35.0,28,19.0,149.0,22.0,30,45.0,89.0,31.0*6d
$GPGSV,3,1,11,2,25.0,347.0,31.0,5,12.0,321.0,15.0,6,49.0,36.0,40.0,7,22.0,62.0,26.0*73
$GPGSV,3,2,11,12,2.0,260.0,0.0,13,54.0,255.0,26.0,15,16.0,235.0,16.0,17,47.0,167.0,26.0*79
$GPGSV,3,3,11,19,62.0,179.0,28.0,28,19.0,149.0,25.0,30,45.0,89.0,39.0*6e
$GPGGA,100552,0548.6636,S,03512.2759,W,1,9,2.4,42.4,M,,,,*10
$GPGSV,3,1,11,2,25.0,347.0,31.0,5,12.0,321.0,19.0,6,49.0,36.0,33.0,7,22.0,62.0,26.0*7b
$GPGGA,100553,0548.6692,S,03512.2779,W,1,10,2.4,42.3,M,,,,*22
$GPGLL,0548.6692,S,03512.2779,W,100553,A*2b
$GPGSV,3,2,11,12,2.0,260.0,0.0,13,54.0,255.0,25.0,15,16.0,235.0,16.0,17,47.0,167.0,39.0*74
$GPGSV,3,3,11,19,62.0,179.0,37.0,28,19.0,149.0,24.0,30,45.0,89.0,27.0*6e
$GPGSA,A,3,,5,6,7,,13,15,17,19,28,30,,,,,*05
$GPGSV,3,1,11,2,25.0,347.0,16.0,5,12.0,321.0,13.0,6,49.0,36.0,33.0,7,22.0,62.0,35.0*76
$GPGSV,3,2,11,12,2.0,260.0,0.0,13,54.0,255.0,25.0,15,16.0,235.0,16.0,17,47.0,167.0,39.0*74
$GPGSV,3,3,11,19,62.0,179.0,37.0,28,19.0,149.0,24.0,30,45.0,89.0,26.0*6f
$GPGSA,A,3,,5,6,7,,13,15,17,19,28,30,,,,,*05
$GPGSV,3,1,11,2,25.0,347.0,13.0,5,12.0,321.0,14.0,6,49.0,36.0,35.0,7,22.0,62.0,36.0*71
$GPGLL,0548.7474,S,03512.3091,W,100628,A*2f
$GPRMC,100628,A,0548.7474,S,03512.3091,W,0.0,207.46,050216,,*2f
$GPGSA,A,3,,5,6,7,,13,15,17,19,28,30,,,,,*05
$GPGSV,3,1,11,2,25.0,347.0,13.0,5,12.0,321.0,13.0,6,49.0,36.0,33.0,7,22.0,62.0,36.0*70
$GPGGA,100629,0548.7474,S,03512.3091,W,1,9,3.1,45.6,M,,,,*19
$GPGLL,0548.7474,S,03512.3091,W,100629,A*2e
$GPGSV,3,1,11,2,26.0,348.0,16.0,5,12.0,321.0,15.0,6,49.0,36.0,32.0,7,22.0,62.0,37.0*7f
$GPGLL,0548.7474,S,03512.3091,W,100631,A*27
$GPRMC,100631,A,0548.7474,S,03512.3091,W,0.0,207.46,050216,,*27
$GPGGA,100632,0548.7474,S,03512.3091,W,1,9,3.0,45.6,M,,,,*12
$GPGLL,0548.7474,S,03512.3091,W,100632,A*24
$GPGSV,3,2,11,12,2.0,260.0,0.0,13,54.0,255.0,22.0,15,16.0,235.0,20.0,17,47.0,167.0,38.0*77
$GPGSV,3,2,11,12,2.0,260.0,0.0,13,54.0,255.0,21.0,15,16.0,235.0,21.0,17,47.0,167.0,38.0*75
$GPGLL,0548.7474,S,03512.3091,W,100634,A*22
$GPGSV,3,2,11,12,2.0,260.0,0.0,13,54.0,255.0,20.0,15,16.0,235.0,22.0,17,47.0,167.0,38.0*77
$GPGSV,3,3,11,19,62.0,179.0,41.0,28,19.0,149.0,35.0,30,45.0,89.0,22.0*6a
$GPGSA,A,3,,5,6,7,,13,15,17,19,28,30,,,,,*05
$GPGSV,3,1,11,2,26.0,348.0,18.0,5,12.0,322.0,11.0,6,49.0,37.0,32.0,7,22.0,61.0,41.0*75
$GPGLL,0548.7474,S,03512.3091,W,100636,A*20
$GPRMC,100636,A,0548.7474,S,03512.3091,W,0.0,207.46,050216,,*20
$GPGLL,0548.7474,S,03512.3091,W,100650,A*20
$GPRMC,100650,A,0548.7474,S,03512.3091,W,0.0,207.46,050216,,*20
$GPGSA,A,3,,,6,7,,13,15,17,19,28,30,,,,,*30
$GPGSV,3,1,11,2,26.0,348.0,15.0,5,12.0,322.0,0.0,6,49.0,37.0,29.0,7,22.0,61.0,43.0*40
$GPGSV,3,1,11,2,26.0,348.0,18.0,5,12.0,322.0,0.0,6,49.0,37.0,30.0,7,22.0,61.0,41.0*47
$GPGGA,100652,0548.7500,S,03512.3069,W,1,8,2.9,48.9,M,,,,*1a
$GPGSV,3,1,11,2,26.0,348.0,17.0,5,12.0,322.0,0.0,6,49.0,37.0,29.0,7,22.0,61.0,42.0*43
$GPGLL,0548.7509,S,03512.3072,W,100653,A*25
$GPRMC,100653,A,0548.7509,S,03512.3072,W,2.8995648022244658,207.46,050216,,*19
$GPGSA,A,3,2,,6,7,,13,15,17,19,28,30,,,,,*02
$GPGSV,3,1,11,2,26.0,348.0,16.0,5,12.0,322.0,0.0,6,49.0,37.0,28.0,7,22.0,61.0,42.0*43
$GPGLL,0548.7531,S,03512.3078,W,100654,A*23
$GPGSV,3,2,11,12,2.0,259.0,0.0,13,54.0,257.0,38.0,15,17.0,236.0,19.0,17,46.0,167.0,27.0*73
$GPGSV,3,3,11,19,61.0,179.0,37.0,28,19.0,149.0,27.0,30,45.0,89.0,37.0*6f
$GPGLL,0548.7582,S,03512.3087,W,100656,A*29
$GPRMC,100656,A,0548.7582,S,03512.3087,W,12.190579013884411,204.72,050216,,*1f
$GPGSA,A,3,2,,6,7,,13,15,17,19,28,30,,,,,*02
$GPGSV,3,1,11,2,26.0,348.0,16.0,5,12.0,322.0,0.0,6,49.0,37.0,20.0,7,22.0,61.0,38.0*46
$GPGSV,3,2,11,12,2.0,259.0,0.0,13,54.0,257.0,37.0,15,17.0,236.0,20.0,17,46.0,167.0,27.0*76
$GPGSV,3,3,11,19,61.0,179.0,36.0,28,18.0,149.0,26.0,30,45.0,89.0,26.0*6e
$GPGSV,3,1,11,2,26.0,348.0,16.0,5,12.0,322.0,0.0,6,49.0,37.0,34.0,7,22.0,61.0,38.0*43
$GPGLL,0548.7661,S,03512.3113,W,100658,A*25
$GPRMC,100658,A,0548.7661,S,03512.3113,W,15.954610627412691,200.58,050216,,*1c
$GPGSA,A,3,2,,6,7,,13,15,17,19,28,30,,,,,*02
$GPGSV,3,1,11,2,26.0,348.0,16.0,5,12.0,322.0,0.0,6,49.0,37.0,34.0,7,22.0,61.0,38.0*43
$GPGLL,0548.7705,S,03512.3128,W,100659,A*2f
$GPGSV,3,1,11,2,26.0,348.0,33.0,5,12.0,322.0,0.0,6,49.0,37.0,33.0,7,22.0,61.0,21.0*4b
$GPGSV,3,1,11,2,26.0,348.0,34.0,5,12.0,322.0,0.0,6,49.0,37.0,33.0,7,22.0,61.0,22.0*4f
$GPGLL,0548.8189,S,03512.3316,W,100708,A*28
$GPGSV,3,2,11,12,2.0,259.0,0.0,13,54.0,257.0,32.0,15,17.0,236.0,24.0,17,46.0,167.0,33.0*72
$GPGSV,3,3,11,19,61.0,179.0,28.0,28,18.0,149.0,25.0,30,45.0,87.0,40.0*6c
$GPGGA,100710,0548.8306,S,03512.3359,W,1,10,2.3,52.6,M,,,,*25
$GPGLL,0548.8306,S,03512.3359,W,100710,A*2f
$GPGSV,3,2,11,12,2.0,259.0,0.0,13,54.0,257.0,31.0,15,17.0,236.0,25.0,17,46.0,167.0,34.0*77
$GPGSV,3,2,11,12,2.0,259.0,0.0,13,54.0,257.0,31.0,15,17.0,236.0,26.0,17,46.0,167.0,34.0*74
$GPGLL,0548.8425,S,03512.3401,W,100712,A*21
$GPGSV,3,2,11,12,2.0,259.0,0.0,13,54.0,257.0,31.0,15,17.0,236.0,19.0,17,46.0,167.0,34.0*78
$GPGSV,3,3,11,19,61.0,179.0,30.0,28,18.0,149.0,23.0,30,45.0,87.0,38.0*6c
$GPGSA,A,3,2,5,6,7,,13,15,17,19,28,30,,,,,*37
$GPGSV,3,1,11,2,26.0,348.0,37.0,5,12.0,322.0,28.0,6,49.0,37.0,36.0,7,22.0,61.0,26.0*77
$GPGLL,0548.8544,S,03512.3440,W,100714,A*24
$GPRMC,100714,A,0548.8544,S,03512.3440,W,20.98932757945243,198.58,050216,,*2d
$GPGSV,3,1,11,2,26.0,348.0,36.0,5,12.0,322.0,20.0,6,49.0,37.0,36.0,7,22.0,61.0,26.0*7e
$GPGLL,0548.8651,S,03512.3480,W,100716,A*2d
$GPRMC,100716,A,0548.8651,S,03512.3480,W,19.748657028746138,199.3,050216,,*2a
$GPGSA,A,3,2,5,6,7,,13,15,17,19,28,30,,,,,*37
$GPGSV,3,1,11,2,26.0,348.0,36.0,5,12.0,322.0,22.0,6,49.0,37.0,36.0,7,22.0,61.0,33.0*78
$GPGLL,0548.8704,S,03512.3496,W,100717,A*2a
$GPRMC,100717,A,0548.8704,S,03512.3496,W,19.739653148542956,198.32,050216,,*1d
$GPGSV,3,1,11,2,26.0,348.0,36.0,5,12.0,322.0,24.0,6,49.0,37.0,36.0,7,22.0,61.0,31.0*7c
$GPGLL,0548.8809,S,03512.3535,W,100719,A*2e
$GPRMC,100719,A,0548.8809,S,03512.3535,W,19.60458011513873,199.47,050216,,*27
$GPGSA,A,3,2,5,6,7,,13,15,17,19,28,30,,,,,*37
$GPGSV,3,1,11,2,26.0,348.0,36.0,5,12.0,322.0,35.0,6,49.0,37.0,36.0,7,22.0,61.0,30.0*7d
$GPGLL,0548.8859,S,03512.3552,W,100720,A*20
$GPGSV,3,2,11,12,2.0,259.0,0.0,13,54.0,257.0,33.0,15,17.0,236.0,26.0,17,46.0,167.0,35.0*77
