$GPGLL,0557.5741,S,03509.0403,W,202001,A*2c
$GPRMC,202001,A,0557.5741,S,03509.0403,W,0.0,120.3,060216,,*18
$GPGSA,A,3,10,14,16,18,21,22,24,26,27,29,31,,,,,*37
$GPGSV,3,1,11,10,38.0,198.0,25.0,14,76.0,1.0,32.0,16,22.0,278.0,29.0,18,25.0,159.0,17.0*76
$GPGLL,0557.5741,S,03509.0403,W,202002,A*2f
$GPGSV,3,2,11,21,39.0,124.0,21.0,22,27.0,256.0,44.0,24,6.0,107.0,15.0,26,26.0,310.0,22.0*41
$GPGSV,3,3,11,27,25.0,217.0,30.0,29,26.0,33.0,26.0,31,16.0,353.0,29.0*62
$GPGLL,0557.5741,S,03509.0403,W,202004,A*29
$GPGSV,3,1,11,10,38.0,198.0,23.0,14,76.0,1.0,34.0,16,22.0,278.0,27.0,18,25.0,159.0,30.0*7d
$GPGSV,3,1,11,10,38.0,198.0,24.0,14,76.0,1.0,34.0,16,22.0,278.0,27.0,18,25.0,159.0,32.0*78
$GPGSV,3,2,11,21,39.0,124.0,21.0,22,27.0,256.0,34.0,24,6.0,107.0,19.0,26,26.0,310.0,24.0*4c
$GPGSV,3,3,11,27,25.0,217.0,34.0,29,26.0,33.0,35.0,31,16.0,353.0,21.0*6c
$GPGGA,202006,0557.5741,S,03509.0403,W,1,11,2.2,27.8,M,,,,*2d
$GPGSV,3,1,11,10,38.0,198.0,23.0,14,76.0,1.0,34.0,16,22.0,278.0,26.0,18,25.0,159.0,32.0*7e
$GPGLL,0557.5741,S,03509.0403,W,202007,A*2a
$GPGSV,3,1,11,10,38.0,198.0,21.0,14,76.0,1.0,34.0,16,22.0,278.0,25.0,18,25.0,159.0,32.0*7f
$GPGLL,0557.5741,S,03509.0403,W,202008,A*25
$GPGSV,3,2,11,21,39.0,124.0,20.0,22,27.0,256.0,36.0,24,6.0,107.0,21.0,26,26.0,310.0,25.0*45
$GPGSV,3,1,11,10,38.0,198.0,20.0,14,76.0,1.0,35.0,16,22.0,278.0,27.0,18,25.0,159.0,32.0*7d
$GPGLL,0557.5741,S,03509.0403,W,202010,A*2c
$GPRMC,202010,A,0557.5741,S,03509.0403,W,0.0,120.3,060216,,*18
$GPGSV,3,1,11,10,38.0,198.0,22.0,14,76.0,1.0,35.0,16,22.0,278.0,29.0,18,25.0,159.0,32.0*71
$GPGLL,0557.5741,S,03509.0403,W,202012,A*2e
$GPRMC,202012,A,0557.5741,S,03509.0403,W,0.0,120.3,060216,,*1a
$GPGSA,A,3,10,14,16,18,21,22,24,26,27,29,31,,,,,*37
$GPGSV,3,1,11,10,38.0,198.0,23.0,14,76.0,1.0,35.0,16,22.0,278.0,28.0,18,25.0,159.0,32.0*71
$GPGLL,0557.5741,S,03509.0403,W,202013,A*2f
$GPRMC,202013,A,0557.5741,S,03509.0403,W,0.0,120.3,060216,,*1b
$GPGSV,3,1,11,10,37.0,196.0,25.0,14,78.0,2.0,29.0,16,22.0,280.0,26.0,18,24.0,158.0,27.0*7b
$GPGSV,3,2,11,21,39.0,122.0,33.0,22,27.0,254.0,28.0,24,5.0,109.0,22.0,26,26.0,312.0,19.0*4f
$GPGSV,3,3,11,27,27.0,218.0,33.0,29,25.0,32.0,22.0,31,17.0,354.0,26.0*63
$GPGSA,A,3,10,14,16,18,21,22,24,26,27,29,31,,,,,*37
$GPGSV,3,1,11,10,37.0,196.0,25.0,14,78.0,2.0,29.0,16,22.0,280.0,27.0,18,24.0,158.0,27.0*7a
$GPGSV,3,1,11,10,37.0,196.0,25.0,14,78.0,2.0,29.0,16,22.0,280.0,27.0,18,24.0,158.0,26.0*7b
$GPGLL,0557.6022,S,03509.0090,W,202301,A*20
$GPGSV,3,2,11,21,39.0,122.0,34.0,22,27.0,254.0,27.0,24,5.0,109.0,20.0,26,26.0,312.0,18.0*44
$GPGSV,3,2,11,21,39.0,122.0,34.0,22,27.0,254.0,25.0,24,5.0,109.0,21.0,26,26.0,312.0,19.0*46
$GPGSV,3,3,11,27,27.0,218.0,33.0,29,25.0,32.0,26.0,31,17.0,354.0,27.0*66
$GPGSA,A,3,10,14,16,18,21,22,24,26,27,29,31,,,,,*37
$GPGSV,3,1,11,10,37.0,196.0,22.0,14,78.0,2.0,27.0,16,22.0,280.0,27.0,18,24.0,158.0,35.0*70
$GPGSV,3,2,11,21,39.0,122.0,34.0,22,27.0,254.0,26.0,24,5.0,109.0,22.0,26,26.0,312.0,20.0*4c
$GPGSV,3,3,11,27,27.0,218.0,33.0,29,25.0,32.0,28.0,31,17.0,354.0,28.0*67
$GPGSV,3,1,11,10,37.0,196.0,20.0,14,78.0,2.0,27.0,16,22.0,280.0,28.0,18,24.0,158.0,32.0*7a
$GPGGA,202306,0557.6024,S,03509.0088,W,1,11,2.5,25.9,M,,,,*2a
$GPGLL,0557.6024,S,03509.0088,W,202306,A*28
$GPRMC,202306,A,0557.6024,S,03509.0088,W,0.0,123.84,060216,,*20
$GPGGA,202307,0557.6024,S,03509.0088,W,1,11,2.5,25.9,M,,,,*2b
$GPGLL,0557.6024,S,03509.0088,W,202307,A*29
$GPGSV,3,2,11,21,39.0,122.0,35.0,22,27.0,254.0,25.0,24,5.0,109.0,22.0,26,26.0,312.0,19.0*44
$GPGSV,3,2,11,21,39.0,122.0,35.0,22,27.0,254.0,25.0,24,5.0,109.0,22.0,26,26.0,312.0,18.0*45
$GPGSV,3,3,11,27,27.0,218.0,33.0,29,25.0,32.0,26.0,31,17.0,354.0,28.0*69
$GPGGA,202309,0557.6024,S,03509.0088,W,1,11,2.4,25.9,M,,,,*24
$GPGLL,0557.6024,S,03509.0088,W,202309,A*27
$GPGSV,3,1,11,10,37.0,196.0,20.0,14,78.0,2.0,27.0,16,22.0,280.0,30.0,18,24.0,158.0,32.0*73
$GPGSV,3,2,11,21,39.0,122.0,35.0,22,27.0,254.0,26.0,24,5.0,109.0,22.0,26,26.0,312.0,18.0*46
$GPGSV,3,3,11,27,27.0,218.0,33.0,29,25.0,32.0,26.0,31,17.0,354.0,27.0*66
$GPGSV,3,2,11,21,39.0,119.0,34.0,22,27.0,252.0,33.0,24,5.0,110.0,18.0,26,25.0,314.0,21.0*43
$GPGSV,3,1,11,10,36.0,195.0,37.0,14,80.0,3.0,36.0,16,21.0,282.0,20.0,18,23.0,156.0,30.0*7a
$GPGLL,0557.6314,S,03508.9847,W,202640,A*2c
$GPRMC,202640,A,0557.6314,S,03508.9847,W,2.2482132265523043,147.92,060216,,*1d
$GPGSA,A,3,10,14,16,18,21,22,24,26,27,29,31,,,,,*37
$GPGSV,3,1,11,10,36.0,195.0,37.0,14,80.0,3.0,36.0,16,21.0,282.0,21.0,18,23.0,156.0,29.0*73
$GPGSV,3,1,11,10,36.0,195.0,37.0,14,80.0,3.0,36.0,16,21.0,282.0,21.0,18,23.0,156.0,28.0*72
$GPGSV,3,1,11,10,36.0,195.0,37.0,14,80.0,3.0,36.0,16,21.0,282.0,21.0,18,23.0,156.0,26.0*7c
$GPGLL,0557.6316,S,03508.9849,W,202643,A*23
$GPRMC,202643,A,0557.6316,S,03508.9849,W,0.0,138.45,060216,,*2c
$GPGSA,A,3,10,14,16,18,21,22,24,26,27,29,31,,,,,*37
$GPGSV,3,1,11,10,36.0,195.0,38.0,14,80.0,3.0,35.0,16,21.0,282.0,21.0,18,23.0,156.0,25.0*73
$GPGLL,0557.6317,S,03508.9848,W,202644,A*24
$GPGSV,3,2,11,21,39.0,119.0,37.0,22,27.0,252.0,30.0,24,5.0,110.0,16.0,26,25.0,314.0,27.0*4b
$GPGLL,0557.6317,S,03508.9848,W,202646,A*26
$GPGSV,3,2,11,21,39.0,119.0,37.0,22,27.0,252.0,29.0,24,5.0,110.0,14.0,26,25.0,314.0,28.0*4e
$GPGSV,3,3,11,27,28.0,219.0,33.0,29,23.0,32.0,28.0,31,17.0,356.0,19.0*6f
$GPGSA,A,3,10,14,16,18,21,22,24,26,27,29,,,,,,*35
$GPGSV,3,1,11,10,36.0,195.0,37.0,14,80.0,3.0,36.0,16,21.0,282.0,23.0,18,23.0,156.0,28.0*70
$GPGLL,0557.6317,S,03508.9848,W,202648,A*28
$GPGSV,3,2,11,21,39.0,119.0,37.0,22,27.0,252.0,30.0,24,5.0,110.0,15.0,26,25.0,314.0,29.0*46
$GPGLL,0557.6317,S,03508.9848,W,202650,A*21
$GPGSV,3,2,11,21,39.0,119.0,37.0,22,27.0,252.0,28.0,24,5.0,110.0,14.0,26,25.0,314.0,29.0*4e
$GPGSV,3,3,11,27,28.0,219.0,34.0,29,23.0,32.0,28.0,31,17.0,356.0,17.0*66
$GPGSA,A,3,10,14,16,18,21,22,24,26,27,29,31,,,,,*37
$GPGSV,3,1,11,10,36.0,195.0,37.0,14,80.0,3.0,37.0,16,21.0,282.0,19.0,18,23.0,156.0,32.0*73
$GPGLL,0557.6317,S,03508.9848,W,202652,A*23
$GPRMC,202652,A,0557.6317,S,03508.9848,W,0.0,138.45,060216,,*2c
