$GPGLL,0550.7070,S,03512.6082,W,153607,A*2a
$GPGSV,3,1,11,2,19.0,153.0,24.0,5,49.0,104.0,41.0,12,65.0,146.0,40.0,13,9.0,41.0,25.0*76
$GPGSV,3,1,11,2,19.0,153.0,26.0,5,49.0,104.0,32.0,12,65.0,146.0,32.0,13,9.0,41.0,37.0*76
$GPGSV,3,2,11,15,19.0,6.0,29.0,18,4.0,329.0,0.0,20,57.0,8.0,27.0,21,17.0,299.0,22.0*76
$GPGSV,3,3,11,24,43.0,335.0,27.0,25,36.0,200.0,36.0,29,17.0,222.0,26.0*58
$GPGGA,153609,0550.7043,S,03512.6070,W,1,9,2.3,65.8,M,,,,*11
$GPGSV,3,1,11,2,19.0,153.0,27.0,5,49.0,104.0,30.0,12,65.0,146.0,31.0,13,9.0,41.0,27.0*77
$GPGLL,0550.7038,S,03512.6065,W,153610,A*29
$GPRMC,153610,A,0550.7038,S,03512.6065,W,1.1986468817077542,125.82,240116,,*12
$GPGSV,3,1,11,2,19.0,153.0,29.0,5,49.0,104.0,29.0,12,65.0,146.0,32.0,13,9.0,41.0,28.0*7d
$GPGSV,3,2,11,15,19.0,6.0,27.0,18,4.0,329.0,0.0,20,57.0,8.0,25.0,21,17.0,299.0,24.0*7c
$GPGLL,0550.7033,S,03512.6066,W,153611,A*20
$GPGSV,3,1,11,2,19.0,153.0,28.0,5,49.0,104.0,30.0,12,65.0,146.0,31.0,13,9.0,41.0,19.0*75
$GPGLL,0550.7028,S,03512.6064,W,153612,A*2b
$GPGLL,0550.2365,S,03513.1750,W,193528,A*24
$GPGSV,3,2,13,18,55.0,202.0,39.0,20,11.0,147.0,27.0,21,30.0,177.0,36.0,22,21.0,296.0,22.0*76
$GPGSV,3,3,13,24,6.0,65.0,21.0,25,24.0,8.0,34.0,26,32.0,257.0,40.0,29,58.0,86.0,38.0*47
$GPGSA,A,3,10,14,15,,18,20,21,22,24,25,26,29,,,,*36
$GPGSV,3,1,13,10,51.0,264.0,34.0,14,29.0,349.0,34.0,15,28.0,125.0,28.0,16,13.0,232.0,19.0*70
$GPGLL,0550.2381,S,03513.1741,W,193529,A*2f
$GPRMC,193529,A,0550.2381,S,03513.1741,W,6.094288921325639,143.0,240116,,*15
$GPGSV,3,1,13,10,51.0,264.0,34.0,14,29.0,349.0,29.0,15,28.0,125.0,31.0,16,13.0,232.0,23.0*7d
$GPGSV,3,2,13,18,55.0,202.0,40.0,20,11.0,147.0,27.0,21,30.0,177.0,25.0,22,21.0,296.0,32.0*7b
$GPGSV,3,3,13,24,6.0,65.0,19.0,25,24.0,8.0,29.0,26,32.0,257.0,37.0,29,58.0,86.0,38.0*40
$GPGGA,193531,0550.2405,S,03513.1710,W,1,11,1.9,90.6,M,,,,*25
$GPGSV,3,1,13,10,51.0,264.0,33.0,14,29.0,349.0,29.0,15,28.0,125.0,42.0,16,13.0,232.0,25.0*78
$GPGLL,0550.2418,S,03513.1685,W,193532,A*2b
$GPGSV,3,1,13,10,51.0,264.0,32.0,14,29.0,349.0,28.0,15,28.0,125.0,32.0,16,13.0,232.0,26.0*7c
$GPGSA,A,1,,,,,,,,,,,,,,,,*32
$GPGSV,3,1,11,2,62.0,163.0,0.0,5,38.0,38.0,0.0,6,20.0,148.0,0.0,12,29.0,190.0,0.0*75
$GPGSV,3,2,11,13,17.0,3.0,0.0,15,20.0,325.0,0.0,20,18.0,345.0,0.0,24,60.0,252.0,0.0*71
$GPGSV,3,3,11,25,3.0,217.0,0.0,28,6.0,66.0,0.0,29,12.0,266.0,0.0*51
$GPGSA,A,1,,,,,,,,,,,,,,,,*32
$GPGSV,3,3,11,25,3.0,217.0,0.0,28,6.0,66.0,0.0,29,12.0,266.0,0.0*51
$GPGSV,3,3,11,25,3.0,217.0,0.0,28,6.0,66.0,0.0,29,12.0,266.0,0.0*51
$GPGSV,3,2,11,13,17.0,3.0,0.0,15,20.0,325.0,0.0,20,18.0,345.0,0.0,24,60.0,252.0,0.0*71
$GPGSV,3,3,11,25,3.0,217.0,0.0,28,6.0,66.0,0.0,29,12.0,266.0,0.0*51
$GPGSV,3,3,11,25,3.0,217.0,0.0,28,6.0,66.0,0.0,29,12.0,266.0,0.0*51
$GPGSV,3,3,11,25,3.0,217.0,0.0,28,6.0,66.0,0.0,29,12.0,266.0,0.0*51
$GPGSV,3,3,11,25,3.0,217.0,0.0,28,6.0,66.0,0.0,29,12.0,266.0,0.0*51
$GPGSV,3,3,11,25,3.0,217.0,0.0,28,6.0,66.0,0.0,29,12.0,266.0,0.0*51
$GPGSA,A,1,,,,,,,,,,,,,,,,*32
$GPGSV,3,3,11,25,3.0,217.0,0.0,28,6.0,66.0,0.0,29,12.0,266.0,0.0*51
$GPGSV,3,3,11,25,3.0,217.0,0.0,28,6.0,66.0,0.0,29,12.0,266.0,0.0*51
$GPGSV,3,3,11,25,3.0,217.0,0.0,28,6.0,66.0,0.0,29,12.0,266.0,0.0*51
$GPGSV,3,3,11,25,3.0,217.0,0.0,28,6.0,66.0,0.0,29,12.0,266.0,0.0*51
$GPGSV,3,3,11,25,3.0,217.0,0.0,28,6.0,66.0,0.0,29,12.0,266.0,0.0*51
$GPGSV,3,3,11,25,3.0,217.0,0.0,28,6.0,66.0,0.0,29,12.0,266.0,0.0*51
$GPGSV,3,3,11,25,3.0,217.0,0.0,28,6.0,66.0,0.0,29,12.0,266.0,0.0*51
$GPGSV,3,3,11,25,3.0,217.0,0.0,28,6.0,66.0,0.0,29,12.0,266.0,0.0*51
$GPGSV,3,3,11,25,3.0,217.0,0.0,28,6.0,66.0,0.0,29,12.0,266.0,0.0*51
$GPGSV,3,3,11,25,3.0,217.0,0.0,28,6.0,66.0,0.0,29,12.0,266.0,0.0*51
$GPGSA,A,1,,,,,,,,,,,,,,,,*32
$GPGSV,3,3,11,25,3.0,217.0,0.0,28,6.0,66.0,0.0,29,12.0,266.0,0.0*51
$GPGSV,3,3,11,25,3.0,217.0,0.0,28,6.0,66.0,0.0,29,12.0,266.0,0.0*51
$GPGSV,3,3,11,25,3.0,217.0,0.0,28,6.0,66.0,0.0,29,12.0,266.0,0.0*51
$GPGSV,3,2,11,13,17.0,3.0,0.0,15,20.0,325.0,0.0,20,18.0,345.0,0.0,24,60.0,252.0,0.0*71
$GPGSV,3,3,11,25,3.0,217.0,0.0,28,6.0,66.0,0.0,29,12.0,266.0,0.0*51
$GPGSV,3,3,11,25,3.0,217.0,0.0,28,6.0,66.0,0.0,29,12.0,266.0,0.0*51
$GPGSV,3,3,11,25,3.0,217.0,0.0,28,6.0,66.0,0.0,29,12.0,266.0,0.0*51
$GPGSV,3,3,11,25,3.0,217.0,0.0,28,6.0,66.0,0.0,29,12.0,266.0,0.0*51
$GPGSV,3,3,11,25,3.0,217.0,0.0,28,6.0,66.0,0.0,29,12.0,266.0,0.0*51
$GPGSV,3,3,11,25,3.0,217.0,0.0,28,6.0,65.0,0.0,29,12.0,266.0,0.0*52
$GPGSV,3,3,11,25,3.0,217.0,0.0,28,6.0,65.0,0.0,29,12.0,266.0,0.0*52
$GPGSV,3,3,11,25,3.0,217.0,0.0,28,6.0,65.0,0.0,29,12.0,266.0,0.0*52
$GPGSV,3,3,11,25,3.0,217.0,0.0,28,6.0,65.0,0.0,29,12.0,266.0,0.0*52
$GPGSV,3,3,11,25,3.0,217.0,0.0,28,6.0,65.0,0.0,29,12.0,266.0,0.0*52
$GPGSV,3,3,11,25,3.0,217.0,0.0,28,6.0,65.0,0.0,29,12.0,266.0,0.0*52
$GPGSV,3,3,11,25,3.0,217.0,0.0,28,6.0,65.0,0.0,29,12.0,266.0,0.0*52
$GPGSV,3,3,11,25,3.0,217.0,0.0,28,6.0,65.0,0.0,29,12.0,266.0,0.0*52
