$GPGLL,0549.0870,S,03512.4197,W,182618,A*28
$GPGSV,3,1,14,10,37.0,309.0,29.0,12,20.0,22.0,32.0,13,9.0,116.0,17.0,14,6.0,336.0,0.0*74
$GPGSV,3,2,14,15,38.0,89.0,40.0,18,66.0,277.0,33.0,20,36.0,156.0,19.0,21,29.0,212.0,39.0*42
$GPGSV,3,3,14,22,1.0,316.0,0.0,24,6.0,37.0,18.0,25,54.0,354.0,34.0,26,17.0,227.0,28.0*78
$GPGSA,A,3,10,12,,,15,18,20,21,,24,25,26,,,,*3b
$GPGSV,3,1,14,10,37.0,309.0,46.0,12,20.0,22.0,32.0,13,9.0,116.0,15.0,14,6.0,336.0,0.0*7f
$GPGLL,0549.0784,S,03512.4167,W,182620,A*28
$GPGSV,3,2,14,15,38.0,89.0,40.0,18,66.0,277.0,30.0,20,36.0,156.0,22.0,21,29.0,212.0,38.0*48
$GPGSV,3,2,14,15,38.0,89.0,41.0,18,66.0,277.0,28.0,20,36.0,156.0,33.0,21,29.0,212.0,38.0*40
$GPGLL,0549.0599,S,03512.4094,W,182624,A*2f
$GPGSV,3,2,14,15,38.0,89.0,43.0,18,66.0,277.0,20.0,20,36.0,156.0,33.0,21,29.0,212.0,38.0*4a
$GPGSV,3,3,14,22,1.0,316.0,0.0,24,6.0,37.0,17.0,25,54.0,354.0,32.0,26,17.0,227.0,19.0*73
$GPGSA,A,3,10,12,,,15,18,20,21,,24,25,26,,,,*3b
$GPGSV,3,1,14,10,37.0,309.0,33.0,12,20.0,22.0,29.0,13,9.0,116.0,24.0,14,6.0,336.0,17.0*43
$GPGSV,3,1,14,10,37.0,309.0,42.0,12,20.0,22.0,27.0,13,9.0,116.0,26.0,14,6.0,336.0,16.0*48
$GPGGA,182626,0549.0488,S,03512.4056,W,1,10,2.1,40.5,M,,,,*2a
$GPGLL,0549.0488,S,03512.4056,W,182626,A*22
$GPRMC,182626,A,0549.0488,S,03512.4056,W,21.315502733199512,20.04,240116,,*20
$GPGSA,A,3,10,12,,,15,18,20,21,,24,25,26,,,,*3b
$GPGSV,3,1,14,10,37.0,309.0,43.0,12,20.0,22.0,28.0,13,9.0,116.0,22.0,14,6.0,336.0,16.0*42
$GPGLL,0549.0428,S,03512.4036,W,182627,A*2f
$GPGSV,3,1,14,10,37.0,309.0,44.0,12,20.0,22.0,27.0,13,9.0,116.0,21.0,14,6.0,336.0,17.0*48
$GPGSV,3,2,14,15,38.0,89.0,27.0,18,66.0,277.0,25.0,20,36.0,156.0,30.0,21,29.0,212.0,38.0*4e
$GPGSV,3,3,14,22,1.0,316.0,0.0,24,6.0,37.0,18.0,25,54.0,354.0,33.0,26,17.0,227.0,18.0*7c
$GPGGA,182629,0549.0300,S,03512.3992,W,1,10,2.0,40.9,M,,,,*29
$GPGLL,0549.0300,S,03512.3992,W,182629,A*2c
$GPGSV,3,2,14,15,38.0,89.0,40.0,18,66.0,277.0,26.0,20,36.0,156.0,28.0,21,29.0,212.0,38.0*45
$GPGSV,3,3,14,22,1.0,316.0,0.0,24,6.0,37.0,19.0,25,54.0,354.0,34.0,26,17.0,227.0,17.0*75
$GPGSV,3,2,14,15,38.0,89.0,42.0,18,66.0,277.0,24.0,20,36.0,156.0,28.0,21,29.0,212.0,37.0*4a
$GPGSV,3,3,14,22,1.0,316.0,0.0,24,6.0,37.0,18.0,25,54.0,354.0,33.0,26,17.0,227.0,15.0*71
$GPGSA,A,3,10,12,,,15,18,20,21,,24,25,26,,,,*3b
$GPGSV,3,1,14,10,37.0,309.0,44.0,12,20.0,22.0,27.0,13,9.0,116.0,23.0,14,6.0,336.0,16.0*4b
$GPGSV,3,2,14,15,38.0,89.0,42.0,18,66.0,277.0,24.0,20,36.0,156.0,29.0,21,29.0,212.0,37.0*4b
$GPGSV,3,3,14,22,1.0,316.0,0.0,24,6.0,37.0,17.0,25,54.0,354.0,33.0,26,17.0,227.0,13.0*78
$GPGGA,182633,0549.0017,S,03512.3891,W,1,10,1.9,41.9,M,,,,*2e
$GPGSV,3,2,14,15,38.0,89.0,42.0,18,66.0,277.0,25.0,20,36.0,156.0,29.0,21,29.0,212.0,37.0*4a
$GPGSV,3,3,14,22,1.0,316.0,0.0,24,6.0,37.0,17.0,25,54.0,354.0,33.0,26,17.0,227.0,12.0*79
$GPGSA,A,3,10,12,,,15,18,20,21,,24,25,26,,,,*3b
$GPGSV,3,1,14,10,37.0,309.0,44.0,12,20.0,22.0,27.0,13,9.0,116.0,30.0,14,6.0,336.0,14.0*4b
$GPGSV,3,2,14,15,38.0,89.0,42.0,18,66.0,277.0,26.0,20,36.0,156.0,28.0,21,29.0,212.0,37.0*48
$GPGSV,3,3,14,22,1.0,316.0,0.0,24,6.0,37.0,17.0,25,54.0,354.0,33.0,26,17.0,227.0,22.0*7a
$GPGGA,182635,0548.9865,S,03512.3836,W,1,10,1.9,42.9,M,,,,*23
$GPGSV,3,3,11,25,4.0,216.0,18.0,28,5.0,64.0,15.0,29,12.0,264.0,0.0*59
$GPGSV,3,3,11,25,4.0,216.0,18.0,28,5.0,64.0,15.0,29,12.0,264.0,0.0*59
$GPGSA,A,1,,,,,,,,,,,,,,,,*32
$GPGSV,3,3,11,25,4.0,216.0,17.0,28,5.0,64.0,15.0,29,12.0,264.0,0.0*56
$GPGSV,3,1,11,2,60.0,163.0,17.0,5,39.0,40.0,0.0,6,19.0,148.0,0.0,12,30.0,188.0,32.0*75
$GPGSV,3,3,11,25,4.0,216.0,16.0,28,5.0,64.0,16.0,29,12.0,264.0,0.0*54
$GPGSV,3,3,11,25,4.0,216.0,16.0,28,5.0,64.0,16.0,29,12.0,264.0,0.0*54
$GPGSV,3,3,11,25,4.0,216.0,16.0,28,5.0,64.0,16.0,29,12.0,264.0,0.0*54
$GPGSA,A,1,,,,,,,,,,,,,,,,*32
$GPGSV,3,3,11,25,4.0,216.0,15.0,28,5.0,64.0,16.0,29,12.0,264.0,0.0*57
$GPGSA,A,1,,,,,,,,,,,,,,,,*32
$GPGSV,3,3,11,25,4.0,216.0,14.0,28,5.0,64.0,16.0,29,12.0,264.0,0.0*56
$GPGSV,3,3,11,25,4.0,216.0,14.0,28,5.0,64.0,16.0,29,12.0,264.0,0.0*56
$GPGSV,3,3,11,25,4.0,216.0,14.0,28,5.0,64.0,16.0,29,12.0,264.0,0.0*56
