$GPGSV,3,2,11,15,20.0,12.0,18.0,18,9.0,331.0,28.0,20,64.0,13.0,29.0,21,20.0,293.0,21.0*4c
$GPGSV,3,3,11,24,39.0,341.0,23.0,25,42.0,199.0,21.0,29,18.0,217.0,21.0*5a
$GPGSA,A,3,2,5,12,,15,,20,21,24,,,,,,,*37
$GPGSV,3,1,11,2,14.0,150.0,23.0,5,46.0,113.0,48.0,12,70.0,132.0,26.0,13,9.0,47.0,12.0*7a
$GPGSV,3,2,11,15,20.0,12.0,17.0,18,9.0,331.0,28.0,20,64.0,13.0,29.0,21,20.0,293.0,22.0*40
$GPGLL,0548.7113,S,03512.4586,W,161540,A*25
$GPGSV,3,2,11,15,20.0,12.0,16.0,18,9.0,331.0,28.0,20,64.0,13.0,29.0,21,20.0,293.0,22.0*41
$GPGLL,0548.7152,S,03512.4479,W,161542,A*23
$GPRMC,161542,A,0548.7152,S,03512.4479,W,20.95430754632122,110.46,180116,,*20
$GPGSA,A,3,2,5,12,,15,,20,21,24,,,,,,,*37
$GPGSV,3,1,11,2,14.0,150.0,21.0,5,46.0,113.0,48.0,12,70.0,132.0,25.0,13,9.0,47.0,12.0*7b
$GPGSV,3,1,11,2,14.0,150.0,20.0,5,46.0,113.0,48.0,12,70.0,132.0,25.0,13,9.0,47.0,13.0*7b
$GPGGA,161544,0548.7178,S,03512.4355,W,1,7,3.4,50.5,M,,,,*1f
$GPGSV,3,1,11,2,14.0,150.0,20.0,5,46.0,113.0,48.0,12,70.0,132.0,25.0,13,9.0,47.0,13.0*7b
$GPGLL,0548.8243,S,03512.6426,W,161412,A*23
$GPRMC,161412,A,0548.8243,S,03512.6426,W,24.02496623242201,21.54,180116,,*16
$GPGSA,A,3,2,5,12,,15,,20,21,24,25,29,,,,,*3b
$GPGSV,3,1,11,2,14.0,150.0,13.0,5,46.0,113.0,23.0,12,69.0,134.0,29.0,13,9.0,46.0,22.0*77
$GPGSV,3,1,11,2,14.0,150.0,12.0,5,46.0,113.0,23.0,12,69.0,134.0,29.0,13,9.0,46.0,20.0*74
$GPGSV,3,2,11,15,20.0,11.0,39.0,18,8.0,330.0,25.0,20,63.0,13.0,30.0,21,20.0,294.0,23.0*4b
$GPGSV,3,3,11,24,39.0,340.0,34.0,25,41.0,199.0,26.0,29,18.0,217.0,28.0*50
$GPGLL,0548.8057,S,03512.6358,W,161415,A*2d
$GPGSV,3,2,11,15,20.0,11.0,25.0,18,8.0,330.0,23.0,20,63.0,13.0,32.0,21,20.0,294.0,25.0*44
$GPGSV,3,1,11,2,14.0,150.0,21.0,5,46.0,113.0,24.0,12,70.0,132.0,33.0,13,9.0,47.0,18.0*7c
$GPGLL,0548.7926,S,03512.6314,W,161417,A*27
$GPRMC,161417,A,0548.7926,S,03512.6314,W,24.76236307318389,17.99,180116,,*15
$GPGSA,A,3,2,5,12,,15,,20,21,24,25,29,,,,,*3b
$GPGSV,3,1,11,2,14.0,150.0,17.0,5,46.0,113.0,24.0,12,70.0,132.0,34.0,13,9.0,47.0,18.0*7e
$GPGSV,3,2,11,15,20.0,12.0,13.0,18,9.0,331.0,0.0,20,64.0,13.0,24.0,21,20.0,293.0,20.0*71
$GPGSV,3,2,11,15,20.0,12.0,13.0,18,9.0,331.0,0.0,20,64.0,13.0,24.0,21,20.0,293.0,21.0*70
$GPGSV,3,3,11,24,39.0,341.0,23.0,25,42.0,199.0,26.0,29,18.0,217.0,28.0*54
$GPGSA,A,3,2,5,12,,15,,20,21,,25,29,,,,,*3d
$GPGSV,3,1,11,2,13.0,149.0,23.0,5,46.0,115.0,48.0,12,70.0,132.0,27.0,13,9.0,47.0,0.0*41
$GPGLL,0548.7535,S,03512.3291,W,161609,A*2d
$GPGSV,3,2,11,15,20.0,12.0,15.0,18,9.0,331.0,0.0,20,64.0,13.0,23.0,21,20.0,293.0,23.0*73
$GPGLL,0548.7550,S,03512.3241,W,161611,A*2a
$GPGSV,3,2,11,15,20.0,12.0,15.0,18,9.0,331.0,0.0,20,64.0,13.0,23.0,21,20.0,293.0,25.0*75
$GPGSV,3,3,11,24,39.0,341.0,23.0,25,42.0,199.0,29.0,29,18.0,217.0,23.0*50
$GPGSA,A,3,2,5,12,,15,,20,21,,25,29,,,,,*3d
$GPGSV,3,1,11,2,13.0,149.0,20.0,5,46.0,115.0,49.0,12,70.0,129.0,31.0,13,9.0,47.0,0.0*4e
$GPGLL,0548.7563,S,03512.3211,W,161613,A*2d
$GPGSV,3,2,11,15,20.0,12.0,15.0,18,9.0,331.0,0.0,20,64.0,13.0,24.0,21,20.0,293.0,21.0*76
$GPGLL,0548.7573,S,03512.3179,W,161615,A*27
$GPGSV,3,1,11,2,13.0,149.0,21.0,5,46.0,115.0,49.0,12,70.0,129.0,30.0,13,9.0,47.0,17.0*78
$GPGSV,3,1,11,2,13.0,149.0,21.0,5,46.0,115.0,49.0,12,70.0,129.0,29.0,13,9.0,47.0,18.0*7f
$GPGSV,3,2,11,15,20.0,12.0,16.0,18,9.0,331.0,0.0,20,64.0,13.0,34.0,21,20.0,293.0,19.0*7f
$GPGSV,3,3,11,24,39.0,341.0,21.0,25,42.0,199.0,23.0,29,18.0,217.0,21.0*5a
$GPGGA,161617,0548.7595,S,03512.3148,W,1,7,4.0,53.1,M,,,,*10
$GPGLL,0548.7595,S,03512.3148,W,161617,A*2f
$GPGLL,0548.7596,S,03512.3132,W,161618,A*2e
$GPRMC,161618,A,0548.7596,S,03512.3132,W,5.175793035694726,105.61,180116,,*20
$GPGSA,A,3,2,5,12,,15,,20,21,,25,29,,,,,*3d
$GPGSV,3,1,11,2,13.0,149.0,30.0,5,46.0,115.0,49.0,12,70.0,129.0,27.0,13,9.0,47.0,26.0*7c
$GPGSV,3,1,11,2,13.0,149.0,29.0,5,46.0,115.0,48.0,12,70.0,129.0,26.0,13,9.0,47.0,20.0*72
$GPGLL,0548.7618,S,03512.3108,W,161620,A*29
$GPGSV,3,1,11,2,13.0,149.0,31.0,5,46.0,115.0,40.0,12,70.0,129.0,27.0,13,9.0,47.0,20.0*72
$GPGSV,3,2,11,15,20.0,13.0,30.0,18,10.0,331.0,19.0,20,65.0,15.0,34.0,21,21.0,291.0,28.0*7c
$GPGSV,3,3,11,24,37.0,343.0,34.0,25,44.0,199.0,47.0,29,18.0,215.0,33.0*57
$GPGSA,A,3,2,5,12,,15,,20,21,24,25,29,,,,,*3b
$GPGSV,3,1,11,2,13.0,149.0,28.0,5,45.0,116.0,39.0,12,71.0,127.0,34.0,13,9.0,48.0,0.0*44
$GPGLL,0549.2418,S,03512.4806,W,161847,A*20
$GPRMC,161847,A,0549.2418,S,03512.4806,W,0.0,202.34,180116,,*2f
$GPGSA,A,3,2,5,12,,15,,20,21,24,25,29,,,,,*3b
$GPGSV,3,1,11,2,13.0,149.0,27.0,5,45.0,116.0,39.0,12,71.0,127.0,35.0,13,9.0,48.0,0.0*4a
$GPGLL,0549.2418,S,03512.4806,W,161849,A*2e
$GPGSV,3,1,11,2,13.0,149.0,26.0,5,45.0,116.0,39.0,12,71.0,127.0,36.0,13,9.0,48.0,0.0*48
$GPGLL,0549.2423,S,03512.4815,W,161850,A*2c
$GPGSV,3,1,11,2,13.0,149.0,24.0,5,45.0,116.0,38.0,12,71.0,127.0,37.0,13,9.0,48.0,0.0*4a
$GPGSV,3,1,11,2,13.0,149.0,17.0,5,45.0,116.0,37.0,12,71.0,127.0,36.0,13,9.0,48.0,0.0*44
$GPGLL,0549.2464,S,03512.4829,W,161852,A*22
$GPGLL,0549.2491,S,03512.4839,W,161853,A*28
$GPGSV,3,2,11,15,20.0,13.0,24.0,18,10.0,331.0,20.0,20,65.0,15.0,34.0,21,21.0,291.0,22.0*79
$GPGSV,3,1,11,2,13.0,149.0,16.0,5,45.0,116.0,36.0,12,71.0,127.0,36.0,13,9.0,48.0,0.0*44
$GPGLL,0549.2562,S,03512.4865,W,161855,A*2a
$GPGSV,3,2,11,15,20.0,13.0,25.0,18,10.0,331.0,18.0,20,65.0,15.0,35.0,21,21.0,291.0,30.0*71
$GPGSV,3,3,11,24,37.0,343.0,31.0,25,44.0,199.0,47.0,29,18.0,215.0,33.0*52
$GPGSA,A,3,2,5,12,,15,,20,21,24,25,29,,,,,*3b
$GPGLL,0549.2640,S,03512.4895,W,161857,A*24
$GPGSV,3,2,11,15,20.0,13.0,24.0,18,10.0,331.0,16.0,20,65.0,15.0,36.0,21,21.0,291.0,20.0*7c
$GPGSV,3,3,11,24,37.0,343.0,31.0,25,44.0,199.0,47.0,29,18.0,215.0,33.0*52
$GPGSA,A,3,2,5,12,,15,,20,21,24,25,29,,,,,*3b
$GPGSV,3,1,11,2,13.0,149.0,20.0,5,45.0,116.0,36.0,12,71.0,127.0,35.0,13,9.0,48.0,0.0*42
$GPGLL,0549.2732,S,03512.4930,W,161859,A*20
$GPGSV,3,2,11,15,20.0,13.0,25.0,18,10.0,331.0,18.0,20,65.0,15.0,37.0,21,21.0,291.0,19.0*78
$GPGSV,3,2,11,15,20.0,12.0,33.0,18,9.0,331.0,18.0,20,65.0,14.0,33.0,21,21.0,292.0,27.0*4d
$GPGSV,3,3,11,24,38.0,342.0,32.0,25,43.0,199.0,45.0,29,18.0,216.0,30.0*5a
$GPGSA,A,3,2,5,12,,15,,20,21,24,25,29,,,,,*3b
$GPGSV,3,1,11,2,13.0,149.0,24.0,5,46.0,115.0,28.0,12,70.0,129.0,32.0,13,9.0,47.0,18.0*77
$GPGLL,0548.8718,S,03512.3473,W,161704,A*29
$GPGSV,3,2,11,15,20.0,12.0,34.0,18,9.0,331.0,18.0,20,65.0,14.0,34.0,21,21.0,292.0,28.0*42
$GPGSV,3,1,11,2,13.0,149.0,22.0,5,46.0,115.0,26.0,12,70.0,129.0,33.0,13,9.0,47.0,17.0*71
$GPGLL,0548.8781,S,03512.3494,W,161706,A*22
$GPGSV,3,2,11,15,20.0,12.0,33.0,18,9.0,331.0,19.0,20,65.0,14.0,35.0,21,21.0,292.0,27.0*4a
$GPGSV,3,1,11,2,13.0,149.0,19.0,5,46.0,115.0,28.0,12,70.0,129.0,33.0,13,9.0,47.0,24.0*77
$GPGLL,0548.8848,S,03512.3518,W,161708,A*23
$GPGSV,3,2,11,15,20.0,12.0,33.0,18,9.0,331.0,19.0,20,65.0,14.0,35.0,21,21.0,292.0,27.0*4a
$GPGSV,3,3,11,24,38.0,342.0,32.0,25,43.0,199.0,46.0,29,18.0,216.0,30.0*59
$GPGSA,A,3,2,5,12,,15,,20,21,24,25,29,,,,,*3b
$GPGLL,0548.8411,S,03512.3353,W,161641,A*26
$GPRMC,161641,A,0548.8411,S,03512.3353,W,0.10605723811092273,188.69,180116,,*21
$GPGSA,A,3,2,5,12,,15,,20,21,24,25,29,,,,,*3b
$GPGSV,3,1,11,2,13.0,149.0,18.0,5,46.0,115.0,33.0,12,70.0,129.0,31.0,13,9.0,47.0,21.0*7b
$GPGSV,3,3,11,24,38.0,342.0,31.0,25,43.0,199.0,46.0,29,18.0,216.0,30.0*5a
$GPGLL,0548.8410,S,03512.3353,W,161642,A*24
$GPRMC,161642,A,0548.8410,S,03512.3353,W,0.0,188.69,180116,,*22
$GPGSV,3,1,11,2,13.0,149.0,16.0,5,46.0,115.0,33.0,12,70.0,129.0,30.0,13,9.0,47.0,20.0*75
$GPGSV,3,2,11,15,20.0,12.0,31.0,18,9.0,331.0,33.0,20,65.0,14.0,37.0,21,21.0,292.0,29.0*4c
$GPGSV,3,3,11,24,38.0,342.0,32.0,25,43.0,199.0,45.0,29,18.0,216.0,29.0*52
$GPGGA,161644,0548.8407,S,03512.3353,W,1,9,2.5,54.4,M,,,,*14
$GPGLL,0548.8407,S,03512.3353,W,161644,A*24
$GPRMC,161644,A,0548.8407,S,03512.3353,W,0.0,188.69,180116,,*22
$GPGSA,A,3,2,5,12,,15,,20,21,24,25,29,,,,,*3b
$GPGSV,3,2,11,15,20.0,12.0,30.0,18,9.0,331.0,21.0,20,64.0,13.0,33.0,21,20.0,293.0,24.0*41
$GPGSV,3,3,11,24,39.0,341.0,23.0,25,42.0,199.0,22.0,29,18.0,217.0,20.0*58
$GPGSA,A,3,2,5,12,,15,,20,21,24,25,,,,,,*30
$GPGSV,3,1,11,2,14.0,150.0,19.0,5,46.0,113.0,49.0,12,70.0,132.0,31.0,13,9.0,47.0,22.0*77
$GPGLL,0548.6758,S,03512.5592,W,161458,A*21
$GPGSV,3,1,11,2,14.0,150.0,26.0,5,46.0,113.0,49.0,12,70.0,132.0,31.0,13,9.0,47.0,21.0*78
$GPGSV,3,2,11,15,20.0,12.0,30.0,18,9.0,331.0,24.0,20,64.0,13.0,25.0,21,20.0,293.0,24.0*43
$GPGLL,0548.6789,S,03512.5499,W,161500,A*2b
$GPRMC,161500,A,0548.6789,S,03512.5499,W,17.33935809172639,107.38,180116,,*2e
$GPGSA,A,3,2,5,12,,15,,20,21,24,25,,,,,,*30
$GPGSV,3,1,11,2,14.0,150.0,26.0,5,46.0,113.0,49.0,12,70.0,132.0,32.0,13,9.0,47.0,21.0*7b
$GPGLL,0548.6824,S,03512.5409,W,161502,A*28
$GPGSV,3,2,11,15,20.0,12.0,26.0,18,9.0,331.0,24.0,20,64.0,13.0,26.0,21,20.0,293.0,27.0*44
$GPGSV,3,3,11,24,39.0,341.0,20.0,25,42.0,199.0,21.0,29,18.0,217.0,17.0*5c
$GPGLL,0548.8407,S,03512.3353,W,161645,A*25
$GPGSV,3,2,11,15,20.0,12.0,32.0,18,9.0,331.0,32.0,20,65.0,14.0,37.0,21,21.0,292.0,31.0*47
$GPGSV,3,3,11,24,38.0,342.0,32.0,25,43.0,199.0,45.0,29,18.0,216.0,29.0*52
$GPGGA,161647,0548.8407,S,03512.3353,W,1,9,2.4,54.4,M,,,,*16
$GPGLL,0548.8407,S,03512.3353,W,161647,A*27
$GPGSV,3,2,11,15,20.0,12.0,32.0,18,9.0,331.0,25.0,20,65.0,14.0,36.0,21,21.0,292.0,30.0*41
$GPGSV,3,1,11,2,13.0,149.0,17.0,5,46.0,115.0,34.0,12,70.0,129.0,29.0,13,9.0,47.0,21.0*7a
$GPGSV,3,1,11,2,13.0,149.0,17.0,5,46.0,115.0,34.0,12,70.0,129.0,29.0,13,9.0,47.0,21.0*7a
$GPGGA,161649,0548.8407,S,03512.3353,W,1,9,2.4,54.4,M,,,,*18
$GPGLL,0548.8407,S,03512.3353,W,161649,A*29
$GPRMC,161649,A,0548.8407,S,03512.3353,W,0.0,188.69,180116,,*2f
$GPGSA,A,3,2,5,12,,15,,20,21,24,25,29,,,,,*3b
$GPGSV,3,1,11,2,13.0,149.0,17.0,5,46.0,115.0,34.0,12,70.0,129.0,29.0,13,9.0,47.0,20.0*7b
$GPGSV,3,3,11,24,38.0,342.0,33.0,25,43.0,199.0,46.0,29,18.0,216.0,29.0*50
$GPGSV,3,1,11,2,13.0,149.0,26.0,5,46.0,115.0,33.0,12,70.0,129.0,36.0,13,9.0,47.0,19.0*7a
$GPGLL,0549.0347,S,03512.4052,W,161742,A*2c
$GPGSV,3,2,11,15,20.0,12.0,28.0,18,9.0,331.0,17.0,20,65.0,14.0,27.0,21,21.0,292.0,25.0*4f
$GPGSV,3,3,11,24,38.0,342.0,31.0,25,43.0,199.0,46.0,29,18.0,216.0,22.0*59
$GPGSA,A,3,2,5,12,,15,,20,21,24,25,,,,,,*30
$GPGSV,3,1,11,2,13.0,149.0,25.0,5,46.0,115.0,31.0,12,70.0,129.0,35.0,13,9.0,47.0,18.0*79
$GPGLL,0549.0440,S,03512.4092,W,161744,A*26
$GPGSV,3,2,11,15,20.0,12.0,28.0,18,9.0,331.0,17.0,20,65.0,14.0,27.0,21,21.0,292.0,17.0*4e
$GPGSV,3,3,11,24,38.0,342.0,31.0,25,43.0,199.0,46.0,29,18.0,216.0,21.0*5a
$GPGSA,A,3,2,5,12,,15,,20,21,24,25,29,,,,,*3b
$GPGSV,3,1,11,2,13.0,149.0,24.0,5,46.0,115.0,25.0,12,70.0,129.0,36.0,13,9.0,47.0,16.0*70
$GPGSV,3,2,11,15,20.0,12.0,29.0,18,9.0,331.0,17.0,20,65.0,14.0,27.0,21,21.0,292.0,18.0*40
$GPGSV,3,3,11,24,38.0,342.0,31.0,25,43.0,199.0,46.0,29,18.0,216.0,29.0*52
$GPGGA,161746,0549.0538,S,03512.4141,W,1,8,3.1,61.8,M,,,,*1b
$GPGLL,0548.7793,S,03512.6275,W,161419,A*2f
$GPRMC,161419,A,0548.7793,S,03512.6275,W,24.048978433425056,16.73,180116,,*2c
$GPGSA,A,3,2,5,12,,15,,20,21,24,25,29,,,,,*3b
$GPGSV,3,1,11,2,14.0,150.0,17.0,5,46.0,113.0,25.0,12,70.0,132.0,37.0,13,9.0,47.0,18.0*7c
$GPGLL,0548.7731,S,03512.6253,W,161420,A*29
$GPGSV,3,2,11,15,20.0,12.0,35.0,18,8.0,330.0,20.0,20,63.0,13.0,35.0,21,20.0,294.0,24.0*43
$GPGSV,3,3,11,24,39.0,340.0,32.0,25,41.0,199.0,30.0,29,18.0,217.0,21.0*58
$GPGLL,0548.7614,S,03512.6212,W,161422,A*28
$GPGSV,3,2,11,15,20.0,12.0,34.0,18,9.0,331.0,20.0,20,63.0,13.0,35.0,21,20.0,294.0,23.0*45
$GPGSV,3,3,11,24,39.0,340.0,36.0,25,41.0,199.0,30.0,29,18.0,217.0,28.0*55
$GPGSA,A,3,2,5,12,,15,,20,21,24,25,29,,,,,*3b
$GPGSV,3,1,11,2,14.0,150.0,20.0,5,46.0,113.0,25.0,12,70.0,132.0,37.0,13,9.0,47.0,18.0*78
$GPGSV,3,2,11,15,20.0,12.0,34.0,18,9.0,331.0,19.0,20,64.0,13.0,35.0,21,20.0,294.0,24.0*4f
$GPGSV,3,3,11,24,39.0,340.0,37.0,25,41.0,199.0,29.0,29,18.0,217.0,20.0*54
$GPGSA,A,1,,,,,,,,,,,,,,,,*32
$GPGSV,3,1,11,2,17.0,152.0,0.0,5,48.0,107.0,0.0,12,66.0,143.0,0.0,13,9.0,43.0,0.0*7f
$GPGSV,3,2,11,15,19.0,8.0,0.0,18,5.0,330.0,0.0,20,59.0,9.0,0.0,21,18.0,297.0,0.0*41
$GPGSV,3,3,11,24,42.0,337.0,0.0,25,38.0,200.0,0.0,29,17.0,221.0,0.0*62
$GPGSA,A,1,,,,,,,,,,,,,,,,*32
$GPGSV,3,1,11,2,17.0,152.0,0.0,5,48.0,107.0,30.0,12,66.0,143.0,27.0,13,9.0,43.0,0.0*79
$GPGSV,3,2,11,15,19.0,8.0,0.0,18,5.0,330.0,0.0,20,59.0,9.0,42.0,21,18.0,297.0,0.0*77
$GPGSV,3,3,11,24,42.0,337.0,42.0,25,38.0,200.0,0.0,29,17.0,221.0,0.0*54
$GPGSA,A,3,,5,12,,,,20,,24,,,,,,,*02
$GPGSV,3,1,11,2,17.0,152.0,0.0,5,48.0,107.0,37.0,12,66.0,143.0,31.0,13,9.0,43.0,0.0*79
$GPGSV,3,2,11,15,19.0,8.0,32.0,18,5.0,330.0,0.0,20,59.0,9.0,44.0,21,18.0,297.0,0.0*40
$GPGLL,0550.6843,S,03512.9029,W,160435,A*2e
$GPRMC,160435,A,0550.6843,S,03512.9029,W,0.03701997694958175,0.0,180116,,*18
$GPGSA,A,3,,5,12,,,,20,,24,,,,,,,*02
$GPGSV,3,2,11,15,20.0,12.0,32.0,18,9.0,331.0,33.0,20,65.0,14.0,36.0,21,21.0,292.0,30.0*46
$GPGSV,3,1,11,2,13.0,149.0,18.0,5,46.0,115.0,34.0,12,70.0,129.0,33.0,13,9.0,47.0,20.0*7f
$GPGLL,0548.8427,S,03512.3361,W,161653,A*21
$GPGSV,3,2,11,15,20.0,12.0,32.0,18,9.0,331.0,31.0,20,65.0,14.0,35.0,21,21.0,292.0,29.0*4f
$GPGSV,3,3,11,24,38.0,342.0,35.0,25,43.0,199.0,45.0,29,18.0,216.0,33.0*5e
$GPGSA,A,3,2,5,12,,15,,20,21,24,25,29,,,,,*3b
$GPGSV,3,1,11,2,13.0,149.0,20.0,5,46.0,115.0,34.0,12,70.0,129.0,35.0,13,9.0,47.0,22.0*70
$GPGLL,0548.8460,S,03512.3374,W,161655,A*20
$GPGSV,3,2,11,15,20.0,12.0,33.0,18,9.0,331.0,24.0,20,65.0,14.0,36.0,21,21.0,292.0,27.0*47
$GPGSV,3,1,11,2,13.0,149.0,22.0,5,46.0,115.0,33.0,12,70.0,129.0,37.0,13,9.0,47.0,23.0*76
$GPGLL,0548.8501,S,03512.3389,W,161657,A*26
$GPGSV,3,2,11,15,20.0,12.0,33.0,18,9.0,331.0,25.0,20,65.0,14.0,35.0,21,21.0,292.0,18.0*49
$GPGSV,3,3,11,24,38.0,342.0,33.0,25,43.0,199.0,45.0,29,18.0,216.0,28.0*52
$GPGSA,A,3,2,5,12,,15,,20,21,24,25,29,,,,,*3b
$GPGSV,3,1,11,2,14.0,150.0,18.0,5,46.0,113.0,49.0,12,70.0,132.0,33.0,13,9.0,47.0,20.0*76
$GPGSV,3,2,11,15,20.0,12.0,26.0,18,9.0,331.0,19.0,20,64.0,13.0,21.0,21,20.0,293.0,28.0*42
$GPGSV,3,3,11,24,39.0,341.0,30.0,25,42.0,199.0,22.0,29,18.0,217.0,21.0*5b
$GPGSA,A,3,2,5,12,,15,,20,21,24,25,,,,,,*30
$GPGSV,3,1,11,2,14.0,150.0,20.0,5,46.0,113.0,49.0,12,70.0,132.0,34.0,13,9.0,47.0,21.0*7b
$GPGLL,0548.6919,S,03512.5188,W,161507,A*2e
$GPGSV,3,2,11,15,20.0,12.0,28.0,18,9.0,331.0,18.0,20,64.0,13.0,23.0,21,20.0,293.0,27.0*40
$GPGSV,3,2,11,15,20.0,12.0,29.0,18,9.0,331.0,18.0,20,64.0,13.0,24.0,21,20.0,293.0,26.0*47
$GPGSV,3,2,11,15,20.0,12.0,29.0,18,9.0,331.0,20.0,20,64.0,13.0,26.0,21,20.0,293.0,25.0*4d
$GPGSV,3,1,11,2,14.0,150.0,19.0,5,46.0,113.0,49.0,12,70.0,132.0,35.0,13,9.0,47.0,29.0*78
$GPGSV,3,2,11,15,20.0,12.0,29.0,18,9.0,331.0,20.0,20,64.0,13.0,27.0,21,20.0,293.0,26.0*4f
$GPGSV,3,3,11,24,39.0,341.0,31.0,25,42.0,199.0,24.0,29,18.0,217.0,24.0*59
$GPGGA,161511,0548.6957,S,03512.5103,W,1,7,3.3,47.9,M,,,,*16
$GPGLL,0548.6957,S,03512.5103,W,161511,A*20
$GPGLL,0548.6970,S,03512.5095,W,161514,A*2e
$GPRMC,161514,A,0548.6970,S,03512.5095,W,0.07904265749906354,103.41,180116,,*2d
$GPGSA,A,3,2,5,12,,15,,20,21,24,25,,,,,,*30
$GPGSV,3,1,11,2,14.0,150.0,18.0,5,46.0,113.0,49.0,12,70.0,132.0,28.0,13,9.0,47.0,27.0*7b
$GPGSV,3,2,11,15,20.0,12.0,30.0,18,9.0,331.0,22.0,20,64.0,13.0,25.0,21,20.0,293.0,28.0*49
$GPGSV,3,3,11,24,39.0,341.0,30.0,25,42.0,199.0,26.0,29,18.0,217.0,20.0*5e
$GPGSA,A,3,2,5,12,,15,,20,21,24,25,,,,,,*30
$GPGSV,3,2,11,15,20.0,12.0,31.0,18,9.0,331.0,22.0,20,64.0,13.0,25.0,21,20.0,293.0,27.0*47
$GPGGA,161515,0548.6969,S,03512.5095,W,1,8,3.1,47.5,M,,,,*10
$GPGLL,0548.6969,S,03512.5095,W,161515,A*27
$GPGSV,3,2,11,15,20.0,12.0,31.0,18,9.0,331.0,21.0,20,64.0,13.0,25.0,21,20.0,293.0,26.0*45
$GPGLL,0548.6964,S,03512.5091,W,161517,A*2c
$GPGSV,3,2,11,15,20.0,12.0,30.0,18,9.0,331.0,20.0,20,64.0,13.0,27.0,21,20.0,293.0,26.0*47
$GPGSV,3,1,11,2,14.0,150.0,18.0,5,46.0,113.0,49.0,12,70.0,132.0,22.0,13,9.0,47.0,24.0*72
$GPGSV,3,1,11,2,13.0,149.0,26.0,5,46.0,115.0,37.0,12,70.0,129.0,36.0,13,9.0,47.0,16.0*71
$GPGGA,161747,0549.0590,S,03512.4170,W,1,9,3.0,61.9,M,,,,*1b
$GPGLL,0549.0643,S,03512.4198,W,161748,A*20
$GPGSV,3,2,11,15,20.0,12.0,29.0,18,9.0,331.0,15.0,20,65.0,14.0,27.0,21,21.0,292.0,21.0*48
$GPGSV,3,3,11,24,38.0,342.0,21.0,25,43.0,199.0,46.0,29,18.0,216.0,22.0*58
$GPGSA,A,3,2,5,12,,15,,20,21,24,25,29,,,,,*3b
$GPGSV,3,1,11,2,13.0,149.0,20.0,5,46.0,115.0,35.0,12,70.0,129.0,35.0,13,9.0,47.0,17.0*77
$GPGLL,0549.0697,S,03512.4225,W,161749,A*2d
$GPGSV,3,1,11,2,13.0,149.0,19.0,5,46.0,115.0,34.0,12,70.0,129.0,35.0,13,9.0,47.0,17.0*7c
$GPGSV,3,1,11,2,13.0,149.0,18.0,5,46.0,115.0,33.0,12,70.0,129.0,34.0,13,9.0,47.0,25.0*7a
$GPGLL,0549.0802,S,03512.4269,W,161751,A*2e
$GPRMC,161751,A,0549.0802,S,03512.4269,W,19.33443404833028,201.9,180116,,*15
$GPGSA,A,3,2,5,12,,15,,20,21,24,25,29,,,,,*3b
$GPGSV,3,1,11,2,13.0,149.0,17.0,5,46.0,115.0,33.0,12,70.0,129.0,34.0,13,9.0,47.0,21.0*71
$GPGSV,3,2,11,15,20.0,12.0,25.0,18,9.0,331.0,13.0,20,65.0,14.0,30.0,21,21.0,292.0,24.0*41
$GPGSV,3,3,11,24,38.0,342.0,28.0,25,43.0,199.0,46.0,29,18.0,216.0,28.0*5b
$GPGSA,A,3,2,5,12,,15,,20,21,24,25,29,,,,,*3b
$GPGSV,3,1,11,2,13.0,149.0,17.0,5,46.0,115.0,34.0,12,70.0,129.0,35.0,13,9.0,47.0,23.0*75
$GPGLL,0549.0958,S,03512.4321,W,161754,A*28
$GPGSV,3,2,11,15,20.0,12.0,26.0,18,9.0,331.0,0.0,20,65.0,14.0,21.0,21,21.0,292.0,32.0*77
$GPGSV,3,1,11,2,13.0,149.0,18.0,5,46.0,115.0,23.0,12,70.0,129.0,35.0,13,9.0,47.0,16.0*7a
$GPGGA,161756,0549.1065,S,03512.4360,W,1,8,2.7,61.0,M,,,,*18
$GPGLL,0549.1065,S,03512.4360,W,161756,A*29
$GPRMC,161756,A,0549.1065,S,03512.4360,W,20.518072609238168,200.98,180116,,*10
$GPGSA,A,3,2,5,12,,15,,20,21,24,25,29,,,,,*3b
$GPGSV,3,1,11,2,13.0,149.0,19.0,5,45.0,116.0,35.0,12,70.0,129.0,36.0,13,9.0,47.0,16.0*7f
$GPGSV,3,3,11,24,38.0,342.0,29.0,25,43.0,199.0,46.0,29,18.0,216.0,27.0*55
$GPGSV,3,1,11,2,13.0,149.0,17.0,5,45.0,116.0,34.0,12,70.0,129.0,36.0,13,9.0,47.0,15.0*73
$GPGLL,0550.4083,S,03513.0192,W,160631,A*27
$GPGSV,3,1,11,2,17.0,152.0,19.0,5,48.0,107.0,38.0,12,66.0,143.0,37.0,13,9.0,43.0,27.0*7d
$GPGLL,0550.4050,S,03513.0158,W,160632,A*2c
$GPRMC,160632,A,0550.4050,S,03513.0158,W,16.330812281296282,47.38,180116,,*2e
$GPGSA,A,3,,5,12,,,,20,21,24,25,,,,,,*06
$GPGSV,3,1,11,2,17.0,152.0,18.0,5,48.0,108.0,38.0,12,66.0,143.0,36.0,13,9.0,43.0,27.0*72
$GPGSV,3,1,11,2,17.0,152.0,35.0,5,48.0,108.0,38.0,12,66.0,143.0,36.0,13,9.0,43.0,28.0*72
$GPGSV,3,2,11,15,19.0,8.0,28.0,18,5.0,330.0,17.0,20,59.0,10.0,32.0,21,18.0,297.0,23.0*75
$GPGSV,3,3,11,24,42.0,337.0,39.0,25,38.0,200.0,31.0,29,17.0,221.0,19.0*52
$GPGGA,160634,0550.3984,S,03513.0086,W,1,6,3.0,79.4,M,,,,*1b
$GPGLL,0550.3984,S,03513.0086,W,160634,A*2f
$GPGSV,3,1,11,2,17.0,152.0,22.0,5,48.0,108.0,39.0,12,66.0,143.0,36.0,13,9.0,43.0,28.0*75
$GPGLL,0550.3954,S,03513.0052,W,160635,A*2a
$GPRMC,160635,A,0550.3954,S,03513.0052,W,15.955609822683334,47.63,180116,,*27
$GPGLL,0549.9652,S,03513.0686,W,161026,A*2b
$GPGSV,3,2,11,15,19.0,9.0,40.0,18,7.0,330.0,16.0,20,61.0,11.0,31.0,21,19.0,295.0,24.0*74
$GPGSV,3,3,11,24,41.0,339.0,35.0,25,40.0,199.0,29.0,29,17.0,219.0,20.0*57
$GPGSA,A,3,2,5,12,,15,,20,21,24,25,29,,,,,*3b
$GPGSV,3,1,11,2,15.0,151.0,20.0,5,47.0,111.0,34.0,12,68.0,136.0,29.0,13,9.0,44.0,17.0*75
$GPGLL,0549.9556,S,03513.0648,W,161028,A*20
$GPGSA,A,3,2,5,12,,15,,20,21,24,25,29,,,,,*3b
$GPGLL,0549.9459,S,03513.0608,W,161030,A*23
$GPGSV,3,1,11,2,15.0,151.0,22.0,5,47.0,111.0,34.0,12,68.0,136.0,26.0,13,9.0,45.0,14.0*7a
$GPGLL,0549.9353,S,03513.0567,W,161032,A*26
$GPGSV,3,2,11,15,19.0,10.0,38.0,18,7.0,330.0,17.0,20,61.0,11.0,34.0,21,19.0,295.0,21.0*42
$GPGSV,3,3,11,24,41.0,339.0,36.0,25,40.0,199.0,27.0,29,17.0,219.0,24.0*5e
$GPGSA,A,3,2,5,12,,15,,20,21,24,25,29,,,,,*3b
$GPGSV,3,1,11,2,15.0,151.0,22.0,5,47.0,111.0,34.0,12,68.0,136.0,20.0,13,9.0,45.0,13.0*7b
$GPGSV,3,2,11,15,20.0,12.0,28.0,18,9.0,331.0,22.0,20,64.0,13.0,27.0,21,20.0,293.0,26.0*4c
$GPGLL,0548.6964,S,03512.5091,W,161519,A*22
$GPRMC,161519,A,0548.6964,S,03512.5091,W,0.0,103.41,180116,,*2d
$GPGSA,A,3,2,5,12,,15,,20,21,,25,,,,,,*36
$GPGSV,3,1,11,2,14.0,150.0,17.0,5,46.0,113.0,49.0,12,70.0,132.0,25.0,13,9.0,47.0,23.0*7d
$GPGLL,0548.6964,S,03512.5091,W,161520,A*28
$GPRMC,161520,A,0548.6964,S,03512.5091,W,0.0,103.41,180116,,*27
$GPGLL,0548.6964,S,03512.5091,W,161522,A*2a
$GPGSV,3,2,11,15,20.0,12.0,27.0,18,9.0,331.0,25.0,20,64.0,13.0,26.0,21,20.0,293.0,26.0*45
$GPGSV,3,3,11,24,39.0,341.0,28.0,25,42.0,199.0,28.0,29,18.0,217.0,24.0*5d
$GPGSA,A,3,2,5,12,,15,,20,21,24,25,,,,,,*30
$GPGSV,3,1,11,2,14.0,150.0,17.0,5,46.0,113.0,48.0,12,70.0,132.0,24.0,13,9.0,47.0,24.0*7a
$GPGLL,0548.6964,S,03512.5091,W,161524,A*2c
$GPGSV,3,2,11,15,20.0,12.0,25.0,18,9.0,331.0,27.0,20,64.0,13.0,29.0,21,20.0,293.0,25.0*49
$GPGLL,0549.0117,S,03512.7066,W,161253,A*2a
$GPRMC,161253,A,0549.0117,S,03512.7066,W,15.525378399299683,20.48,180116,,*2a
$GPGSA,A,3,2,5,12,,15,,20,21,24,25,29,,,,,*3b
$GPGSV,3,1,11,2,15.0,150.0,20.0,5,47.0,112.0,31.0,12,69.0,134.0,31.0,13,9.0,46.0,17.0*7a
$GPGSV,3,2,11,15,20.0,11.0,28.0,18,8.0,330.0,22.0,20,63.0,13.0,32.0,21,20.0,294.0,22.0*4f
$GPGSV,3,3,11,24,39.0,340.0,28.0,25,41.0,199.0,28.0,29,18.0,217.0,18.0*50
$GPGSA,A,3,2,5,12,,15,,20,21,24,25,29,,,,,*3b
$GPGLL,0549.0059,S,03512.7052,W,161255,A*20
$GPGSV,3,2,11,15,20.0,11.0,31.0,18,8.0,330.0,22.0,20,63.0,13.0,31.0,21,20.0,294.0,23.0*45
$GPGSV,3,1,11,2,15.0,150.0,22.0,5,47.0,112.0,34.0,12,69.0,134.0,30.0,13,9.0,46.0,19.0*72
$GPGLL,0549.0026,S,03512.7039,W,161257,A*27
$GPGSV,3,1,11,2,15.0,150.0,21.0,5,47.0,112.0,34.0,12,69.0,134.0,30.0,13,9.0,46.0,20.0*7b
$GPGSV,3,1,11,2,15.0,150.0,22.0,5,47.0,112.0,33.0,12,69.0,134.0,31.0,13,9.0,46.0,20.0*7e
$GPGSV,3,2,11,15,20.0,11.0,33.0,18,8.0,330.0,22.0,20,63.0,13.0,33.0,21,20.0,294.0,22.0*44
$GPGSV,3,2,11,15,20.0,13.0,24.0,18,10.0,331.0,18.0,20,65.0,15.0,35.0,21,21.0,291.0,23.0*72
$GPGSV,3,3,11,24,37.0,343.0,30.0,25,44.0,199.0,47.0,29,18.0,215.0,31.0*51
$GPGSA,A,3,2,5,12,,15,,20,21,24,25,29,,,,,*3b
$GPGSV,3,1,11,2,13.0,149.0,27.0,5,45.0,116.0,33.0,12,71.0,127.0,35.0,13,9.0,48.0,17.0*76
$GPGLL,0549.3573,S,03512.5243,W,161912,A*26
$GPGSV,3,2,11,15,20.0,13.0,22.0,18,10.0,331.0,17.0,20,65.0,15.0,35.0,21,21.0,291.0,27.0*7f
$GPGSV,3,1,11,2,13.0,149.0,20.0,5,45.0,116.0,34.0,12,71.0,127.0,34.0,13,9.0,48.0,16.0*76
$GPGLL,0549.3728,S,03512.5297,W,161914,A*25
$GPRMC,161914,A,0549.3728,S,03512.5297,W,29.222770761335287,200.34,180116,,*19
$GPGSA,A,3,2,5,12,,15,,20,21,24,25,29,,,,,*3b
$GPGSV,3,1,11,2,13.0,149.0,22.0,5,45.0,116.0,34.0,12,71.0,127.0,34.0,13,9.0,48.0,23.0*72
$GPGSV,3,1,11,2,13.0,149.0,29.0,5,45.0,116.0,33.0,12,71.0,127.0,34.0,13,9.0,48.0,25.0*78
$GPGLL,0549.3882,S,03512.5354,W,161916,A*26
$GPRMC,161916,A,0549.3882,S,03512.5354,W,29.17474450553463,200.77,180116,,*25
$GPGSV,3,1,11,2,14.0,150.0,25.0,5,46.0,113.0,49.0,12,70.0,132.0,24.0,13,9.0,47.0,0.0*4c
$GPGSV,3,2,11,15,20.0,12.0,16.0,18,9.0,331.0,13.0,20,64.0,13.0,26.0,21,20.0,293.0,20.0*44
$GPGSV,3,3,11,24,39.0,341.0,24.0,25,42.0,199.0,27.0,29,18.0,217.0,31.0*5a
$GPGGA,161554,0548.7342,S,03512.3840,W,1,8,3.5,51.6,M,,,,*11
$GPGLL,0548.7342,S,03512.3840,W,161554,A*26
$GPRMC,161554,A,0548.7342,S,03512.3840,W,14.083600798982149,110.47,180116,,*1c
$GPGSA,A,3,2,5,12,,15,,20,21,,25,,,,,,*36
$GPGSV,3,2,11,15,20.0,12.0,17.0,18,9.0,331.0,0.0,20,64.0,13.0,25.0,21,20.0,293.0,19.0*7e
$GPGSV,3,1,11,2,14.0,150.0,26.0,5,46.0,113.0,49.0,12,70.0,132.0,24.0,13,9.0,47.0,0.0*4f
$GPGLL,0548.7386,S,03512.3736,W,161557,A*23
$GPGSV,3,1,11,2,14.0,150.0,25.0,5,46.0,113.0,49.0,12,70.0,132.0,24.0,13,9.0,47.0,0.0*4c
$GPGSV,3,1,11,2,14.0,150.0,24.0,5,46.0,113.0,49.0,12,70.0,132.0,26.0,13,9.0,47.0,0.0*4f
$GPGLL,0548.7413,S,03512.3656,W,161559,A*21
$GPRMC,161559,A,0548.7413,S,03512.3656,W,15.684464560604239,109.27,180116,,*15
$GPGSV,3,2,11,15,20.0,11.0,31.0,18,8.0,330.0,20.0,20,63.0,13.0,36.0,21,20.0,294.0,29.0*4a
$GPGSV,3,3,11,24,39.0,340.0,33.0,25,41.0,199.0,31.0,29,18.0,217.0,17.0*5d
$GPGSA,A,3,2,5,12,,15,,20,21,24,25,29,,,,,*3b
$GPGSV,3,1,11,2,15.0,150.0,26.0,5,47.0,112.0,34.0,12,69.0,134.0,29.0,13,9.0,46.0,24.0*70
$GPGLL,0549.0008,S,03512.7048,W,161323,A*2f
$GPRMC,161323,A,0549.0008,S,03512.7048,W,0.0,22.34,180116,,*10
$GPGSA,A,3,2,5,12,,15,,20,21,24,25,29,,,,,*3b
$GPGSV,3,2,11,15,20.0,11.0,29.0,18,8.0,330.0,20.0,20,63.0,13.0,35.0,21,20.0,294.0,28.0*41
$GPGSV,3,3,11,24,39.0,340.0,32.0,25,41.0,199.0,30.0,29,18.0,217.0,17.0*5d
$GPGSA,A,3,2,5,12,,15,,20,21,24,25,29,,,,,*3b
$GPGSV,3,1,11,2,15.0,150.0,26.0,5,47.0,112.0,34.0,12,69.0,134.0,29.0,13,9.0,46.0,23.0*77
$GPGSV,3,2,11,15,20.0,11.0,29.0,18,8.0,330.0,20.0,20,63.0,13.0,35.0,21,20.0,294.0,29.0*40
$GPGSV,3,3,11,24,39.0,340.0,33.0,25,41.0,199.0,31.0,29,18.0,217.0,17.0*5d
$GPGGA,161325,0549.0008,S,03512.7048,W,1,9,2.4,54.0,M,,,,*1c
$GPGSV,3,1,11,2,14.0,150.0,18.0,5,46.0,113.0,48.0,12,70.0,132.0,33.0,13,9.0,47.0,20.0*77
$GPGSV,3,2,11,15,20.0,12.0,27.0,18,9.0,331.0,25.0,20,64.0,13.0,26.0,21,20.0,293.0,25.0*46
$GPGSV,3,3,11,24,39.0,341.0,29.0,25,42.0,199.0,29.0,29,18.0,217.0,26.0*5f
$GPGSA,A,3,2,5,12,,15,,20,21,,25,,,,,,*36
$GPGSV,3,1,11,2,14.0,150.0,19.0,5,46.0,113.0,48.0,12,70.0,132.0,33.0,13,9.0,47.0,18.0*7d
$GPGLL,0548.6980,S,03512.4987,W,161528,A*25
$GPGSV,3,2,11,15,20.0,12.0,27.0,18,9.0,331.0,23.0,20,64.0,13.0,25.0,21,20.0,293.0,24.0*42
$GPGSV,3,2,11,15,20.0,12.0,27.0,18,9.0,331.0,21.0,20,64.0,13.0,25.0,21,20.0,293.0,24.0*40
$GPGSV,3,3,11,24,39.0,341.0,28.0,25,42.0,199.0,23.0,29,18.0,217.0,20.0*52
$GPGSA,A,3,2,5,12,,15,,20,21,24,25,,,,,,*30
$GPGSV,3,1,11,2,14.0,150.0,24.0,5,46.0,113.0,48.0,12,70.0,132.0,30.0,13,9.0,47.0,15.0*7d
$GPGLL,0548.7018,S,03512.4880,W,161532,A*21
$GPRMC,161532,A,0548.7018,S,03512.4880,W,9.159943752446308,106.33,180116,,*29
$GPGSA,A,3,2,5,12,,15,,20,21,,25,,,,,,*36
$GPGSV,3,1,11,2,14.0,150.0,25.0,5,46.0,113.0,48.0,12,70.0,132.0,26.0,13,9.0,47.0,15.0*7b
$GPGSV,3,2,11,15,20.0,12.0,27.0,18,9.0,331.0,22.0,20,64.0,13.0,24.0,21,20.0,293.0,21.0*47
$GPGSV,3,3,11,24,39.0,341.0,26.0,25,42.0,199.0,31.0,29,18.0,217.0,24.0*5b
$GPGGA,161534,0548.7025,S,03512.4824,W,1,7,3.2,49.1,M,,,,*16
$GPGLL,0548.7025,S,03512.4824,W,161534,A*27
$GPRMC,161534,A,0548.7025,S,03512.4824,W,10.544690289862723,101.94,180116,,*10
$GPGSA,A,3,2,5,12,,15,,20,21,,25,29,,,,,*3d
$GPGLL,0548.7034,S,03512.4789,W,161535,A*2e
$GPRMC,161535,A,0548.7034,S,03512.4789,W,12.778896476404691,104.5,180116,,*21
$GPGSA,A,3,2,5,12,,15,,20,21,24,25,29,,,,,*3b
$GPGSV,3,1,11,2,14.0,150.0,25.0,5,46.0,113.0,48.0,12,70.0,132.0,27.0,13,9.0,47.0,13.0*7c
$GPGSV,3,1,11,2,14.0,150.0,25.0,5,46.0,113.0,48.0,12,70.0,132.0,27.0,13,9.0,47.0,13.0*7c
$GPGLL,0548.7065,S,03512.4715,W,161537,A*2d
$GPRMC,161537,A,0548.7065,S,03512.4715,W,13.756423669272575,108.58,180116,,*1b
$GPGLL,0549.2609,S,03512.7977,W,161212,A*2c
$GPRMC,161212,A,0549.2609,S,03512.7977,W,27.27071766900058,20.98,180116,,*12
$GPGSA,A,3,2,5,12,,15,,20,21,24,25,29,,,,,*3b
$GPGSV,3,1,11,2,15.0,150.0,23.0,5,47.0,111.0,23.0,12,68.0,136.0,27.0,13,9.0,45.0,33.0*78
$GPGLL,0549.2535,S,03512.7950,W,161213,A*24
$GPRMC,161213,A,0549.2535,S,03512.7950,W,28.343295397507287,20.62,180116,,*28
$GPGSA,A,3,2,5,12,,15,,20,21,24,25,29,,,,,*3b
$GPGLL,0549.2387,S,03512.7891,W,161215,A*21
$GPRMC,161215,A,0549.2387,S,03512.7891,W,28.97463665119403,19.98,180116,,*1e
$GPGSV,3,2,11,15,19.0,10.0,30.0,18,7.0,330.0,20.0,20,62.0,12.0,31.0,21,19.0,295.0,20.0*4a
$GPGSV,3,3,11,24,40.0,339.0,38.0,25,41.0,199.0,30.0,29,17.0,218.0,25.0*56
$GPGSA,A,3,2,5,12,,15,,20,21,24,25,29,,,,,*3b
$GPGSV,3,1,11,2,15.0,150.0,24.0,5,47.0,112.0,28.0,12,68.0,136.0,24.0,13,9.0,45.0,20.0*76
$GPGLL,0549.2234,S,03512.7839,W,161217,A*28
$GPGGA,162039,0549.8413,S,03512.7587,W,1,9,2.7,43.9,M,,,,*1d
$GPGLL,0549.8413,S,03512.7587,W,162039,A*24
$GPRMC,162039,A,0549.8413,S,03512.7587,W,14.235682397522092,316.47,180116,,*15
$GPGSA,A,3,2,5,12,,15,,20,21,24,25,29,,,,,*3b
$GPGSV,3,1,11,2,12.0,149.0,20.0,5,45.0,117.0,41.0,12,71.0,124.0,33.0,13,9.0,49.0,23.0*77
$GPGLL,0549.8383,S,03512.7616,W,162040,A*2f
$GPGSV,3,2,11,15,20.0,14.0,22.0,18,11.0,331.0,21.0,20,66.0,16.0,30.0,21,21.0,290.0,30.0*7e
$GPGSV,3,2,11,15,20.0,14.0,21.0,18,11.0,331.0,20.0,20,66.0,16.0,30.0,21,21.0,290.0,31.0*7d
$GPGSV,3,1,11,2,12.0,149.0,19.0,5,45.0,117.0,41.0,12,71.0,124.0,32.0,13,9.0,49.0,20.0*7f
$GPGSV,3,1,11,2,12.0,149.0,20.0,5,45.0,117.0,33.0,12,71.0,124.0,31.0,13,9.0,49.0,19.0*79
$GPGSV,3,2,11,15,20.0,14.0,19.0,18,11.0,331.0,22.0,20,66.0,16.0,31.0,21,21.0,290.0,37.0*73
$GPGSV,3,3,11,24,37.0,343.0,33.0,25,45.0,199.0,29.0,29,18.0,214.0,24.0*5e
$GPGGA,162044,0549.8284,S,03512.7725,W,1,9,2.6,44.1,M,,,,*1b
$GPGLL,0549.8284,S,03512.7725,W,162044,A*2c
$GPGLL,0549.0008,S,03512.7048,W,161328,A*24
$GPGSV,3,2,11,15,20.0,11.0,29.0,18,8.0,330.0,19.0,20,63.0,13.0,36.0,21,20.0,294.0,29.0*49
$GPGSV,3,3,11,24,39.0,340.0,33.0,25,41.0,199.0,31.0,29,18.0,217.0,19.0*53
$GPGSA,A,3,2,5,12,,15,,20,21,24,25,29,,,,,*3b
$GPGSV,3,1,11,2,15.0,150.0,26.0,5,47.0,112.0,35.0,12,69.0,134.0,29.0,13,9.0,46.0,23.0*76
$GPGLL,0549.0008,S,03512.7048,W,161330,A*2d
$GPGSV,3,2,11,15,20.0,11.0,29.0,18,8.0,330.0,20.0,20,63.0,13.0,36.0,21,20.0,294.0,30.0*4b
$GPGLL,0549.0008,S,03512.7048,W,161332,A*2f
$GPGSV,3,1,11,2,15.0,150.0,25.0,5,47.0,112.0,35.0,12,69.0,134.0,29.0,13,9.0,46.0,23.0*75
$GPGSV,3,2,11,15,20.0,11.0,29.0,18,8.0,330.0,20.0,20,63.0,13.0,36.0,21,20.0,294.0,30.0*4b
$GPGSV,3,3,11,24,39.0,340.0,35.0,25,41.0,199.0,32.0,29,18.0,217.0,20.0*5c
$GPGSA,A,3,2,5,12,,15,,20,21,24,25,29,,,,,*3b
$GPGSV,3,1,11,2,15.0,150.0,25.0,5,47.0,112.0,35.0,12,69.0,134.0,28.0,13,9.0,46.0,22.0*75
$GPGSV,3,2,11,15,20.0,11.0,29.0,18,8.0,330.0,20.0,20,63.0,13.0,36.0,21,20.0,294.0,30.0*4b
