$GPGSA,A,3,2,5,12,13,15,18,20,21,24,25,29,,,,,*30
$GPGSV,3,1,11,2,14.0,150.0,20.0,5,46.0,114.0,38.0,12,70.0,127.0,38.0,13,9.0,47.0,22.0*71
$GPGLL,0549.1618,S,03512.4902,W,154031,A*2b
$GPGSV,3,1,11,2,14.0,150.0,17.0,5,46.0,114.0,27.0,12,70.0,127.0,37.0,13,9.0,47.0,31.0*76
$GPGSV,3,1,11,2,14.0,150.0,17.0,5,46.0,114.0,28.0,12,70.0,127.0,24.0,13,9.0,47.0,24.0*7f
$GPGLL,0549.1657,S,03512.4905,W,154033,A*25
$GPRMC,154033,A,0549.1657,S,03512.4905,W,7.297938267667587,172.74,270116,,*21
$GPGLL,0549.1675,S,03512.4897,W,154034,A*28
$GPGSV,3,1,11,2,14.0,150.0,16.0,5,46.0,114.0,41.0,12,70.0,127.0,39.0,13,9.0,47.0,32.0*7a
$GPGSV,3,1,11,2,14.0,150.0,15.0,5,46.0,114.0,31.0,12,70.0,127.0,39.0,13,9.0,47.0,24.0*79
$GPGLL,0549.1701,S,03512.4869,W,154036,A*29
$GPGSV,3,2,11,15,20.0,12.0,21.0,18,9.0,331.0,30.0,20,65.0,14.0,36.0,21,21.0,292.0,27.0*41
$GPGLL,0549.1717,S,03512.4844,W,154038,A*2f
$GPGSV,3,2,11,15,20.0,12.0,20.0,18,9.0,331.0,28.0,20,65.0,14.0,36.0,21,21.0,292.0,27.0*49
$GPGSV,3,2,11,15,20.0,12.0,19.0,18,9.0,331.0,26.0,20,65.0,14.0,36.0,21,21.0,292.0,26.0*4c
$GPGSV,3,1,11,2,14.0,150.0,23.0,5,46.0,114.0,35.0,12,70.0,127.0,41.0,13,9.0,47.0,21.0*72
$GPGLL,0549.1726,S,03512.4831,W,154040,A*20
$GPGSV,3,2,11,15,20.0,12.0,17.0,18,9.0,331.0,24.0,20,65.0,14.0,35.0,21,21.0,292.0,28.0*4d
$GPGSV,3,3,11,24,38.0,342.0,32.0,25,44.0,199.0,21.0,29,18.0,216.0,21.0*5f
$GPGSA,A,3,2,5,12,13,,18,20,21,24,25,29,,,,,*34
$GPGSV,3,1,11,2,14.0,150.0,26.0,5,46.0,114.0,35.0,12,70.0,127.0,41.0,13,9.0,47.0,19.0*7c
$GPGLL,0549.1733,S,03512.4825,W,154042,A*23
$GPGSV,3,2,11,15,20.0,12.0,17.0,18,9.0,331.0,27.0,20,65.0,14.0,36.0,21,21.0,292.0,31.0*45
$GPGSV,3,3,11,24,38.0,342.0,32.0,25,44.0,199.0,22.0,29,18.0,216.0,19.0*57
$GPGSA,A,3,2,5,12,13,,18,20,21,24,25,29,,,,,*34
$GPGSV,3,1,11,2,14.0,150.0,24.0,5,46.0,114.0,37.0,12,70.0,127.0,42.0,13,9.0,47.0,18.0*7e
$GPGLL,0549.1737,S,03512.4822,W,154044,A*26
$GPGSV,3,2,11,15,20.0,12.0,16.0,18,9.0,331.0,24.0,20,65.0,14.0,36.0,21,21.0,292.0,31.0*47
$GPGSA,A,1,,,,,,,,,,,,,,,,*32
$GPGSV,3,1,11,2,12.0,148.0,0.0,5,45.0,118.0,0.0,12,71.0,119.0,0.0,13,9.0,50.0,0.0*79
$GPGSV,3,2,11,15,21.0,14.0,0.0,18,11.0,331.0,0.0,20,67.0,17.0,0.0,21,22.0,290.0,0.0*7f
$GPGSV,3,3,11,24,36.0,344.0,0.0,25,46.0,199.0,0.0,29,18.0,213.0,0.0*61
$GPGSA,A,1,,,,,,,,,,,,,,,,*32
$GPGSV,3,1,11,2,12.0,148.0,0.0,5,45.0,118.0,0.0,12,71.0,119.0,0.0,13,9.0,50.0,0.0*79
$GPGSV,3,3,11,24,36.0,344.0,0.0,25,46.0,199.0,0.0,29,18.0,213.0,0.0*61
$GPGSV,3,3,11,24,36.0,344.0,0.0,25,46.0,199.0,0.0,29,18.0,213.0,0.0*61
$GPGSV,3,3,11,24,36.0,344.0,0.0,25,46.0,199.0,0.0,29,18.0,213.0,0.0*61
$GPGSV,3,3,11,24,36.0,344.0,0.0,25,46.0,199.0,0.0,29,18.0,213.0,0.0*61
$GPGSV,3,3,11,24,36.0,344.0,0.0,25,46.0,199.0,0.0,29,18.0,213.0,0.0*61
$GPGSV,3,3,11,24,36.0,344.0,0.0,25,46.0,199.0,0.0,29,18.0,213.0,0.0*61
$GPGSV,3,3,11,24,36.0,344.0,0.0,25,46.0,199.0,0.0,29,18.0,213.0,0.0*61
$GPGSV,3,3,11,24,36.0,344.0,0.0,25,46.0,199.0,0.0,29,18.0,213.0,0.0*61
$GPGSV,3,3,11,24,36.0,344.0,0.0,25,46.0,199.0,0.0,29,18.0,213.0,0.0*61
$GPGSV,3,2,11,15,21.0,14.0,0.0,18,11.0,331.0,0.0,20,67.0,17.0,0.0,21,22.0,290.0,0.0*7f
$GPGSV,3,3,11,24,36.0,344.0,0.0,25,46.0,199.0,0.0,29,18.0,213.0,0.0*61
$GPGSV,3,3,11,24,36.0,344.0,0.0,25,46.0,199.0,0.0,29,18.0,213.0,0.0*61
$GPGSA,A,1,,,,,,,,,,,,,,,,*32
$GPGSV,3,1,11,2,12.0,148.0,0.0,5,44.0,118.0,33.0,12,71.0,119.0,25.0,13,9.0,50.0,0.0*7f
$GPGSV,3,2,11,15,21.0,14.0,0.0,18,11.0,331.0,0.0,20,67.0,17.0,0.0,21,22.0,290.0,0.0*7f
$GPGSV,3,2,11,15,21.0,14.0,0.0,18,11.0,331.0,0.0,20,67.0,17.0,0.0,21,22.0,290.0,24.0*49
$GPGSV,3,2,11,15,21.0,14.0,16.0,18,11.0,331.0,0.0,20,67.0,17.0,0.0,21,22.0,290.0,24.0*7e
$GPGSV,3,3,11,24,36.0,344.0,0.0,25,46.0,199.0,0.0,29,18.0,213.0,0.0*61
$GPGSA,A,3,,5,12,,15,,,21,,25,29,,,,,*0d
$GPGSV,3,1,11,2,12.0,148.0,0.0,5,44.0,118.0,25.0,12,71.0,119.0,36.0,13,9.0,50.0,0.0*7a
$GPGSV,3,2,11,15,21.0,14.0,17.0,18,11.0,331.0,0.0,20,67.0,17.0,0.0,21,22.0,290.0,19.0*71
$GPGSV,3,3,11,24,36.0,344.0,0.0,25,46.0,199.0,33.0,29,18.0,213.0,23.0*60
$GPGSV,3,1,11,2,12.0,148.0,0.0,5,44.0,118.0,26.0,12,71.0,119.0,23.0,13,9.0,50.0,0.0*7d
$GPGGA,154524,0549.1817,S,03512.4688,W,1,7,6.2,44.5,M,,,,*1b
$GPGLL,0549.1817,S,03512.4688,W,154524,A*26
$GPRMC,154524,A,0549.1817,S,03512.4688,W,0.0,77.9,270116,,*2b
$GPGGA,154525,0549.1802,S,03512.4681,W,1,7,5.7,43.6,M,,,,*15
$GPGLL,0549.1802,S,03512.4681,W,154525,A*2a
$GPGSV,3,2,11,15,21.0,14.0,27.0,18,12.0,331.0,0.0,20,67.0,17.0,28.0,21,22.0,290.0,14.0*46
$GPGSV,3,1,11,2,12.0,148.0,26.0,5,44.0,118.0,25.0,12,71.0,119.0,24.0,13,9.0,50.0,0.0*4d
$GPGSV,3,2,11,15,21.0,14.0,28.0,18,12.0,331.0,0.0,20,67.0,17.0,36.0,21,22.0,290.0,14.0*46
$GPGSV,3,3,11,24,36.0,344.0,22.0,25,46.0,199.0,20.0,29,18.0,213.0,17.0*55
$GPGGA,154527,0549.1796,S,03512.4657,W,1,9,4.8,43.4,M,,,,*1c
$GPGLL,0549.1796,S,03512.4657,W,154527,A*21
$GPGSV,3,2,11,15,21.0,14.0,29.0,18,12.0,331.0,0.0,20,67.0,17.0,36.0,21,22.0,290.0,14.0*47
$GPGSV,3,3,11,24,36.0,344.0,32.0,25,46.0,199.0,22.0,29,18.0,213.0,16.0*57
