$GPGSV,3,1,11,10,40.0,204.0,34.0,14,70.0,0.0,29.0,16,22.0,272.0,15.0,18,28.0,163.0,26.0*71
$GPGSV,3,2,11,21,38.0,131.0,28.0,22,31.0,254.0,17.0,24,6.0,102.0,26.0,26,28.0,305.0,35.0*47
$GPGSV,3,3,11,27,21.0,216.0,15.0,29,31.0,35.0,39.0,31,14.0,349.0,28.0*66
$GPGGA,205313,0550.5042,S,03512.6233,W,1,11,1.9,60.5,M,,,,*21
$GPGLL,0550.5042,S,03512.6233,W,205313,A*21
$GPRMC,205313,A,0550.5042,S,03512.6233,W,8.735713988967495,159.99,260116,,*2c
$GPGSA,A,3,10,14,16,18,21,22,24,26,27,29,31,,,,,*37
$GPGLL,0550.5059,S,03512.6225,W,205314,A*2b
$GPGSV,3,2,11,21,38.0,131.0,29.0,22,31.0,254.0,14.0,24,6.0,102.0,29.0,26,28.0,305.0,36.0*49
$GPGSV,3,3,11,27,21.0,216.0,24.0,29,31.0,35.0,26.0,31,14.0,349.0,30.0*63
$GPGGA,205316,0550.5081,S,03512.6215,W,1,11,2.0,61.5,M,,,,*24
$GPGLL,0550.5081,S,03512.6215,W,205316,A*2f
$GPGSV,3,2,11,21,38.0,131.0,30.0,22,31.0,254.0,15.0,24,6.0,102.0,29.0,26,28.0,305.0,37.0*41
$GPGSV,3,3,11,27,21.0,216.0,22.0,29,31.0,35.0,27.0,31,14.0,349.0,30.0*64
$GPGLL,0550.3178,S,03512.3129,W,101248,A*2a
$GPRMC,101248,A,0550.3178,S,03512.3129,W,24.88542907918931,152.44,270116,,*28
$GPGSA,A,3,,2,5,6,7,9,13,,17,19,28,30,,,,*0a
$GPGSV,3,1,12,1,1.0,128.0,0.0,2,15.0,342.0,28.0,5,14.0,309.0,30.0,6,39.0,22.0,27.0*4a
$GPGSV,3,1,12,1,1.0,128.0,0.0,2,15.0,342.0,28.0,5,14.0,309.0,23.0,6,39.0,22.0,34.0*4a
$GPGGA,101250,0550.3302,S,03512.3060,W,1,10,2.1,44.3,M,,,,*2a
$GPGLL,0550.3302,S,03512.3060,W,101250,A*20
$GPGSV,3,2,12,7,28.0,75.0,38.0,9,8.0,27.0,21.0,13,47.0,234.0,40.0,15,9.0,226.0,27.0*76
$GPGSV,3,3,12,17,62.0,170.0,31.0,19,71.0,174.0,27.0,28,22.0,163.0,33.0,30,46.0,110.0,38.0*71
$GPGLL,0550.3369,S,03512.3026,W,101251,A*2e
$GPGSV,3,1,12,1,1.0,128.0,0.0,2,15.0,342.0,26.0,5,14.0,309.0,31.0,6,39.0,22.0,31.0*42
$GPGSV,3,2,12,7,28.0,75.0,38.0,9,8.0,27.0,20.0,13,47.0,234.0,40.0,15,9.0,226.0,26.0*76
$GPGSV,3,3,12,17,62.0,170.0,31.0,19,71.0,174.0,27.0,28,22.0,163.0,31.0,30,46.0,110.0,40.0*7c
$GPGGA,101253,0550.3506,S,03512.2952,W,1,10,2.1,44.6,M,,,,*27
$GPGSV,3,1,11,2,9.0,146.0,27.0,5,42.0,123.0,34.0,12,73.0,103.0,17.0,13,9.0,54.0,16.0*4c
$GPGSV,3,2,11,15,22.0,18.0,16.0,18,14.0,331.0,28.0,20,70.0,22.0,15.0,21,23.0,286.0,22.0*7a
$GPGSV,3,3,11,24,34.0,347.0,22.0,25,50.0,199.0,37.0,29,19.0,210.0,33.0*51
$GPGGA,155406,0550.6561,S,03512.5931,W,1,10,2.6,62.3,M,,,,*20
$GPGSV,3,1,11,2,9.0,146.0,27.0,5,42.0,123.0,35.0,12,73.0,103.0,17.0,13,9.0,54.0,15.0*4e
$GPGLL,0550.6561,S,03512.5931,W,155407,A*28
$GPRMC,155407,A,0550.6561,S,03512.5931,W,0.0,66.52,270116,,*1b
$GPGSV,3,2,11,15,22.0,18.0,15.0,18,15.0,331.0,29.0,20,70.0,22.0,17.0,21,23.0,286.0,22.0*7b
$GPGSV,3,3,11,24,34.0,347.0,22.0,25,50.0,199.0,37.0,29,19.0,210.0,30.0*52
$GPGGA,155408,0550.6561,S,03512.5931,W,1,10,2.6,62.3,M,,,,*2e
$GPGLL,0550.6561,S,03512.5931,W,155408,A*27
$GPRMC,155408,A,0550.6561,S,03512.5931,W,0.0,66.52,270116,,*14
$GPGSA,A,3,2,5,12,,15,18,20,21,24,25,29,,,,,*32
$GPGSV,3,1,11,2,9.0,146.0,27.0,5,42.0,123.0,35.0,12,73.0,103.0,17.0,13,9.0,54.0,17.0*4c
$GPGSV,3,1,11,2,9.0,146.0,27.0,5,42.0,123.0,34.0,12,73.0,103.0,17.0,13,9.0,54.0,17.0*4d
$GPGGA,155410,0550.6561,S,03512.5931,W,1,10,2.5,62.3,M,,,,*24
$GPGLL,0550.6561,S,03512.5931,W,155410,A*2e
$GPRMC,155410,A,0550.6561,S,03512.5931,W,0.0,66.52,270116,,*1d
$GPGGA,155411,0550.6561,S,03512.5931,W,1,10,2.5,62.3,M,,,,*25
$GPGLL,0550.6561,S,03512.5931,W,155411,A*2f
$GPGSV,3,2,11,15,22.0,18.0,17.0,18,15.0,331.0,28.0,20,71.0,24.0,18.0,21,23.0,286.0,21.0*73
$GPGSV,3,2,11,15,22.0,18.0,17.0,18,15.0,331.0,27.0,20,71.0,24.0,17.0,21,23.0,286.0,21.0*73
$GPGSV,3,3,11,24,34.0,347.0,21.0,25,50.0,199.0,37.0,29,19.0,210.0,29.0*59
$GPGGA,155413,0550.6561,S,03512.5931,W,1,10,2.5,62.3,M,,,,*27
$GPGLL,0550.6561,S,03512.5931,W,155413,A*2d
$GPGSV,3,2,11,15,22.0,18.0,17.0,18,15.0,331.0,26.0,20,71.0,24.0,17.0,21,23.0,286.0,21.0*72
$GPGSV,3,2,11,15,22.0,18.0,17.0,18,15.0,331.0,25.0,20,71.0,24.0,16.0,21,23.0,286.0,21.0*70
$GPGSV,3,3,11,24,33.0,348.0,27.0,25,51.0,199.0,36.0,29,19.0,210.0,30.0*5f
$GPRMC,161928,A,0550.2829,S,03512.5018,W,19.57756476694006,259.39,270116,,*2e
$GPGSA,A,3,,5,12,13,15,18,20,21,24,25,29,,,,,*02
$GPGSV,3,1,12,2,2.0,139.0,12.0,5,34.0,133.0,30.0,12,70.0,62.0,30.0,13,10.0,65.0,17.0*45
$GPGLL,0550.2844,S,03512.5121,W,161930,A*21
$GPGSV,3,2,12,15,25.0,29.0,28.0,18,24.0,331.0,31.0,20,80.0,65.0,28.0,21,26.0,273.0,24.0*71
$GPGSV,3,3,12,24,26.0,356.0,28.0,25,63.0,202.0,21.0,29,23.0,199.0,28.0,31,2.0,237.0,0.0*74
$GPGSV,3,2,12,15,25.0,29.0,29.0,18,24.0,331.0,31.0,20,80.0,65.0,26.0,21,26.0,273.0,23.0*79
$GPGSV,3,2,12,15,25.0,29.0,30.0,18,24.0,331.0,20.0,20,80.0,65.0,27.0,21,26.0,273.0,23.0*70
$GPGSV,3,3,12,24,26.0,356.0,26.0,25,63.0,202.0,28.0,29,23.0,199.0,27.0,31,2.0,237.0,0.0*7c
$GPGSA,A,3,,5,12,13,15,18,20,21,24,25,29,,,,,*02
$GPGSV,3,1,12,2,2.0,139.0,14.0,5,34.0,133.0,29.0,12,70.0,62.0,30.0,13,10.0,65.0,18.0*44
$GPGSV,3,1,12,2,2.0,139.0,11.0,5,34.0,133.0,27.0,12,70.0,62.0,31.0,13,10.0,65.0,20.0*45
$GPGLL,0550.2870,S,03512.5276,W,161934,A*23
$GPRMC,161934,A,0550.2870,S,03512.5276,W,11.062970466812434,257.74,270116,,*12
